time_stamp,nav_roll,nav_pitch,nav_bearing,target_bearing,wp_dist,alt_error,airspeed,groundspeed,throttle,climb,heading,GPS_status,Gyro_status,Accel_status,Baro_status,PreArm_error,chan1_raw,chan2_raw,chan3_raw,chan4_raw,satellites_visible,MODE,PHASE,roll,pitch,yaw,rollspeed,pitchspeed,yawspeed,lat,lon,relative_alt
17:44:39,-4.01E-05,0.000301605,1,0,0,0.03580657,0,0.021388704,0,-0.018157724,1,1,1,1,1,0,1500,1500,1000,1500,10,STABILIZE,INITIALISATION,-7.15E-05,0.001573646,0.027925149,0.000295314,0.000236776,0.00244925,-35.3632621,149.1652374,0
17:44:41,-4.01E-05,0.000301604,1,0,0,0.020881137,0,0.026778274,0,-0.004342045,1,1,1,1,1,0,1500,1500,1000,1500,10,STABILIZE,INITIALISATION,-0.000506228,0.001198739,0.026341526,0.000251589,0.000232221,0.002104212,-35.3632622,149.1652375,0
17:44:42,-4.01E-05,0.000301604,1,0,0,0.014964242,0,0.022802253,0,-9.51E-05,1,1,1,1,1,0,1500,1500,1000,1500,10,STABILIZE,INITIALISATION,-0.000694616,0.001069535,0.025972316,0.000270483,0.000182843,0.0021374,-35.3632622,149.1652375,0
17:44:43,-4.01E-05,0.000301604,1,0,0,0.011709106,0,0.020384585,0,0.002334303,1,1,1,1,1,0,1500,1500,1000,1500,10,STABILIZE,INITIALISATION,-0.000757426,0.000942916,0.025432628,0.00016092,0.000299726,0.002002805,-35.36326215,149.1652375,0
17:44:46,-4.01E-05,0.000301605,1,0,0,-0.004060345,0,0.014106181,0,0.021298845,1,1,1,1,1,0,1500,1500,1000,1500,10,STABILIZE,INITIALISATION,-0.000854562,0.000933314,0.024386865,0.000320689,0.000207349,0.001868299,-35.3632621,149.1652374,3.5
17:44:49,-4.01E-05,0.000301606,1,0,0,-0.016054137,0,0.022407211,0,0.011248742,1,1,1,1,1,0,1500,1500,1000,1500,10,STABILIZE,INITIALISATION,-0.000786371,0.000996785,0.023360685,0.000298274,0.000275481,0.001708013,-35.3632622,149.1652375,16
17:44:50,-4.01E-05,0.000301606,1,0,0,-0.015820162,0,0.022750232,0,0.009771708,1,1,1,1,1,0,1500,1500,1000,1500,10,STABILIZE,INITIALISATION,-0.000660028,0.000996552,0.023121881,0.000346315,0.000245724,0.001648309,-35.3632622,149.1652375,15.5
17:44:53,-4.01E-05,0.000301607,1,66.5,0,-0.00616074,0,0.022092676,0,0.002208738,1,1,1,1,1,0,1500,1500,1000,1500,10,AUTO,TAKEOFF,-0.000839511,0.000975036,0.022292978,0.000256969,0.000150726,0.001601917,-35.3632622,149.1652375,6.5
17:44:54,-4.01E-05,0.000301607,1,132.75,0,0,0,0.013214165,0,0.001629496,1,1,1,1,1,0,1500,1500,1000,1500,10,AUTO,TAKEOFF,-0.000873458,0.001003639,0.022067208,0.00025309,0.000252904,0.001575472,-35.36326213,149.1652375,1
17:44:55,-4.01E-05,0.000301607,1,133,0,0,0,0.002719083,0,0.000663279,1,1,1,1,1,0,1500,1500,1000,1500,10,AUTO,TAKEOFF,-0.000727132,0.001191494,0.021839654,0.00025257,0.000293473,0.001513449,-35.3632621,149.1652375,0.5
17:44:56,0.010374644,0.007267532,1,133,0,0.014048494,0,0.002320793,4.5,-0.000438806,1,1,1,1,1,0,1500,1500,1000,1500,10,AUTO,TAKEOFF,-0.000517264,0.001462932,0.021599417,0.000284,0.000265091,0.001519333,-35.3632621,149.1652375,0
17:44:57,-1.231415221,0.702363564,1,157,0,0.267513566,0.026000001,0.111449527,40,0.154716253,178.5,1,1,1,1,0,1500,1500,1000,1500,10,AUTO,TAKEOFF,0.046283137,-0.044368368,-0.019542333,0.167853399,-0.199633635,-0.338602857,-35.36326205,149.1652376,26
17:44:58,-9.658881903,10.12614274,-12.5,209.5,0,0.251826715,0.615250036,0.643458799,67,0.431655362,323.25,1,1,1,1,0,1500,1500,1000,1500,10,AUTO,TAKEOFF,0.05373157,-0.084135873,-0.634375997,-0.254737251,0.007242131,-0.873617843,-35.36325942,149.1652397,309.25
17:44:59,-10.87125063,8.3124547,-55,190.5,0,1.99E-05,0.480500028,0.437533855,60,0.454621121,278.5,1,1,1,1,0,1500,1500,1000,1500,10,AUTO,TAKEOFF,-0.066658618,-0.053255547,-1.417844176,-0.096766822,0.056292308,-0.720880598,-35.36325585,149.1652393,749.5
17:45:00,-6.730693102,3.607467651,-92.75,161.25,0,-0.000363197,0.490500018,0.535485044,59.25,0.456814952,239.75,1,1,1,1,0,1500,1500,1000,1500,10,AUTO,TAKEOFF,-0.056200656,-0.044117077,-2.086573511,0.0144444,0.052123407,-0.604186624,-35.36325748,149.165236,1222.25
17:45:01,-3.225347281,1.760101974,-124,102.5,0,-0.000487595,0.472500026,0.43372795,59,0.466722772,208,1,1,1,1,0,1500,1500,1000,1500,10,AUTO,TAKEOFF,-0.026440196,-0.021184148,-2.63949132,-0.00093351,0.038005807,-0.508035779,-35.36326155,149.1652347,1698
17:45:02,-1.416313559,1.347758234,-150.75,43.75,0,-0.001176758,0.274000015,0.235562339,59,0.469636157,181.5,1,1,1,1,0,1500,1500,1000,1500,10,AUTO,TAKEOFF,-0.014126979,-0.001490354,0.035401583,0.004959713,0.020753485,-0.421166688,-35.36326445,149.1652352,2181.25
17:45:03,-0.808327496,1.20227766,6.5,20,0,-9.96E-05,0.138000008,0.128259856,59,0.464763016,159.5,1,1,1,1,0,1500,1500,1000,1500,10,AUTO,TAKEOFF,-0.012657661,0.006508425,2.789291263,0.019008565,0.00783327,-0.339125097,-35.3632654,149.1652363,2664
17:45:04,-0.558128536,1.015882835,168,6.75,0,-0.000530548,0.097500004,0.113824258,59,0.455476224,141.25,1,1,1,1,0,1500,1500,1000,1500,10,AUTO,TAKEOFF,-0.01187315,0.008129486,2.475065589,-0.01207055,0.002984944,-0.264153223,-35.3632653,149.1652372,3140.5
17:45:05,-0.409663111,0.782974988,155,177,0,-0.000320435,0.098000005,0.111667648,59,0.451875523,128,1,1,1,1,0,1500,1500,1000,1500,10,AUTO,TAKEOFF,-0.00926358,0.00717401,2.247421503,0.052371528,-3.67E-05,-0.192546196,-35.3632646,149.1652378,3609
17:45:06,-0.28136766,0.573802605,146,349,0,0.000803986,0.087500002,0.096317951,59.75,0.444934607,119,1,1,1,1,0,1500,1500,1000,1500,10,AUTO,TAKEOFF,-0.007533323,0.005621678,2.086651385,-0.008733353,0.00019444,-0.122754132,-35.36326383,149.165238,4069.5
17:45:07,-0.147830971,0.413808987,140.5,338.5,0,0.000326385,0.070500001,0.075828563,60,0.439095944,114,1,1,1,1,0,1500,1500,1000,1500,10,AUTO,TAKEOFF,-0.004336914,0.004894871,1.997552574,0.015389922,0.0007363,-0.057498757,-35.3632632,149.165238,4525.5
17:45:08,-0.00516052,0.272350177,139,317.25,0,0.000195923,0.048000001,0.055317653,60,0.435862139,112,1,1,1,1,0,1500,1500,1000,1500,10,AUTO,TAKEOFF,-0.002148538,0.004153978,1.968853176,0.011901685,9.28E-06,0.004550551,-35.36326275,149.1652381,4975.25
17:45:09,0.072627675,0.235709563,139,272.5,0,-0.000155029,0.032500001,0.042419804,60,0.428888351,114,1,1,1,1,0,1500,1500,1000,1500,10,AUTO,TAKEOFF,-0.000836841,0.003935105,1.994424403,-0.045315232,0.000715281,0.041865736,-35.3632624,149.1652381,5421.5
17:45:10,0.172432795,0.157817878,139,226.75,0,-0.000310822,0.019500001,0.036336871,60,0.436262988,116.25,1,1,1,1,0,1500,1500,1000,1500,10,AUTO,TAKEOFF,0.000829453,0.003476605,2.039274156,0.030491732,-0.00015852,0.049514598,-35.36326223,149.165238,5867
17:45:11,0.169997908,0.168923005,139,211.5,0,-0.001817017,0.0115,0.034785518,60,0.424389258,119,1,1,1,1,0,1500,1500,1000,1500,10,AUTO,TAKEOFF,0.000437477,0.003638978,2.084966898,-0.111149278,0.001914588,0.046740135,-35.36326215,149.165238,6311.5
17:45:12,0.172407631,0.150441427,139,204.25,0,-0.001212311,0.009,0.037727009,60,0.437617287,121.25,1,1,1,1,0,1500,1500,1000,1500,10,AUTO,TAKEOFF,0.00203459,0.003312067,2.12605828,0.040129832,-9.36E-05,0.038801101,-35.3632621,149.165238,6755.25
17:45:13,0.180784345,0.142743722,139,199.5,0,-0.001630859,0.007,0.037492752,59.5,0.436517373,123.5,1,1,1,1,0,1500,1500,1000,1500,10,AUTO,TAKEOFF,0.000978654,0.003024802,2.160813451,-0.109099679,0.001428851,0.033454026,-35.363262,149.1652379,7204
17:45:14,0.205091953,0.119269356,139,197,0,-0.000815887,0.010250001,0.041734864,59,0.448910207,125,1,1,1,1,0,1500,1500,1000,1500,10,AUTO,TAKEOFF,0.002276334,0.002705652,2.190518916,-0.00099967,4.55E-05,0.02832338,-35.363262,149.1652379,7654.25
17:45:15,0.203110129,0.084911764,139,193.5,0,-0.000863953,0.0045,0.044249717,59,0.442307115,126.5,1,1,1,1,0,1500,1500,1000,1500,10,AUTO,TAKEOFF,0.004369754,0.00198917,2.215827227,0.026468455,0.00114039,0.024214551,-35.3632619,149.1652379,8103.5
17:45:16,0.227405589,0.073273711,139,193.75,0,-0.000401306,0.0045,0.047624418,60,0.444244795,127.75,1,1,1,1,0,1500,1500,1000,1500,10,AUTO,TAKEOFF,0.00309062,0.001814527,2.237873316,-0.016104992,0.000540307,0.020386195,-35.3632619,149.1652379,8550.5
17:45:17,0.258773044,0.078463152,139,196,0,-0.001178894,0.003,0.048183059,59.5,0.4427066,128.5,1,1,1,1,0,1500,1500,1000,1500,10,AUTO,TAKEOFF,0.005914015,0.002055197,2.257081509,0.087304704,0.000931887,0.017930038,-35.3632619,149.165238,8997.5
17:45:18,0.252114262,0.082073784,139,196.75,0,-0.000818787,0.01225,0.049742756,60,0.438877836,129.75,1,1,1,1,0,1500,1500,1000,1500,10,AUTO,TAKEOFF,0.004197899,0.0021753,2.273900747,-0.022479895,0.001000961,0.015277145,-35.3632619,149.165238,9443.5
17:45:19,0.261649527,0.095225517,139,194.5,0,-0.001427002,0.022000001,0.043907583,60,0.436938405,130.5,1,1,1,1,0,1500,1500,1000,1500,10,AUTO,TAKEOFF,0.006387432,0.002238952,2.28779161,0.117976516,0.000913702,0.013691745,-35.3632619,149.1652379,9887.5
17:45:20,0.214378681,0.111667663,139,186.75,0,-0.001022644,0.025,0.03600711,60,0.436161228,131,1,1,1,1,0,1500,1500,1000,1500,10,AUTO,TAKEOFF,0.002400549,0.002416756,2.299649954,-0.05344955,-0.000607306,0.012749204,-35.36326197,149.1652378,10333
17:45:21,0.180008754,0.112350423,139,163.5,0,-2.87E-05,0.022000001,0.027385646,60,0.443825498,132,1,1,1,1,0,1500,1500,1000,1500,10,AUTO,TAKEOFF,0.003574345,0.002211391,2.309959531,0.144082747,0.000805925,0.011460027,-35.3632621,149.1652377,10779
17:45:22,0.114591967,0.106249252,139,134.75,0,-0.000486755,0.021750002,0.021699511,60,0.432846181,132.25,1,1,1,1,0,1500,1500,1000,1500,10,AUTO,TAKEOFF,0.001888204,0.002031056,2.319335461,-0.036712424,-0.000588863,0.010417558,-35.3632622,149.1652376,11223
17:45:23,0.033741612,0.11829241,139,104,0,-8.00E-05,0.017000001,0.020037657,60,0.442383841,133,1,1,1,1,0,1500,1500,1000,1500,10,AUTO,TAKEOFF,-0.000148216,0.001974483,2.327602744,0.045965228,0.001446735,0.008302721,-35.3632623,149.1652375,11668
17:45:24,-0.024102041,0.138249189,139,83.75,0,-0.000895386,0.00575,0.02268148,60,0.436879642,133,1,1,1,1,0,1500,1500,1000,1500,10,AUTO,TAKEOFF,-9.90E-06,0.002294171,2.334708691,-0.014949617,0.001192868,0.006587246,-35.3632624,149.1652375,12114.75
17:45:25,-0.045340607,0.153313793,139,77.5,0,-0.00059021,0.003,0.026125737,60,0.435462728,134,1,1,1,1,0,1500,1500,1000,1500,10,AUTO,TAKEOFF,-0.000471828,0.00253437,2.341495991,-0.021694671,-0.000243621,0.006375276,-35.3632624,149.1652375,12584.5
17:45:26,-0.053745062,0.152191702,139,78,0,-0.000220947,0.00325,0.027798897,60,0.43398492,134,1,1,1,1,0,1500,1500,1000,1500,10,AUTO,TAKEOFF,-0.000460314,0.002524127,2.347619295,0.021034013,0.00061597,0.005264476,-35.3632624,149.1652375,13053.5
17:45:27,-0.039667372,0.147391193,139,82,0,0.000537109,0.0085,0.028706248,60,0.430209517,134,1,1,1,1,0,1500,1500,1000,1500,10,AUTO,TAKEOFF,-0.002628664,0.002483692,2.353208065,-0.149006754,-0.000425062,0.006545346,-35.3632624,149.1652375,13501.5
17:45:28,-0.015957725,0.124731671,139,94.25,0,0.000336914,0.021000001,0.026727328,60,0.435902312,135,1,1,1,1,0,1500,1500,1000,1500,10,AUTO,TAKEOFF,-0.001129034,0.002114291,2.35830158,0.042127864,-0.000390401,0.004528318,-35.36326238,149.1652375,13946.75
17:45:29,-0.021768734,0.076376457,139,123,0,0.000184326,0.027500001,0.021615559,60,0.430660859,135,1,1,1,1,0,1500,1500,1000,1500,10,AUTO,TAKEOFF,0.001425532,0.001282799,2.362625122,0.073904628,-0.000322726,0.004842001,-35.36326225,149.1652375,14370.5
17:45:30,0.010830681,0.065115246,139,153.25,0,0.000210571,0.026500001,0.019577285,60,0.429118566,135,1,1,1,1,0,1500,1500,1000,1500,10,AUTO,TAKEOFF,-0.00028812,0.001047357,2.366829813,-0.038412953,0.000269442,0.006426367,-35.36326218,149.1652376,14794.25
17:45:31,0.105642453,0.077083245,139,177.5,0,-6.90E-05,0.019000001,0.024464479,60,0.433645606,135,1,1,1,1,0,1500,1500,1000,1500,10,AUTO,TAKEOFF,0.002335505,0.001399142,2.37110889,0.024546724,0.001356295,0.006314318,-35.3632621,149.1652377,15263.5
17:45:32,0.14239464,0.091976082,139,190.5,0,0.000335693,0.015250001,0.032286099,59.75,0.443990916,136,1,1,1,1,0,1500,1500,1000,1500,10,AUTO,TAKEOFF,0.002251168,0.001650689,2.375428796,0.027063509,0.000698061,0.006511748,-35.363262,149.1652378,15738
17:45:33,0.177258879,0.09571607,139,197.5,0,-0.001078491,0.0065,0.037810553,60,0.440883026,136,1,1,1,1,0,1500,1500,1000,1500,10,AUTO,TAKEOFF,0.00435505,0.001713328,2.379070163,0.068888407,-0.001710652,0.004752937,-35.363262,149.1652379,16169
17:45:34,0.19407393,0.119541001,139,202,0,-0.000895386,0.00325,0.042250446,60,0.437664598,136,1,1,1,1,0,1500,1500,1000,1500,10,AUTO,TAKEOFF,0.003076976,0.002154592,2.382478833,-0.040490407,0.000565317,0.004524582,-35.363262,149.165238,16596
17:45:35,0.230512589,0.099979442,139,201,0,-0.00074585,0.003,0.044590561,60,0.437903389,136,1,1,1,1,0,1500,1500,1000,1500,10,AUTO,TAKEOFF,0.004501235,0.001816998,2.386046767,0.065689563,-0.00089645,0.004526405,-35.363262,149.165238,17066.5
17:45:36,0.311497055,0.062936733,139,198.75,0,-0.00091095,0.00075,0.044830168,60,0.438714586,136,1,1,1,1,0,1500,1500,1000,1500,10,AUTO,TAKEOFF,0.003630493,0.001247787,2.388973475,-0.02504411,0.000685173,0.003735055,-35.3632619,149.165238,17536.75
17:45:37,0.259867489,0.064298956,139,198,0,-0.001192627,0.004,0.050542109,60,0.44355908,136.5,1,1,1,1,0,1500,1500,1000,1500,10,AUTO,TAKEOFF,0.003492692,0.001280837,2.391417146,-0.021538191,0.000286854,0.003196186,-35.3632619,149.165238,17965.5
17:45:38,0.261810139,0.072681574,139,199.75,0,-0.000164795,0.00575,0.05376526,60,0.44367899,137,1,1,1,1,0,1500,1500,1000,1500,10,AUTO,TAKEOFF,0.004958055,0.001362494,2.394226789,0.044455982,0.000591893,0.004376031,-35.3632619,149.165238,18393
17:45:39,0.208736718,0.084657375,139,201.5,0,-0.000219727,0.008,0.060370084,60,0.443637371,137,1,1,1,1,0,1500,1500,1000,1500,10,AUTO,TAKEOFF,0.003614746,0.001550715,2.396854162,-0.006888587,0.000436915,0.001983698,-35.3632619,149.165238,18865.5
17:45:40,0.217596881,0.078342071,139,203.5,0,-0.000937805,0.01225,0.061905881,59.75,0.447466865,137,1,1,1,1,0,1500,1500,1000,1500,10,AUTO,TAKEOFF,0.003840734,0.001514299,2.399250805,-0.014481867,-0.000363607,0.002807854,-35.3632619,149.165238,19338
17:45:41,0.282315381,0.096012183,139,207.5,0,-0.001166992,0.008,0.066331897,60,0.45394899,137,1,1,1,1,0,1500,1500,1000,1500,10,AUTO,TAKEOFF,0.005668442,0.001846068,2.401323318,0.106569914,-0.000481639,0.002103955,-35.3632619,149.1652381,19790
17:45:42,0.357356854,0.116915187,139,210.75,0,-0.000862122,0.010000001,0.063674198,60,0.444297567,137,1,1,1,1,0,1500,1500,1000,1500,10,AUTO,TAKEOFF,0.005674582,0.002127219,2.403157175,-0.035540376,-8.29E-05,0.003497564,-35.3632618,149.1652382,20240.75
17:45:43,0.373143196,0.123218551,139,208.5,0,-0.000957031,0.026500002,0.060268776,60,0.452513516,137,1,1,1,1,0,1500,1500,1000,1500,10,AUTO,TAKEOFF,0.006632785,0.002250617,2.404935002,0.125368912,-0.000417158,0.001858724,-35.3632618,149.1652382,20691.5
17:45:44,0.299471579,0.124359217,139,200.75,0,0.000474243,0.037250001,0.048810536,60,0.441186316,137,1,1,1,1,0,1500,1500,1000,1500,10,AUTO,TAKEOFF,0.004677573,0.002205695,2.406691611,-0.040342028,-0.000426986,0.003715204,-35.36326192,149.1652379,21139.25
17:45:45,0.190359563,0.149803229,139,179,0,-0.000584717,0.029500001,0.038382446,60,0.446078807,137.5,1,1,1,1,0,1500,1500,1000,1500,10,AUTO,TAKEOFF,0.004162046,0.002610412,2.408475399,0.117094606,-0.000469722,0.002263076,-35.36326205,149.1652378,21585.5
17:45:46,0.133857518,0.131121136,139,143,0,-0.001190796,0.019500001,0.026316721,60,0.436585002,138,1,1,1,1,0,1500,1500,1000,1500,10,AUTO,TAKEOFF,0.001809852,0.002255046,2.410011053,-0.023924793,-0.000886817,0.003372735,-35.3632622,149.1652377,22029
17:45:47,0.106447063,0.117304895,139,123.5,0,-0.000317383,0.01,0.022576643,60,0.444664165,138,1,1,1,1,0,1500,1500,1000,1500,10,AUTO,TAKEOFF,0.00164333,0.001988052,2.411607385,0.049845093,0.000415937,0.001723502,-35.3632622,149.1652376,22475.5
17:45:48,0.033967515,0.111848837,139,118.25,0,0.000385132,0.0035,0.021602615,60,0.437808335,138,1,1,1,1,0,1500,1500,1000,1500,10,AUTO,TAKEOFF,0.000787602,0.00190441,2.413030863,-0.017284892,-0.000260939,0.001157147,-35.3632622,149.1652375,22921.75
17:45:49,0.030408604,0.092571802,139,131,0,0.000163574,0.015000001,0.023387399,60,0.443991482,138,1,1,1,1,0,1500,1500,1000,1500,10,AUTO,TAKEOFF,0.00045534,0.001664147,2.41418004,0.07023878,-0.000235221,0.000226325,-35.3632622,149.1652375,23369
17:45:50,0.016336283,0.096951552,139,144.25,0,0.001046143,0.017000001,0.023502851,60,0.434743993,138,1,1,1,1,0,1500,1500,1000,1500,10,AUTO,TAKEOFF,0.000278064,0.001656711,2.41527468,-0.017969461,0.000219764,0.00188858,-35.3632622,149.1652375,23815.75
17:45:51,0.088779259,0.096518025,139,163,0,0.001099853,0.015000001,0.025990597,60,0.440431401,138,1,1,1,1,0,1500,1500,1000,1500,10,AUTO,TAKEOFF,0.000387758,0.001597331,2.416268587,0.047374436,-0.001046326,0.001360812,-35.3632622,149.1652376,24261.5
17:45:52,0.11765451,0.114507897,139,175,0,-0.000952148,0.00325,0.025221053,60,0.435045384,138,1,1,1,1,0,1500,1500,1000,1500,10,AUTO,TAKEOFF,0.001684941,0.001939455,2.417115808,0.005799982,0.001118703,0.002459773,-35.3632622,149.1652377,24709.5
17:45:53,0.705659188,-0.359187532,139,175.5,0,0.00081543,0.024500002,0.054089246,60,0.434444517,139.5,1,1,1,1,0,1500,1500,1000,1500,10,AUTO,TAKEOFF,-0.00467593,0.004786738,2.44292891,-0.152677678,-0.010786724,0.011350887,-35.3632621,149.1652377,25149.5
17:45:54,1.415634543,-0.906450227,139,182,0,0.000359497,0.054750002,0.052667437,60,0.444786049,141,1,1,1,1,0,1500,1500,1000,1500,10,AUTO,TAKEOFF,0.001649458,-4.76E-05,2.467502952,0.010504264,-0.00725203,-0.004326166,-35.36326165,149.1652377,25595
17:45:55,1.254297495,-0.758495986,139,183,0,-0.001630859,0.014,0.019601688,60,0.44086808,141,1,1,1,1,0,1500,1500,1000,1500,10,AUTO,TAKEOFF,0.009528494,-0.003074811,2.464287281,0.191644356,-0.001962186,-0.002535287,-35.3632615,149.1652378,25880
17:45:56,0.835549676,-0.33082054,139,188.6,0,-0.000848145,0.035000002,0.050162413,60,0.441868401,140.8,1,1,1,1,0,1500,1500,1000,1500,10,AUTO,TAKEOFF,0.007539828,-0.001386794,2.461322832,0.024188701,0.002161836,-0.000606294,-35.36326166,149.1652378,26444
17:45:57,0.462036669,-0.05756152,139,192,0,-0.001970215,0.045500003,0.052450782,60,0.437995166,140,1,1,1,1,0,1500,1500,1000,1500,10,AUTO,TAKEOFF,0.008566937,0.000966287,2.459097147,0.12751418,0.002099419,0.000537827,-35.36326205,149.1652378,26950.5
17:45:58,0.259910095,0.06393981,139,107.25,0,-0.0009021,0.035500001,0.036390483,60,0.437505305,140,1,1,1,1,0,1500,1500,1000,1500,10,AUTO,TAKEOFF,0.00276801,0.002108683,2.457226276,-0.00663096,0.000128998,0.001275601,-35.3632623,149.1652377,27397.5
17:45:59,0.168180898,0.139499292,139,44.5,0,-0.00074707,0.018500001,0.023892163,60,0.426157072,140,1,1,1,1,0,1500,1500,1000,1500,10,AUTO,TAKEOFF,0.000422879,0.002937983,2.455800056,-0.179505035,0.00106304,3.60E-05,-35.36326245,149.1652377,27844.5
17:46:00,0.049018309,0.147580713,139,48.25,0,-5.37E-05,0.01125,0.023700022,60,0.433932796,140,1,1,1,1,0,1500,1500,1000,1500,10,AUTO,TAKEOFF,0.000621392,0.002805628,2.453988552,-0.007521706,-0.000529906,-1.11E-05,-35.3632625,149.1652375,28289.75
17:46:01,-0.012966426,0.132472187,139,61.5,0,-0.000983887,0.009000001,0.022412757,60,0.442744359,140,1,1,1,1,0,1500,1500,1000,1500,10,AUTO,TAKEOFF,0.001356578,0.002394569,2.452827454,0.172913767,-0.001284908,-0.000946542,-35.3632625,149.1652375,28737.5
17:46:02,-0.068595412,0.130152326,139,72,0,-0.00133606,0.01225,0.021439538,60,0.436999969,140,1,1,1,1,0,1500,1500,1000,1500,10,AUTO,TAKEOFF,0.000313044,0.002347004,2.451379597,0.014215607,-1.77E-05,-0.000269314,-35.3632625,149.1652374,29186.75
17:46:03,-0.108334452,0.127739102,139,77,0,-0.000300293,0.018000001,0.021111617,60,0.431340247,140,1,1,1,1,0,1500,1500,1000,1500,10,AUTO,TAKEOFF,-0.003295389,0.00229051,2.450351477,-0.192292407,-8.47E-05,-0.002057891,-35.3632625,149.1652374,29467
17:46:04,0.0001185,0.072912715,139,113.6,0,-0.000655762,0.024200001,0.018751474,60,0.444091785,140,1,1,1,1,0,1500,1500,1000,1500,10,AUTO,TAKEOFF,-0.000922798,0.001218983,2.448958063,-0.028712191,0.000100766,6.62E-05,-35.3632623,149.1652374,30032
17:46:05,0.10105145,0.064194985,139,147,0,-0.001789551,0.020000001,0.017315255,60,0.452982515,140,1,1,1,1,0,1500,1500,1000,1500,10,AUTO,TAKEOFF,0.003666271,0.001059902,2.448043823,0.199754789,-0.00018446,-0.001541289,-35.3632622,149.1652375,30371
17:46:06,0.075114362,0.111054924,139,171,0,0.000384766,0.004,0.023150073,60,0.443049175,140,1,1,1,1,0,1500,1500,1000,1500,10,AUTO,TAKEOFF,0.002300256,0.001931282,2.446491337,0.029526187,0.000366121,0.001188245,-35.3632622,149.1652377,30934.4
17:46:07,0.127118569,0.093465261,139,173.5,0,0.000496826,0.0005,0.023106048,60,0.4346499,140,1,1,1,1,0,1500,1500,1000,1500,10,AUTO,TAKEOFF,-0.0002807,0.00151854,2.445458889,-0.155786932,0.000696978,-0.000167052,-35.3632622,149.1652377,31437.5
17:46:08,0.158619396,0.097319247,139,173.75,0,-6.47E-05,0.00675,0.022780652,60,0.438646264,140,1,1,1,1,0,1500,1500,1000,1500,10,AUTO,TAKEOFF,0.002419223,0.001552865,2.444473445,-0.015304108,0.001009181,0.000486892,-35.3632622,149.1652377,31884.75
17:46:09,0.154278979,0.106440187,139,167.5,0,0.000375977,0.014500001,0.023334128,60,0.443068877,139.5,1,1,1,1,0,1500,1500,1000,1500,10,AUTO,TAKEOFF,0.002236546,0.001766252,2.443614125,0.106471073,0.001191016,5.96E-05,-35.3632622,149.1652377,32331
17:46:10,0.117256368,0.126538215,139,158.5,0,0.000400391,0.010750001,0.022351354,60,0.431673355,139,1,1,1,1,0,1500,1500,1000,1500,10,AUTO,TAKEOFF,0.002595112,0.002084043,2.442996085,0.023589324,0.000714643,0.000577975,-35.3632622,149.1652377,32776.25
17:46:11,0.095629729,0.121720817,139,152.5,0,-0.000495605,0.0075,0.021995623,60,0.419720426,139,1,1,1,1,0,1500,1500,1000,1500,10,AUTO,TAKEOFF,0.002812898,0.001985366,2.442205548,-0.05678137,0.000655317,0.000556936,-35.3632622,149.1652377,33217
17:46:12,0.079729421,0.117091997,139,142.75,0,-0.000463257,0.006,0.021223717,60,0.42933625,139,1,1,1,1,0,1500,1500,1000,1500,10,AUTO,TAKEOFF,0.000585605,0.002025905,2.441585183,-0.038465034,0.000626333,-0.000574755,-35.3632622,149.1652376,33660.75
17:46:13,0.022511548,0.118661601,139,132,0,0.001306152,0.003,0.021262053,60,0.441921979,139,1,1,1,1,0,1500,1500,1000,1500,10,AUTO,TAKEOFF,0.00012498,0.002004346,2.440855265,-0.006691855,0.0008803,-0.000137126,-35.3632622,149.1652376,34110.5
17:46:14,0.000251757,0.113305323,139,129.5,0,-0.000338135,0.00625,0.020235769,60,0.443274282,139,1,1,1,1,0,1500,1500,1000,1500,10,AUTO,TAKEOFF,0.000624344,0.001919018,2.440311611,0.047942353,-0.000156405,0.000641841,-35.3632622,149.1652376,34561.75
17:46:15,0.014165665,0.106255163,139,142.5,0,0.000587158,0.018000001,0.020175371,60,0.442380771,139,1,1,1,1,0,1500,1500,1000,1500,10,AUTO,TAKEOFF,0.001494049,0.001841137,2.439800739,0.051752903,-0.000511271,-0.000941141,-35.3632622,149.1652376,35016.5
17:46:16,0.050139656,0.101925354,139,162.75,0,-0.000109253,0.024000001,0.023533578,60,0.445149332,139,1,1,1,1,0,1500,1500,1000,1500,10,AUTO,TAKEOFF,0.00013569,0.001732015,2.439002812,-0.03641356,-4.01E-05,0.000671764,-35.3632622,149.1652376,35471.5
17:46:17,0.095007941,0.098437585,139,176,0,-0.000913086,0.021000002,0.028078141,60,0.447995514,139,1,1,1,1,0,1500,1500,1000,1500,10,AUTO,TAKEOFF,-2.10E-05,0.001784938,2.438505411,-0.034811806,-0.001522866,0.000303639,-35.3632621,149.1652377,35754
17:46:18,0.061659265,0.093478616,139,184.8,0,0.000124023,0.013,0.033765636,60,0.446344852,139,1,1,1,1,0,1500,1500,1000,1500,10,AUTO,TAKEOFF,0.001222823,0.001520173,2.438270521,-0.010747696,0.001067908,-0.000265513,-35.3632621,149.1652378,36316
17:46:19,0.18203754,0.11050842,139,196,0,0.001291504,0.0085,0.034871893,60,0.442504048,139,1,1,1,1,0,1500,1500,1000,1500,10,AUTO,TAKEOFF,0.004644268,0.001875593,2.437472224,0.067950537,0.000954272,-0.000110584,-35.36326205,149.1652378,36823
17:46:20,0.23680567,0.120282581,139,201.75,0,0.000487061,0.00175,0.039029371,60,0.442901842,139,1,1,1,1,0,1500,1500,1000,1500,10,AUTO,TAKEOFF,0.003231155,0.002022523,2.437304914,-0.036668052,0.000612886,0.000128169,-35.363262,149.1652379,37271.75
17:46:21,0.251870722,0.123566173,139,202,0,0.000314941,0.004,0.041909423,60,0.447913587,139,1,1,1,1,0,1500,1500,1000,1500,10,AUTO,TAKEOFF,0.003110653,0.001944782,2.43721509,0.008306107,0.000393113,-0.000557341,-35.363262,149.1652379,37552
17:46:22,0.225849172,0.129585648,139,198.2,0,-0.000375,0.018000001,0.039072532,60,0.436947113,139,1,1,1,1,0,1500,1500,1000,1500,10,AUTO,TAKEOFF,0.004020795,0.002172955,2.436418295,0.035669845,0.000726415,0.001303532,-35.363262,149.1652379,38111
17:46:23,0.234734893,0.137899414,139,192,0,3.91E-05,0.022000002,0.032475479,60,0.428646654,139,1,1,1,1,0,1500,1500,1000,1500,10,AUTO,TAKEOFF,0.002220831,0.002338588,2.436371326,-0.166432142,0.000198631,0.002219003,-35.363262,149.1652379,38444
17:46:24,0.174923643,0.131201461,139,157.2,0,-0.000995117,0.025800001,0.023320831,60,0.438879603,139,1,1,1,1,0,1500,1500,1000,1500,10,AUTO,TAKEOFF,0.001741351,0.002152516,2.436139679,-0.021056843,0.000198365,0.000976986,-35.3632621,149.1652377,39004.8
17:46:25,0.155305758,0.128472134,139,133,0,-0.000109863,0.029000001,0.019470835,60,0.445129305,139,1,1,1,1,0,1500,1500,1000,1500,10,AUTO,TAKEOFF,0.004793586,0.002078099,2.435818911,0.138126522,-0.000158504,0.000927648,-35.3632622,149.1652376,39342
17:46:26,0.006618695,0.148444614,139,83.2,0,-0.001499023,0.026200001,0.024479133,60,0.441005623,139,1,1,1,1,0,1500,1500,1000,1500,10,AUTO,TAKEOFF,-0.000521338,0.002520457,2.435606861,0.003374453,0.00033313,0.000395766,-35.36326236,149.1652373,39899.6
17:46:27,-0.057107225,0.132541209,139,74.5,0,0.000159912,0.009500001,0.032972739,60,0.444447979,139,1,1,1,1,0,1500,1500,1000,1500,10,AUTO,TAKEOFF,-0.000479978,0.002250424,2.435208201,0.144193437,-7.23E-05,-0.000172705,-35.36326245,149.1652373,40402.5
17:46:28,-0.069130099,0.102934081,139,75.75,0,-0.000997314,0.00725,0.038941905,60,0.433486372,139,1,1,1,1,0,1500,1500,1000,1500,10,AUTO,TAKEOFF,-0.00097488,0.001711612,2.435035765,0.006155401,0.000755107,0.000774823,-35.3632625,149.1652371,40850
17:46:29,-0.142882451,0.126796465,139,74,0,-0.001262207,0.0065,0.04050765,60,0.432036877,139,1,1,1,1,0,1500,1500,1000,1500,10,AUTO,TAKEOFF,-0.001039107,0.002212407,2.434770465,0.103320249,0.000424782,0.0002744,-35.3632625,149.1652371,41293.5
17:46:30,-0.179108735,0.110038981,139,74.25,0,-0.000496826,0.017250001,0.038194627,60,0.433807515,139,1,1,1,1,0,1500,1500,1000,1500,10,AUTO,TAKEOFF,-0.002430664,0.001953295,2.434603512,-0.020204388,-0.000475223,-0.000529309,-35.3632625,149.1652371,41741.5
17:46:31,-0.263084419,0.086932223,139,82,0,-0.001013184,0.033500001,0.027328569,60,0.439656183,139,1,1,1,1,0,1500,1500,1000,1500,10,AUTO,TAKEOFF,-0.004766837,0.001499425,2.434360266,-0.081463149,0.000406912,-0.001069086,-35.36326245,149.1652372,42189.5
17:46:32,-0.133215588,0.05247979,139,112.5,0,-0.001400146,0.057000002,0.019679834,60,0.439875133,139,1,1,1,1,0,1500,1500,1000,1500,10,AUTO,TAKEOFF,-0.001781128,0.000918427,2.434171855,0.051657345,-0.000144598,0.000785436,-35.3632623,149.1652373,42638.5
17:46:33,-0.051309437,0.036945011,139,156,0,0.000200195,0.066,0.015966462,60,0.431373388,139,1,1,1,1,0,1500,1500,1000,1500,10,AUTO,TAKEOFF,0.000377279,0.000592103,2.434284449,-0.015619183,0.001655082,-0.002065163,-35.3632621,149.1652375,42920
17:46:34,0.239224616,0.046194442,139,201.2,0,-0.001321289,0.044400001,0.041784721,60,0.439589393,139,1,1,1,1,0,1500,1500,1000,1500,10,AUTO,TAKEOFF,0.004203969,0.000779695,2.433607912,0.029358693,0.001060467,0.000963663,-35.36326184,149.165238,43482.4
17:46:35,0.309864104,0.102606349,139,210,0,-9.77E-05,0.019000001,0.059566915,60,0.438027352,139,1,1,1,1,0,1500,1500,1000,1500,10,AUTO,TAKEOFF,0.003732253,0.001719907,2.433561563,-0.129524752,0.002399167,0.004103977,-35.3632618,149.1652381,43818
17:46:36,0.338086736,0.115840122,139,213.8,0,-0.000291992,0.01,0.067901444,60,0.442882353,139,1,1,1,1,0,1500,1500,1000,1500,10,AUTO,TAKEOFF,0.005884262,0.001884329,2.433481073,-0.009355004,0.000223021,0.001005118,-35.3632617,149.1652383,44383.4
17:46:37,0.363327563,0.129801258,139,214,0,0.001103516,0.017000001,0.065881945,60,0.441469967,139,1,1,1,1,0,1500,1500,1000,1500,10,AUTO,TAKEOFF,0.008161597,0.002181593,2.433202744,0.101613738,0.001204816,0.001940276,-35.3632617,149.1652383,44720
17:46:38,0.323773807,0.108357531,139,208.6,0,4.30E-05,0.020000001,0.060752139,60,0.439915192,139,1,1,1,1,0,1500,1500,1000,1500,10,AUTO,TAKEOFF,0.005440991,0.001800109,2.433286953,-0.013821273,-2.27E-05,0.000526726,-35.3632618,149.1652381,45281
17:46:39,0.234776035,0.091873854,139,203,0,-0.00125,0.024,0.060049474,60,0.442260265,139,1,1,1,1,0,1500,1500,1000,1500,10,AUTO,TAKEOFF,0.003515083,0.001512828,2.433324337,-0.044870995,0.003256778,-0.000754428,-35.3632618,149.165238,45618
17:46:40,0.241309178,0.14368645,139,201,0,-0.000662109,0.0144,0.047937064,60,0.432928228,139,1,1,1,1,0,1500,1500,1000,1500,10,AUTO,TAKEOFF,0.004313121,0.002478922,2.433097982,0.021933885,0.000623228,0.001888379,-35.36326194,149.1652379,46176.2
17:46:41,0.217106603,0.153759204,139,194,0,-0.000280762,0.014500001,0.038238989,60,0.431711555,139,1,1,1,1,0,1500,1500,1000,1500,10,AUTO,TAKEOFF,0.004199691,0.002665468,2.433048487,0.02513409,0.000602636,0.001481482,-35.363262,149.1652378,46675.5
17:46:42,0.211871848,0.127895609,139,176.75,0,-0.000933838,0.016250001,0.030040793,60,0.43399325,139,1,1,1,1,0,1500,1500,1000,1500,10,AUTO,TAKEOFF,0.002643845,0.002115144,2.432935953,-0.023423551,-8.46E-05,0.000968941,-35.36326208,149.1652378,47122.25
17:46:43,0.120187491,0.116943546,139,161,0,-0.00190918,0.016000001,0.030021533,60,0.436516255,139,1,1,1,1,0,1500,1500,1000,1500,10,AUTO,TAKEOFF,0.001471792,0.001990318,2.432975531,-0.143941075,0.002116079,0.001396469,-35.3632621,149.1652377,47404
17:46:44,0.077171672,0.115193468,139,144.4,0,-0.000963867,0.0058,0.024737168,60,0.443087345,139,1,1,1,1,0,1500,1500,1000,1500,10,AUTO,TAKEOFF,0.000336736,0.00193155,2.432931757,-0.033334285,0.000557119,-0.000628959,-35.3632621,149.1652376,47965.8
17:46:45,0.08159142,0.106783547,139,151,0,-0.000961914,0.012,0.026154978,60,0.453724593,139,1,1,1,1,0,1500,1500,1000,1500,10,AUTO,TAKEOFF,0.002072428,0.001954659,2.432565928,0.174547061,0.000172347,-0.000297962,-35.3632621,149.1652376,48306
17:46:46,0.05953844,0.110095364,139,166.6,0,-0.000578125,0.012600001,0.029092706,60,0.440849221,139,1,1,1,1,0,1500,1500,1000,1500,10,AUTO,TAKEOFF,0.001774282,0.001895407,2.432694674,0.050482748,0.001307609,0.000971869,-35.3632621,149.1652376,48866.4
17:46:47,0.098137818,0.11507722,139,174,0,-0.001083984,0.011000001,0.027628794,60,0.433956623,139,1,1,1,1,0,1500,1500,1000,1500,10,AUTO,TAKEOFF,0.000110478,0.002004244,2.432574749,-0.178502783,-0.000137691,8.81E-05,-35.3632621,149.1652376,49204
17:46:48,0.121273457,0.103425503,139,179.6,0,-5.96E-05,0.008,0.029786485,60,0.440427101,139,1,1,1,1,0,1500,1500,1000,1500,10,AUTO,TAKEOFF,0.002108717,0.001799555,2.432367659,-0.019472348,-3.57E-05,0.001288633,-35.3632621,149.1652377,49767.6
17:46:49,0.091380171,0.091443032,139,182,0,0.000830078,0.004,0.035586257,60,0.448949635,139,1,1,1,1,0,1500,1500,1000,1500,10,AUTO,TAKEOFF,0.004064163,0.001602636,2.432659626,0.18085593,0.002389233,0.004096195,-35.3632621,149.1652377,50105
17:46:50,0.162540105,0.0880785,139,189.4,0,-7.32E-05,0.010200001,0.035361851,60,0.449427998,139,1,1,1,1,0,1500,1500,1000,1500,10,AUTO,TAKEOFF,0.003138397,0.001881077,2.433453989,0.03819019,0.000446125,0.001561621,-35.3632621,149.1652378,50669.8
17:46:51,0.211642966,0.103238866,139,197,0,0.000473633,0.007,0.036125429,60,0.437756926,139,1,1,1,1,0,1500,1500,1000,1500,10,AUTO,TAKEOFF,0.00132069,0.001944561,2.4334023,-0.117742568,0.002714233,0.000378414,-35.363262,149.1652379,51008
17:46:52,0.24718951,0.114159781,139,201.8,0,-0.000831055,0.0032,0.042164388,60,0.443597627,139,1,1,1,1,0,1500,1500,1000,1500,10,AUTO,TAKEOFF,0.003845961,0.001964861,2.433322668,-0.023003376,0.00125745,-0.00036644,-35.363262,149.1652379,51568.6
17:46:53,0.242510363,0.118250698,139,201,0,-0.001850586,0.011000001,0.044518977,60,0.449640334,139,1,1,1,1,0,1500,1500,1000,1500,10,AUTO,TAKEOFF,0.002214427,0.002076211,2.432870626,-0.031950675,0.000203046,-0.000544205,-35.363262,149.165238,51906
17:46:54,0.218615445,0.127929574,139,195,0,-0.000859375,0.021800002,0.038870024,58.8,0.452352941,139,1,1,1,1,0,1500,1500,1000,1500,10,AUTO,TAKEOFF,0.003654866,0.002172487,2.433053875,0.014362115,0.000372522,0.000674812,-35.363262,149.1652379,52470.4
17:46:55,0.206021994,0.117732607,139,185,0,-0.000483398,0.023000002,0.031253438,55,0.448672771,139,1,1,1,1,0,1500,1500,1000,1500,10,AUTO,TAKEOFF,0.005365173,0.001951351,2.433035135,0.115350179,0.000128755,0.001397684,-35.363262,149.1652378,52810
17:46:56,0.200962567,0.103997859,139,147.6,0,0.000167969,0.022400001,0.022891543,53,0.421938211,139,1,1,1,1,0,1500,1500,1000,1500,10,AUTO,TAKEOFF,0.0016581,0.002637712,2.436418152,0.033844887,0.002490421,0.005611396,-35.36326214,149.1652376,53359
17:46:57,0.250506252,0.046230845,139,135,0,0.000966797,0.017000001,0.022788189,51,0.394359231,139,1,1,1,1,0,1500,1500,1000,1500,10,AUTO,TAKEOFF,-0.001963186,0.002920169,2.441430569,-0.317360699,-0.01245987,0.007869981,-35.3632622,149.1652376,53674
17:46:58,0.37307992,-1.33016091,139,100.6,56,-0.042963866,0.034600001,0.067511515,43.2,0.121924127,142.6,1,1,1,1,0,1500,1500,1000,1500,10,AUTO,ON MISSION,-0.01450103,0.004541746,2.502262068,-0.061831796,-0.02645657,0.076680379,-35.36326208,149.1652374,54028.4
17:46:59,-0.214334279,-3.515358448,139,94,70,-0.050776366,0.092000008,0.145715475,43,0.028707633,145,1,1,1,1,0,1500,1500,1000,1500,10,AUTO,ON MISSION,-0.028645098,-0.028554063,2.532282829,0.296272337,-0.023699095,-0.073490754,-35.3632617,149.1652377,54067
17:47:00,-3.107423544,-6.875611877,123.6,94,69.8,-0.023084961,0.587200028,0.720987475,53,0.313398153,126.4,1,1,1,1,0,1500,1500,1000,1500,10,AUTO,ON MISSION,-0.047707977,-0.12953621,2.219029045,-0.012125318,-0.070835916,-0.618143378,-35.36326232,149.1652432,54282.6
17:47:01,-0.95977658,-10.87173653,97,94,69,0.035498045,1.03700006,1.230075359,67,0.325120568,94,1,1,1,1,0,1500,1500,1000,1500,10,AUTO,ON MISSION,0.008054365,-0.215326086,1.647712946,-0.062709227,-0.091708876,-0.558552146,-35.3632634,149.1652503,54552
17:47:02,0.877520239,-15.27690353,94,94,67.2,0.911952144,1.84640007,1.96561923,99,0.018673647,92.4,1,1,1,1,0,1500,1500,1000,1500,10,AUTO,ON MISSION,0.024914975,-0.279505825,1.618519115,0.014922176,-0.022976479,0.02785449,-35.3632649,149.1652724,54703.2
17:47:03,1.273702383,-14.76843071,94,94,66,1.707045913,2.150000095,2.191792011,100,-0.072689541,93,1,1,1,1,0,1500,1500,1000,1500,10,AUTO,ON MISSION,0.026854768,-0.266150475,1.626141667,-0.148947015,0.133226007,-0.004511026,-35.3632656,149.1652894,54692
17:47:04,1.388503218,-10.00939617,94,94,63.2,2.979905176,1.825800061,1.750246692,100,0.185548522,93,1,1,1,1,0,1500,1500,1000,1500,10,AUTO,ON MISSION,0.02650762,-0.173171866,1.626375246,-0.024898614,0.006868996,0.003735109,-35.3632667,149.1653163,54792.2
17:47:05,1.160648346,-9.933882713,94,94,62,3.58992672,1.609000087,1.579888225,100,0.232314065,93,1,1,1,1,0,1500,1500,1000,1500,10,AUTO,ON MISSION,0.024407014,-0.173664808,1.626904845,0.103517994,-0.001901808,0.005082681,-35.3632674,149.1653301,54949
17:47:06,1.042568874,-9.945940971,94,94,60,3.625,1.511000061,1.503748631,100,0.233047163,93,1,1,1,1,0,1500,1500,1000,1500,10,AUTO,ON MISSION,0.02130572,-0.174090818,1.628723741,0.027652419,0.000605599,0.00372553,-35.36326854,149.1653511,55239
17:47:07,1.041144371,-9.946119308,94,94,59,3.625,1.493000031,1.482377648,100,0.228574976,93,1,1,1,1,0,1500,1500,1000,1500,10,AUTO,ON MISSION,0.020363046,-0.173896968,1.630081892,-0.079176672,-0.000549639,0.006572856,-35.3632692,149.1653634,55416
17:47:08,1.166138577,-9.92311554,94,94,57,3.625,1.483800054,1.468953538,100,0.23320398,93,1,1,1,1,0,1500,1500,1000,1500,10,AUTO,ON MISSION,0.022645199,-0.173332968,1.631182909,-0.036098315,0.002716173,0.002486562,-35.3632702,149.1653838,55716.2
17:47:09,1.22399652,-9.491819382,94,94,56,3.625,1.480000019,1.455741882,100,0.232061818,93,1,1,1,1,0,1500,1500,1000,1500,10,AUTO,ON MISSION,0.025826043,-0.165981665,1.631791115,0.187850595,0.035723951,0.000322463,-35.3632708,149.165396,55894
17:47:10,1.267428684,-8.008536625,94,94,54.4,3.625,1.334200048,1.289914393,100,0.283430409,93,1,1,1,1,0,1500,1500,1000,1500,10,AUTO,ON MISSION,0.023647765,-0.138750553,1.632772231,0.019737617,0.010138591,0.000103179,-35.36327196,149.1654151,56230.2
17:47:11,1.198645711,-7.650428772,94,94,53,3.625,1.243000031,1.204818368,100,0.298745722,93,1,1,1,1,0,1500,1500,1000,1500,10,AUTO,ON MISSION,0.020199144,-0.133012295,1.633684039,-0.136548713,0.003538917,0.00479163,-35.3632727,149.1654256,56457
17:47:12,1.115034819,-7.518102646,94,94,51.6,3.625,1.164000034,1.136213636,100,0.317630321,93,1,1,1,1,0,1500,1500,1000,1500,10,AUTO,ON MISSION,0.021146306,-0.13127588,1.634686732,0.016739802,0.000658518,0.001868057,-35.36327378,149.1654418,56860.2
17:47:13,1.118652463,-7.541561127,94,94,51,3.625,1.148000002,1.121401906,100,0.314434469,93,1,1,1,1,0,1500,1500,1000,1500,10,AUTO,ON MISSION,0.020116994,-0.131949604,1.635166645,-0.111737728,-0.001882056,0.004045687,-35.3632744,149.1654513,57109
17:47:14,1.219497252,-7.741853619,94,94,49.4,3.625,1.153400064,1.126805639,100,0.310579091,93,1,1,1,1,0,1500,1500,1000,1500,10,AUTO,ON MISSION,0.020774081,-0.135282964,1.635480881,-0.04568917,-0.003380396,0.001970503,-35.3632754,149.1654671,57518.8
17:47:15,1.23421061,-7.86507988,94,94,49,3.625,1.166000009,1.14152956,100,0.31580314,93,1,1,1,1,0,1500,1500,1000,1500,10,AUTO,ON MISSION,0.023620473,-0.137485579,1.635992289,0.165240884,0.001311122,0.000167662,-35.363276,149.1654766,57762
17:47:16,1.158228827,-8.021115208,94,94,47.2,3.625,1.186800051,1.167522502,100,0.305665457,93,1,1,1,1,0,1500,1500,1000,1500,10,AUTO,ON MISSION,0.020935651,-0.140073541,1.63624742,0.043334335,-0.003075405,0.000889697,-35.3632772,149.1654928,58161.2
17:47:17,1.036654353,-8.097477913,94,94,46,3.625,1.202000022,1.186917663,100,0.297287345,93,1,1,1,1,0,1500,1500,1000,1500,10,AUTO,ON MISSION,0.018754307,-0.14145565,1.636916757,-0.089140385,0.003504391,0.004632886,-35.3632779,149.1655027,58399
17:47:18,0.999753106,-8.28864727,94,94,44.6,3.625,1.223400068,1.209246492,100,0.302592248,93,1,1,1,1,0,1500,1500,1000,1500,10,AUTO,ON MISSION,0.019868966,-0.144690102,1.637264442,0.0100156,-0.000940656,0.001129745,-35.36327898,149.1655195,58797
17:47:19,1.025270939,-8.342799187,94,94,44,3.625,1.236000061,1.221054435,100,0.292449772,93,1,1,1,1,0,1500,1500,1000,1500,10,AUTO,ON MISSION,0.018959144,-0.145756438,1.637470245,-0.119272217,0.000841244,0.003492786,-35.3632796,149.1655297,59032
17:47:20,1.155205011,-8.456188202,94,94,42.4,3.625,1.252200079,1.234293485,100,0.296988887,93,1,1,1,1,0,1500,1500,1000,1500,10,AUTO,ON MISSION,0.020011812,-0.14755871,1.637583947,-0.029611402,-0.001574123,0.001947739,-35.36328048,149.1655468,59416.2
17:47:21,1.181535602,-8.514596939,94,94,41,3.625,1.258000016,1.241886377,100,0.3045865,93,1,1,1,1,0,1500,1500,1000,1500,10,AUTO,ON MISSION,0.0216756,-0.148569494,1.637932062,0.135451719,0.001777343,-0.001409374,-35.363281,149.1655572,59648
17:47:22,1.206247211,-8.53386097,94,94,39.6,3.625,1.266000056,1.253453732,100,0.303719109,93,1,1,1,1,0,1500,1500,1000,1500,10,AUTO,ON MISSION,0.021743798,-0.148897162,1.638282228,0.031195782,0.000409142,0.001099724,-35.36328194,149.1655745,60031.4
17:47:23,1.273759484,-8.591506004,94,94,39,3.625,1.271000028,1.2550354,100,0.298946798,93,1,1,1,1,0,1500,1500,1000,1500,10,AUTO,ON MISSION,0.022525666,-0.150206685,1.638710022,-0.001892639,0.001074125,0.003077959,-35.3632825,149.165585,60263
17:47:24,1.277348089,-8.580862808,94,94,37,3.625,1.278400064,1.263197351,100,0.295975393,93,1,1,1,1,0,1500,1500,1000,1500,10,AUTO,ON MISSION,0.022363215,-0.149813458,1.638729644,-0.033819953,0.000473201,0.001374122,-35.3632836,149.1656025,60644
17:47:25,1.306031823,-8.57274437,94,94,36,3.625,1.281000018,1.267535806,100,0.302016377,93,1,1,1,1,0,1500,1500,1000,1500,10,AUTO,ON MISSION,0.023913885,-0.149505511,1.638714075,0.100716785,-0.001046945,-0.000325834,-35.3632843,149.1656131,60869
17:47:26,1.230243611,-8.578617668,94,94,34.6,3.625,1.281000042,1.269117737,100,0.293055302,93,1,1,1,1,0,1500,1500,1000,1500,10,AUTO,ON MISSION,0.021925176,-0.149668628,1.639266729,0.026624102,-0.000350034,0.000495273,-35.36328546,149.1656307,61241.6
17:47:27,1.197872877,-8.612711906,94,94,34,3.625,1.281000018,1.26831162,100,0.285315603,93,1,1,1,1,0,1500,1500,1000,1500,10,AUTO,ON MISSION,0.019266458,-0.150221512,1.639368653,-0.185540527,-0.009443993,0.006171631,-35.3632861,149.1656413,61466
17:47:28,1.218781495,-8.639165115,94,94,32,3.625,1.288000059,1.272116494,100,0.289528507,93,1,1,1,1,0,1500,1500,1000,1500,10,AUTO,ON MISSION,0.019941414,-0.150759751,1.639682198,-0.057322372,-0.001424899,0.001431469,-35.3632872,149.1656589,61836.8
17:47:29,1.328809381,-8.650924683,94,94,31,3.625,1.290000081,1.273631215,100,0.299312979,93,1,1,1,1,0,1500,1500,1000,1500,10,AUTO,ON MISSION,0.02407342,-0.150747418,1.6392802,0.165062532,0.004817619,8.70E-05,-35.3632878,149.1656696,62062
17:47:30,1.219578648,-8.630242729,94,94,29.4,3.625,1.289800048,1.273197174,100,0.299557245,93,1,1,1,1,0,1500,1500,1000,1500,10,AUTO,ON MISSION,0.021165197,-0.150552922,1.64003582,0.016493937,-0.002706644,-0.000416426,-35.36328882,149.1656873,62435.6
17:47:31,1.228827357,-8.662329674,94,94,28,3.625,1.292000055,1.271060586,100,0.298027545,93,1,1,1,1,0,1500,1500,1000,1500,10,AUTO,ON MISSION,0.022482814,-0.151073799,1.639912963,-0.008589656,-0.006442415,0.001057366,-35.3632895,149.1656979,62662
17:47:32,1.263460374,-8.630809975,94,94,26.8,3.625,1.293000078,1.272958541,100,0.300669378,93,1,1,1,1,0,1500,1500,1000,1500,10,AUTO,ON MISSION,0.022935472,-0.150575328,1.640282083,0.028603991,0.000605506,0.000296505,-35.3632904,149.1657157,63036.6
17:47:33,1.244367242,-8.653336525,94,94,26,3.625,1.292000055,1.272158146,100,0.301602989,93,1,1,1,1,0,1500,1500,1000,1500,10,AUTO,ON MISSION,0.021011168,-0.150964066,1.640281439,-0.105505347,-0.003511517,-0.001451809,-35.363291,149.1657263,63261
17:47:34,1.324138474,-8.659551048,94,94,24.4,3.625,1.295400023,1.273867846,100,0.294776875,93.2,1,1,1,1,0,1500,1500,1000,1500,10,AUTO,ON MISSION,0.024030037,-0.151205587,1.640467405,0.000457323,0.00081448,0.000912546,-35.36329194,149.1657441,63630.2
17:47:35,1.327338576,-8.641921997,94,94,23,3.625,1.295000076,1.274814844,100,0.287465185,93,1,1,1,1,0,1500,1500,1000,1500,10,AUTO,ON MISSION,0.023404546,-0.150959834,1.640575051,-0.133357599,-0.001112224,0.003352228,-35.3632926,149.1657548,63851
17:47:36,1.402331352,-8.587881279,94,94,21.6,3.625,1.291800046,1.275709581,100,0.295751435,93.4,1,1,1,1,0,1500,1500,1000,1500,10,AUTO,ON MISSION,0.023255601,-0.14991942,1.640601659,-0.036465214,-0.001042265,0.001417466,-35.36329368,149.1657726,64220.6
17:47:37,1.429015517,-8.593550682,94,94,21,3.625,1.289000034,1.274323106,100,0.299713224,93,1,1,1,1,0,1500,1500,1000,1500,10,AUTO,ON MISSION,0.026847331,-0.149900198,1.640513062,0.176897779,0.000890567,-0.001197781,-35.3632944,149.1657833,64444
17:47:38,1.321028996,-8.658427238,94,94,19,3.625,1.292200065,1.274744296,100,0.29184255,94,1,1,1,1,0,1500,1500,1000,1500,10,AUTO,ON MISSION,0.023672754,-0.151145744,1.640758228,0.034996281,-0.00102726,0.000940144,-35.36329566,149.165801,64813.4
17:47:39,1.216181517,-8.653419495,94,94,18,3.625,1.298000097,1.277022481,100,0.292595565,94,1,1,1,1,0,1500,1500,1000,1500,10,AUTO,ON MISSION,0.020410318,-0.151167795,1.641165018,-0.097697243,0.004520096,-0.000527735,-35.3632964,149.1658117,65034
17:47:40,1.216454649,-8.652121925,94,94,16.4,3.625,1.296600032,1.275721312,100,0.295041001,94,1,1,1,1,0,1500,1500,1000,1500,10,AUTO,ON MISSION,0.019680868,-0.151034066,1.64105103,-0.048489473,-0.000582843,0.001399013,-35.36329758,149.1658294,65401.2
17:47:41,1.253041148,-8.650602341,94,94,16,3.625,1.295000076,1.274969578,100,0.296737045,94,1,1,1,1,0,1500,1500,1000,1500,10,AUTO,ON MISSION,0.022726448,-0.150757581,1.640927792,0.176480532,0.001337691,-0.000977655,-35.3632982,149.1658401,65625
17:47:42,1.217743587,-8.657948685,94,94,14,3.625,1.293800044,1.27468605,100,0.296624666,94,1,1,1,1,0,1500,1500,1000,1500,10,AUTO,ON MISSION,0.020923854,-0.151062843,1.641199517,0.046673309,0.000250506,0.000653278,-35.3632992,149.1658579,65993
17:47:43,1.226067543,-8.680635452,94,94,13,3.625,1.29400003,1.273239136,100,0.286026567,94,1,1,1,1,0,1500,1500,1000,1500,10,AUTO,ON MISSION,0.02185146,-0.151580065,1.641378522,-0.038654454,-0.003136403,0.003840734,-35.3632997,149.1658685,66216
17:47:44,1.277172494,-8.617720222,94,94,11.4,3.625,1.296000028,1.275386572,100,0.284065247,94,1,1,1,1,0,1500,1500,1000,1500,10,AUTO,ON MISSION,0.023541055,-0.150516382,1.641497731,-0.02214891,-0.00124188,0.002487368,-35.36330074,149.1658864,66582.2
17:47:45,1.234660029,-8.660918236,94,94,10,3.625,1.297000051,1.271570802,100,0.290296853,94,1,1,1,1,0,1500,1500,1000,1500,10,AUTO,ON MISSION,0.021358097,-0.151273862,1.641471863,0.06891264,0.002135793,-0.002141749,-35.3633015,149.1658971,66801
17:47:46,1.230362833,-8.611658096,94,94,8.75,3.625,1.297750056,1.271247715,100,0.279380403,94,1,1,1,1,0,1500,1500,1000,1500,10,AUTO,ON MISSION,0.021873033,-0.150241718,1.641655731,0.031681895,0.000672193,0.001610093,-35.36330268,149.1659149,67162.6
17:47:47,1.132176936,-8.607924461,94,94,8,3.625,1.296000004,1.269955397,100,0.276379958,94,1,1,1,1,0,1500,1500,1000,1500,10,AUTO,ON MISSION,0.0187279,-0.150705725,1.641848207,-0.173269808,-0.008730893,0.00306411,-35.3633034,149.1659256,67380
17:47:48,1.052500796,-8.510578537,94,93.2,6,3.625,1.291000068,1.26937142,100,0.28093797,94,1,1,1,1,0,1500,1500,1000,1500,10,AUTO,ON MISSION,0.01796375,-0.148565611,1.641770244,-0.039351607,0.005703849,0.001236113,-35.36330466,149.1659433,67744.6
17:47:49,1.026833296,-8.053076744,94,93,5,3.625,1.277500033,1.256021857,100,0.293323666,94,1,1,1,1,0,1500,1500,1000,1500,10,AUTO,ON MISSION,0.020651594,-0.140281767,1.641906142,0.11593511,0.018594513,0.000763434,-35.3633053,149.1659539,67970
17:47:50,0.951454818,-7.046425152,94,93,3.6,3.625,1.159600067,1.127423239,100,0.327172637,94,1,1,1,1,0,1500,1500,1000,1500,10,AUTO,ON MISSION,0.01727449,-0.122374199,1.642393064,0.030275052,0.014417178,0.001515736,-35.36330624,149.1659705,68373.4
17:47:51,0.674741983,-6.234841347,94,93,3,3.625,1.075000048,1.03988409,100,0.343508005,94,1,1,1,1,0,1500,1500,1000,1500,10,AUTO,ON MISSION,0.009029547,-0.108411953,1.641253829,-0.145185992,0.027817447,-0.007081021,-35.3633067,149.1659796,68631
17:47:52,-0.14045928,-4.478835726,91.6,95.2,1.6,3.625,0.877800047,0.817532384,100,0.383555108,91.6,1,1,1,1,0,1500,1500,1000,1500,10,AUTO,ON MISSION,-0.004486117,-0.077430575,1.608416605,-0.05084378,0.023579843,-0.040371349,-35.36330692,149.1659926,69100.6
17:47:53,-0.65474838,-3.458422422,89,99,1,3.625,0.715000033,0.67659384,100,0.415239125,89,1,1,1,1,0,1500,1500,1000,1500,10,AUTO,ON MISSION,-0.010745699,-0.059609879,1.570516944,0.154604852,0.024309682,-0.063439526,-35.3633066,149.165999,69403
17:47:54,-1.495211124,-1.999054879,83.5,114.75,0.5,3.625,0.519500017,0.488131255,100,0.430080682,83.5,1,1,1,1,0,1500,1500,1000,1500,10,AUTO,ON MISSION,-0.026540921,-0.03183265,1.448093438,0.008678848,0.022300483,-0.127612875,-35.36330476,149.1660065,69944
17:47:55,-2.045564353,-1.272520423,77,133,0,3.625,0.41050002,0.404469594,100,0.432478949,77.5,1,1,1,1,0,1500,1500,1000,1500,10,AUTO,ON MISSION,-0.039150257,-0.019894665,1.336112499,-0.173826739,0.018979561,-0.175660565,-35.3633031,149.1660093,70279
17:47:56,-2.541458797,-1.253729105,60.2,156.2,0.8,3.625,0.390400016,0.39447006,100,0.447566289,59.8,1,1,1,1,0,1500,1500,1000,1500,10,AUTO,ON MISSION,-0.043915438,-0.021453008,1.055116343,0.009190805,0.004759573,-0.236848393,-35.36329924,149.166011,70851.2
17:47:57,-2.477379799,-1.464788318,50,161,1,3.625,0.422000021,0.413918406,100,0.436686277,50,1,1,1,1,0,1500,1500,1000,1500,10,AUTO,ON MISSION,-0.04345192,-0.024999632,0.880860507,-0.06724003,0.003900296,-0.237074509,-35.3632966,149.1660111,71193
17:47:58,-2.283332705,-1.833835483,33.75,163,1.25,3.625,0.435500026,0.424709342,100,0.44636897,33.25,1,1,1,1,0,1500,1500,1000,1500,10,AUTO,ON MISSION,-0.039866109,-0.031654445,0.591343008,-0.029451508,0.002460083,-0.269672856,-35.3632924,149.1660101,71710.5
17:47:59,-2.167496562,-2.394732118,22,246.5,61.5,3.625,0.450500026,0.441888899,100,0.452422023,21,1,1,1,1,0,1500,1500,1000,1500,10,AUTO,ON MISSION,-0.038295755,-0.041480081,0.379393175,0.043529589,-0.009381957,-0.291499019,-35.36328955,149.1660089,72059
17:48:00,-2.078444004,-5.560928106,-2.75,330,120.75,3.625,0.618000031,0.637100607,98.25,0.427518152,265.5,1,1,1,1,0,1500,1500,1000,1500,10,AUTO,ON MISSION,-0.036398003,-0.097582106,-0.063988532,-0.067419362,-0.05504434,-0.344791286,-35.3632838,149.1660055,72673
17:48:01,-1.543706,-8.809272289,-15.5,330,120,3.625,0.861500025,0.915393949,94.5,0.364852369,342.5,1,1,1,1,0,1500,1500,1000,1500,10,AUTO,ON MISSION,-0.024222458,-0.155757152,-0.299651846,0.073377095,-0.064601917,-0.226947181,-35.36327925,149.1660025,72986
17:48:02,-0.081549795,-9.986703873,-24.5,330,118.5,3.625,1.325750053,1.312739909,84.25,0.266955979,333.5,1,1,1,1,0,1500,1500,1000,1500,10,AUTO,ON MISSION,-0.001491129,-0.174206797,-0.457077496,0.027787561,0.002228113,-0.076642335,-35.36326793,149.1659937,73369
17:48:03,0.791347742,-9.966905117,-27.5,330,117.5,3.625,1.426000059,1.389538646,78,0.256322548,330.5,1,1,1,1,0,1500,1500,1000,1500,10,AUTO,ON MISSION,0.013268478,-0.173243761,-0.503267199,-0.007305317,0.000781749,-0.039566956,-35.36326005,149.1659874,73571.5
17:48:04,0.366642044,-12.99136114,-29,330,115.5,3.625,1.532000095,1.558520675,74.25,0.194371255,329.5,1,1,1,1,0,1500,1500,1000,1500,10,AUTO,ON MISSION,0.008392198,-0.226511791,-0.522909537,0.025891881,-0.108094847,0.003163355,-35.36324588,149.1659766,73880.5
17:48:05,0.254472475,-16.58657551,-29,330,114.5,3.625,1.857500076,1.948680341,78.5,0.01183068,330,1,1,1,1,0,1500,1500,1000,1500,10,AUTO,ON MISSION,0.005243335,-0.293470427,-0.519865721,-0.055115554,-0.035072593,0.000648402,-35.36323595,149.1659688,73974
17:48:06,1.550158978,-16.49395275,-29,330,111.5,3.625,2.288250148,2.275308788,79.5,-0.093664719,330,1,1,1,1,0,1500,1500,1000,1500,10,AUTO,ON MISSION,0.02933671,-0.287462205,-0.52282621,-0.004919979,0.006586563,-0.001591099,-35.36321548,149.1659522,73895.5
17:48:07,1.85613817,-16.46001816,-29,330,110,3.625,2.346000075,2.315860271,79,-0.10174435,330,1,1,1,1,0,1500,1500,1000,1500,10,AUTO,ON MISSION,0.035741892,-0.286641195,-0.522749186,-0.014075205,-0.002367818,0.003088594,-35.36320215,149.1659421,73821.5
17:48:08,2.081398964,-16.19339228,-29,330,107,3.625,2.362750053,2.332823277,79.75,-0.107818468,330,1,1,1,1,0,1500,1500,1000,1500,10,AUTO,ON MISSION,0.038239038,-0.282007784,-0.5225676,-0.039379958,0.003278943,0.002034723,-35.3631793,149.1659256,73684.25
17:48:09,2.151194334,-16.13989162,-29,330,105,3.625,2.354000092,2.330021024,79,-0.101546451,330,1,1,1,1,0,1500,1500,1000,1500,10,AUTO,ON MISSION,0.040006183,-0.281347603,-0.522319049,0.070991736,0.002050064,-0.001720523,-35.3631655,149.165916,73603.5
17:48:10,2.08804673,-16.04090452,-29,330,102,3.625,2.34250015,2.337423205,79.25,-0.103271158,330,1,1,1,1,0,1500,1500,1000,1500,10,AUTO,ON MISSION,0.038967146,-0.279675059,-0.521714836,0.030730342,0.00139733,0.002034704,-35.36314233,149.1659002,73468.75
17:48:11,2.015820384,-16.14324951,-29,330,100.5,3.625,2.337500095,2.338854194,79,-0.100430347,330,1,1,1,1,0,1500,1500,1000,1500,10,AUTO,ON MISSION,0.03574664,-0.281523898,-0.521006972,-0.080387945,-0.003220753,-0.000998127,-35.3631284,149.1658908,73394
17:48:12,1.966877729,-16.22177362,-29,330,97.5,3.625,2.34950006,2.355091214,79.75,-0.101350181,330,1,1,1,1,0,1500,1500,1000,1500,10,AUTO,ON MISSION,0.036108361,-0.282939777,-0.520240203,0.038070284,0.003168977,-0.001580362,-35.3631053,149.1658751,73265.75
17:48:13,2.001638532,-16.17214298,-29,330,95.5,3.625,2.352000117,2.348772407,79,-0.106583383,330,1,1,1,1,0,1500,1500,1000,1500,10,AUTO,ON MISSION,0.036679624,-0.281879187,-0.520025104,-0.059596676,-0.000330806,0.002226839,-35.36309145,149.1658656,73185.5
17:48:14,2.064720511,-16.11317873,-29,330,92.75,3.625,2.345750093,2.340773046,79.5,-0.106374871,330,1,1,1,1,0,1500,1500,1000,1500,10,AUTO,ON MISSION,0.036334324,-0.280860379,-0.519939914,-0.032569055,0.000901824,0.000968704,-35.3630685,149.1658498,73052.75
17:48:15,2.054935098,-16.07336044,-29,330,91,3.625,2.340000153,2.335414052,79,-0.097711209,330,1,1,1,1,0,1500,1500,1000,1500,10,AUTO,ON MISSION,0.038472923,-0.280238703,-0.519495994,0.107099805,0.003562813,-0.001289512,-35.36305475,149.1658403,72975
17:48:16,2.079988539,-16.12530851,-29,330,88,3.625,2.341250062,2.34317112,80,-0.105304029,330,1,1,1,1,0,1500,1500,1000,1500,10,AUTO,ON MISSION,0.038197267,-0.281440258,-0.519017503,0.046273263,0.003772019,0.000497573,-35.36303185,149.1658245,72848.5
17:48:17,2.09845078,-16.12755013,-29,330,86.5,3.625,2.340500116,2.340519071,79,-0.103098039,330,1,1,1,1,0,1500,1500,1000,1500,10,AUTO,ON MISSION,0.035625763,-0.281221613,-0.518963814,-0.112411343,-0.004370193,0.001903922,-35.3630181,149.165815,72770.5
17:48:18,2.067450345,-16.20469332,-29,330,83.5,3.625,2.347250164,2.348656178,79.5,-0.106279287,330,1,1,1,1,0,1500,1500,1000,1500,10,AUTO,ON MISSION,0.037123752,-0.282760106,-0.518507138,-0.052745925,0.000702425,0.000681881,-35.3629951,149.1657992,72643.25
17:48:19,2.133016706,-16.13581085,-29,330,81.5,3.625,2.350000143,2.342952132,79.5,-0.101710707,330,1,1,1,1,0,1500,1500,1000,1500,10,AUTO,ON MISSION,0.038939334,-0.281401321,-0.518414199,0.067278599,0.000806315,-0.001341677,-35.3629813,149.1657897,72563
17:48:20,2.148416638,-16.06154442,-29,330,78.75,3.625,2.343000114,2.334124088,80,-0.105513437,330,1,1,1,1,0,1500,1500,1000,1500,10,AUTO,ON MISSION,0.039408663,-0.28023693,-0.517802611,0.041870849,0.003706483,0.000750603,-35.3629584,149.1657739,72430.75
17:48:21,2.238108516,-15.9983983,-29,330,77,3.625,2.336000085,2.332356453,79,-0.104704913,330,1,1,1,1,0,1500,1500,1000,1500,10,AUTO,ON MISSION,0.038574992,-0.279005006,-0.518011034,-0.065160915,-0.000795468,0.00105317,-35.36294455,149.1657644,72353.5
17:48:22,2.240618467,-16.04910135,-29,330,74,3.625,2.336000144,2.332244456,80,-0.105613766,330,1,1,1,1,0,1500,1500,1000,1500,10,AUTO,ON MISSION,0.040378325,-0.280160435,-0.517755389,0.036862979,0.004815982,-0.00161674,-35.3629217,149.1657488,72228.5
17:48:23,2.270479441,-15.93481493,-29,330,72.5,3.625,2.335000157,2.327007174,79.5,-0.110284075,330,1,1,1,1,0,1500,1500,1000,1500,10,AUTO,ON MISSION,0.039253207,-0.277980834,-0.517706662,-0.019506581,0.002854481,0.003855012,-35.36290795,149.1657394,72149.5
17:48:24,2.24936223,-15.98127437,-29,330,69.5,3.625,2.327250123,2.321259439,79.25,-0.105139017,330,1,1,1,1,0,1500,1500,1000,1500,10,AUTO,ON MISSION,0.03936149,-0.278782368,-0.517495811,-0.039016579,-0.001289612,0.002265212,-35.36288507,149.1657237,72023.75
17:48:25,2.147556782,-16.00504971,-29,330,67.5,3.625,2.330000043,2.317078471,79.5,-0.101348098,330,1,1,1,1,0,1500,1500,1000,1500,10,AUTO,ON MISSION,0.038831292,-0.279282406,-0.517442375,0.101431586,0.001013256,0.002063695,-35.36287125,149.1657145,71950.5
17:48:26,2.192833066,-16.03887796,-29,330,64.75,3.625,2.338000119,2.319721997,80,-0.105860289,330,1,1,1,1,0,1500,1500,1000,1500,10,AUTO,ON MISSION,0.039715908,-0.280083276,-0.516892672,0.037676925,0.002807676,-0.000160104,-35.36284848,149.1656989,71828
17:48:27,2.178991914,-16.01595974,-29,330,63,3.625,2.338000178,2.314915419,79,-0.103412174,330,1,1,1,1,0,1500,1500,1000,1500,10,AUTO,ON MISSION,0.037265988,-0.27956064,-0.516657472,-0.078834683,-0.004062777,-0.001463869,-35.3628347,149.1656895,71751.5
17:48:28,2.112708986,-16.10637236,-29,330,60,3.625,2.342250168,2.323036313,79.75,-0.102922142,330,1,1,1,1,0,1500,1500,1000,1500,10,AUTO,ON MISSION,0.039115894,-0.281293735,-0.516424,0.024616053,0.000458093,0.000496214,-35.36281175,149.1656739,71626.75
17:48:29,2.071858406,-16.07289886,-29,330,58.5,3.625,2.343500018,2.328504205,79,-0.106981322,330,1,1,1,1,0,1500,1500,1000,1500,10,AUTO,ON MISSION,0.036145553,-0.280602098,-0.516022712,-0.090734875,-0.002626715,0.004236786,-35.3627979,149.1656645,71549
17:48:30,2.155931115,-16.09554911,-29,330.75,55.25,3.625,2.344000101,2.333776891,80,-0.105897,330,1,1,1,1,0,1500,1500,1000,1500,10,AUTO,ON MISSION,0.037710697,-0.280818105,-0.51659216,-0.006227445,0.001904138,-0.000205382,-35.3627748,149.1656486,71420.5
17:48:31,2.134723425,-15.99369812,-29,331,53.5,3.625,2.340000153,2.327254653,79.5,-0.106574193,330,1,1,1,1,0,1500,1500,1000,1500,10,AUTO,ON MISSION,0.037592765,-0.278922379,-0.516022503,0.016210221,0.002589162,0.004397626,-35.362761,149.1656392,71341.5
17:48:32,2.178354204,-16.09036207,-29,331,50.75,3.625,2.337000132,2.328386605,79.25,-0.105221974,330,1,1,1,1,0,1500,1500,1000,1500,10,AUTO,ON MISSION,0.037744136,-0.280820668,-0.516296044,-0.008411058,-0.001004436,0.004527682,-35.3627381,149.1656235,71216.25
17:48:33,2.194715619,-16.10815334,-29,331,49,3.625,2.340500116,2.328003407,79,-0.099367894,330,1,1,1,1,0,1500,1500,1000,1500,10,AUTO,ON MISSION,0.039050927,-0.281099156,-0.516325265,0.010961607,-0.001632441,-0.003069899,-35.3627243,149.165614,71140
17:48:34,2.151415348,-16.10704279,-29,331,46,3.625,2.343500078,2.328738153,80,-0.103487778,330,1,1,1,1,0,1500,1500,1000,1500,10,AUTO,ON MISSION,0.039653611,-0.281199031,-0.515747532,0.048241465,0.001795847,0.00131527,-35.36270143,149.1655983,71011.25
17:48:35,2.166486859,-16.09075165,-29,331,44.5,3.625,2.343000054,2.325951815,79,-0.102870848,330,1,1,1,1,0,1500,1500,1000,1500,10,AUTO,ON MISSION,0.038127804,-0.280960202,-0.515716493,-0.062703022,-0.002428369,0.000735313,-35.3626877,149.1655889,70934
17:48:36,2.212806046,-16.14627361,-29,331,41.25,3.625,2.344500065,2.334222674,79.5,-0.102928737,330,1,1,1,1,0,1500,1500,1000,1500,10,AUTO,ON MISSION,0.038207744,-0.281778105,-0.515983686,-0.019027252,0.000959453,1.08E-06,-35.36266468,149.1655732,70806.75
17:48:37,2.227074027,-16.17043114,-29,331,39.5,3.625,2.345500112,2.334853172,79,-0.100473791,330,1,1,1,1,0,1500,1500,1000,1500,10,AUTO,ON MISSION,0.039644146,-0.282172263,-0.516296059,0.10794376,0.001059807,0.001636776,-35.36265085,149.1655638,70730
17:48:38,2.129655838,-16.25512838,-29,331,36.5,3.596442878,2.353250086,2.353129148,79.5,-0.105025999,330,1,1,1,1,0,1500,1500,1000,1500,10,AUTO,ON MISSION,0.038572454,-0.283905469,-0.515436739,-0.012606527,-0.001424584,0.002609807,-35.3626277,149.165548,70600.25
17:48:39,2.062393308,-16.77791023,-29,331,35,3.33163321,2.363000154,2.368461132,77.5,-0.106916361,330,1,1,1,1,0,1500,1500,1000,1500,10,AUTO,ON MISSION,0.036874589,-0.292405427,-0.515827417,0.021692015,-0.034965194,-0.001650777,-35.36261375,149.1655387,70518.5
17:48:40,2.293993533,-19.89144182,-29,331,31.75,2.842652559,2.567750096,2.61519444,78,-0.291235972,330,1,1,1,1,0,1500,1500,1000,1500,10,AUTO,ON MISSION,0.040463981,-0.34895587,-0.517422065,0.033873545,-0.03194193,0.000462024,-35.36258942,149.1655221,70272.5
17:48:41,2.434774041,-20.85131168,-29,331,29.5,2.655370951,2.766500115,2.789744973,79,-0.398946911,330,1,1,1,1,0,1500,1500,1000,1500,10,AUTO,ON MISSION,0.042997777,-0.365199402,-0.518250197,-0.05464918,-0.014928169,0.003161223,-35.3625735,149.1655112,70011
17:48:42,2.688914061,-21.6238718,-29,331,26,2.450344145,2.947750151,2.956154346,79,-0.492341563,330,1,1,1,1,0,1500,1500,1000,1500,10,AUTO,ON MISSION,0.048184987,-0.377664313,-0.519112751,0.025905554,-0.008612086,-0.00259241,-35.3625453,149.1654917,69436.5
17:48:43,2.789327741,-22.07283592,-29,331,23.5,2.346115708,3.024000049,3.023053288,79,-0.54314363,330,1,1,1,1,0,1500,1500,1000,1500,10,AUTO,ON MISSION,0.048114587,-0.385203704,-0.520098746,-0.033732459,-0.008762889,0.002284229,-35.3625277,149.1654796,69043.5
17:48:44,3.015802145,-22.80526114,-29,331,20,2.18880856,3.116000116,3.114107192,79,-0.604564905,330,1,1,1,1,0,1500,1500,1000,1500,10,AUTO,ON MISSION,0.052917259,-0.398005582,-0.521632984,-0.046476446,-0.011963105,0.002177107,-35.36249745,149.1654589,68310.5
