time_stamp,MODE,PHASE,RTL_ALT,roll,pitch,yaw,rollspeed,pitchspeed,yawspeed,lat,lon,relative_alt,vx,vy,vz,airspeed,groundspeed,throttle,climb,heading,xacc,yacc,zacc,xgyro,ygyro,zgyro,curr_obj_x,curr_obj_y,curr_obj_z,GPS_status,Gyro_status,Accel_status,Baro_status
16:29:41,STABILIZE,INITIALISATION,1500,-0.000824648,0.000952614,0.02374314,0.000176615,0.000454352,0.001973004,-35.3632621,149.1652374,0,-1,0,0,0,0.015528291,0,0.008457714,1,0,1,-1000,0,0,0,-35.36247616,149.1657336,132.9821002,1,1,1,1
16:29:55,AUTO,TAKEOFF,1500,-0.000462037,0.001091435,0.020358253,0.000308863,0.000243381,0.001342002,-35.3632621,149.1652375,12,0,0,-2,0,0.00591476,0,0.021674668,1,0,1,-1000,0,0,0,-35.36247616,149.1657336,132.9821002,1,1,1,1
16:29:57,AUTO,TAKEOFF,1500,6.92E-05,0.001633119,0.019908918,0.000345125,0.000310009,0.001320457,-35.3632621,149.1652375,13,0,0,0,0,0.008311892,15,0.006419242,1,0,2,-1000,0,1,1,-35.36247616,149.1657336,132.9821002,1,1,1,1
16:29:59,AUTO,TAKEOFF,1500,0.019242791,-0.000313482,0.019150818,0.047350708,-0.006656992,0.001661346,-35.3632621,149.1652375,1265,0,4,-143,0.015000001,0.041655622,68,1.430839896,1,0,0,-1024,48,-6,1,-35.36247616,149.1657336,132.9821002,1,1,1,1
16:30:01,AUTO,TAKEOFF,1500,-0.026684849,0.009978094,-0.063075297,-0.027144549,-0.029666381,-0.031602774,-35.3632609,149.1652446,4296,2,42,-147,0.489000022,0.428394467,80,1.478105664,356,5,-11,-1007,-26,-28,-31,-35.36247616,149.1657336,132.9821002,1,1,1,1
16:30:03,AUTO,TAKEOFF,1500,-0.018178558,0.00557771,-0.107439563,0.066797495,0.010755884,-0.003504608,-35.3632612,149.1652411,7356,-10,-62,-148,0.616000056,0.631709278,76,1.48636055,353,-5,11,-1003,67,11,-3,-35.36247616,149.1657336,132.9821002,1,1,1,1
16:30:05,AUTO,TAKEOFF,1500,0.054867968,-0.050674126,-0.051513467,-0.051480196,-0.125446871,0.142467931,-35.3632644,149.1652344,10467,-7,29,-148,0.239000008,0.300035805,79,1.484684825,357,5,-1,-998,-50,-124,142,-35.36247616,149.1657336,132.9821002,1,1,1,1
16:30:07,AUTO,TAKEOFF,1500,-0.015729679,0.022758337,-0.161887825,0.044319227,0.013597716,-0.041551068,-35.3632601,149.1652373,13545,16,-17,-151,0.282000005,0.240496621,78,1.5193187,350,-5,0,-1001,44,14,-41,-35.36247616,149.1657336,132.9821002,1,1,1,1
16:30:09,AUTO,TAKEOFF,1500,0.011238425,0.006045256,-0.168855563,-0.016039813,-0.016706429,0.003507492,-35.3632607,149.1652353,16665,-16,8,-150,0.154000014,0.191109732,77,1.508126616,350,3,0,-1000,-15,-15,3,-35.36247616,149.1657336,132.9821002,1,1,1,1
16:30:11,AUTO,TAKEOFF,1500,-0.000828658,-0.002391149,-0.200626493,0.003503813,0.002221087,-0.027160434,-35.3632622,149.1652365,19776,-3,3,-151,0.034000002,0.049158063,75,1.519552469,348,0,0,-1000,4,3,-27,-35.36247616,149.1657336,132.9821002,1,1,1,1
16:30:13,AUTO,TAKEOFF,1500,0.004759162,0.003691707,-0.250807673,-0.00018061,0.002138089,-0.021294519,-35.3632622,149.1652365,22894,0,2,-152,0.016000001,0.025558455,75,1.521819234,345,0,0,-1000,0,3,-21,-35.36247616,149.1657336,132.9821002,1,1,1,1
16:30:15,AUTO,TAKEOFF,1500,-0.002099939,0.005952798,-0.27252841,0.032399628,-0.004408524,0.018768409,-35.3632621,149.1652366,26012,-4,0,-152,0.023000002,0.045012604,75,1.521366835,344,0,0,-1002,33,-3,18,-35.36247616,149.1657336,132.9821002,1,1,1,1
16:30:17,AUTO,TAKEOFF,1500,0.00370952,0.001605084,-0.222193718,-0.008984867,0.001246204,0.020962389,-35.3632624,149.1652372,29271,-1,9,-151,0.072000004,0.094597273,75,1.518000841,347,0,-1,-1000,-7,2,20,-35.36247616,149.1657336,132.9821002,1,1,1,1
16:30:19,AUTO,TAKEOFF,1500,-0.000249742,0.001039076,-0.188370138,0.00176315,0.000810398,0.016535752,-35.3632624,149.1652381,32225,0,2,-152,0.016000001,0.028037723,75,1.522595167,349,0,0,-1000,2,1,16,-35.36247616,149.1657336,132.9821002,1,1,1,1
16:30:21,AUTO,TAKEOFF,1500,0.001927159,0.001031881,-0.160426855,0.002914239,0.002279466,0.011717517,-35.3632623,149.165238,35493,0,0,-152,0.020000001,0.001505497,75,1.523452401,350,0,0,-1000,3,3,11,-35.36247616,149.1657336,132.9821002,1,1,1,1
16:30:23,AUTO,TAKEOFF,1500,0.002920796,0.00150081,-0.140503079,-0.003914086,0.000216257,0.008079924,-35.3632622,149.1652377,38599,0,0,-152,0.020000001,0.005494154,75,1.523766994,351,0,0,-999,-2,1,8,-35.36247616,149.1657336,132.9821002,1,1,1,1
16:30:25,AUTO,TAKEOFF,1500,0.002232902,0.001161506,-0.125426188,-0.000729178,-0.001504257,0.008825123,-35.3632621,149.1652375,41706,-1,1,-152,0.006,0.016020492,75,1.524076939,352,0,0,-1000,0,0,8,-35.36247616,149.1657336,132.9821002,1,1,1,1
16:30:27,AUTO,TAKEOFF,1500,0.001948319,0.001349107,-0.112970591,-0.003244475,0.000470311,0.006888055,-35.363262,149.1652375,44813,-1,1,-152,0.002,0.019205092,75,1.523285866,353,0,0,-999,-2,1,7,-35.36247616,149.1657336,132.9821002,1,1,1,1
16:30:29,AUTO,TAKEOFF,1500,0.002297596,0.000994042,-0.101570755,0.000168892,0.0008317,0.007003326,-35.363262,149.1652374,47920,-1,1,-152,0.003,0.017929088,75,1.523581862,354,0,0,-1000,1,2,7,-35.36247616,149.1657336,132.9821002,1,1,1,1
16:30:31,AUTO,TAKEOFF,1500,0.001831871,0.001356351,-0.091753073,-0.000530708,0.000619629,0.00587777,-35.363262,149.1652374,51025,-1,1,-152,0.003,0.019571993,76,1.523970962,354,0,0,-1000,0,1,6,-35.36247616,149.1657336,132.9821002,1,1,1,1
16:30:33,AUTO,TAKEOFF,1500,0.001921713,0.001148439,-0.083664112,0.000237345,-0.000174196,0.007424825,-35.363262,149.1652374,54130,-1,1,-152,0.003,0.018899163,76,1.523452997,355,0,0,-1000,1,1,7,-35.36247616,149.1657336,132.9821002,1,1,1,1
16:30:35,AUTO,TAKEOFF,1500,0.001633088,0.000817311,-0.076380216,-9.79E-06,-0.000421215,0.001251264,-35.363262,149.1652374,57236,0,1,-152,0.005,0.014367292,76,1.523894191,355,0,0,-1000,1,1,1,-35.36247616,149.1657336,132.9821002,1,1,1,1
16:30:37,AUTO,TAKEOFF,1500,0.002071243,0.001396826,-0.069977053,-7.69E-05,-0.000865941,0.005297352,-35.363262,149.1652374,60346,-1,1,-152,0.006,0.015646379,76,1.523530245,356,0,0,-1000,1,0,5,-35.36247616,149.1657336,132.9821002,1,1,1,1
16:30:39,AUTO,TAKEOFF,1500,0.00210037,0.001045165,-0.064449191,0.000534957,0.001947971,0.004169886,-35.363262,149.1652374,63453,-1,1,-152,0.005,0.01794835,76,1.523580551,356,0,0,-999,2,3,4,-35.36247616,149.1657336,132.9821002,1,1,1,1
16:30:41,AUTO,TAKEOFF,1500,0.001953377,0.001524354,-0.059759699,0.000284681,0.004065515,0.00532676,-35.363262,149.1652373,66559,-1,1,-152,0.003,0.020259479,76,1.522615075,356,0,0,-1000,1,5,6,-35.36247616,149.1657336,132.9821002,1,1,1,1
16:30:43,AUTO,TAKEOFF,1500,0.001656157,0.001264431,-0.055720069,0.003386538,2.28E-05,0.0003942,-35.3632619,149.1652373,69672,-2,1,-152,0.011000001,0.025379203,76,1.52341032,356,0,0,-1000,4,1,1,-35.36247616,149.1657336,132.9821002,1,1,1,1
16:30:45,AUTO,TAKEOFF,1500,0.001793741,0.000868975,-0.051988203,-0.000119336,0.002562515,0.004535394,-35.3632619,149.1652373,72779,-1,1,-152,0.003,0.018254887,76,1.523620605,357,0,0,-999,1,3,5,-35.36247616,149.1657336,132.9821002,1,1,1,1
16:30:47,AUTO,TAKEOFF,1500,0.001525815,0.00102192,-0.048040781,-0.001105988,-0.000355892,0.0051371,-35.3632619,149.1652373,75885,-1,0,-152,0.002,0.017434308,76,1.523496628,357,0,0,-999,0,1,5,-35.36247616,149.1657336,132.9821002,1,1,1,1
16:30:49,AUTO,TAKEOFF,1500,0.001862542,0.001099319,-0.045512654,-5.70E-05,0.000105891,0.000820147,-35.3632619,149.1652373,78993,-1,1,-152,0.004,0.017831603,77,1.523777843,357,0,0,-1000,1,1,1,-35.36247616,149.1657336,132.9821002,1,1,1,1
16:30:51,AUTO,TAKEOFF,1500,0.002228978,0.001001241,-0.043031286,0.004966197,0.000376937,0.000715547,-35.3632619,149.1652373,82100,-1,1,-152,0.004,0.018060967,77,1.52429235,357,0,0,-1001,6,1,1,-35.36247616,149.1657336,132.9821002,1,1,1,1
16:30:53,AUTO,TAKEOFF,1500,0.001835519,0.001256778,-0.04112694,-0.000697457,0.002112708,0.002329274,-35.3632619,149.1652373,85207,-1,1,-152,0.004,0.020318035,77,1.523823738,357,0,0,-999,0,3,3,-35.36247616,149.1657336,132.9821002,1,1,1,1
16:30:55,AUTO,TAKEOFF,1500,0.001952754,0.001861466,-0.039448131,0.001518318,0.004063508,0.001431686,-35.3632619,149.1652373,88315,-1,1,-152,0.003,0.020558661,77,1.52376008,357,0,0,-1000,3,5,2,-35.36247616,149.1657336,132.9821002,1,1,1,1
16:30:57,AUTO,TAKEOFF,1500,0.001389977,0.001136019,-0.037851457,-5.61E-05,0.001920914,0.001066374,-35.3632619,149.1652373,91421,-2,1,-152,0.010000001,0.025270892,77,1.523805976,357,0,0,-999,1,3,2,-35.36247616,149.1657336,132.9821002,1,1,1,1
16:30:59,AUTO,TAKEOFF,1500,0.001440706,0.00017026,-0.036399435,0.000202254,0.000501,0.00258431,-35.363262,149.1652373,94532,-1,1,-152,0.002,0.016095847,77,1.524050951,357,0,0,-1000,1,2,3,-35.36247616,149.1657336,132.9821002,1,1,1,1
16:31:01,AUTO,TAKEOFF,1500,0.001605904,0.000634434,-0.035462633,0.002769331,-0.000591331,0.001327831,-35.363262,149.1652373,97640,0,1,-152,0.008,0.014718755,77,1.524747133,357,0,0,-1001,4,1,2,-35.36247616,149.1657336,132.9821002,1,1,1,1
16:31:03,AUTO,TAKEOFF,1500,0.001957455,0.001327396,-0.033746138,0.001803446,0.00300484,0.004017066,-35.363262,149.1652373,100747,-1,1,-152,0.003,0.020117003,78,1.523980021,358,0,0,-999,3,4,5,-35.36247616,149.1657336,132.9821002,1,1,1,1
16:31:05,AUTO,TAKEOFF,1500,0.001843924,0.001981304,-0.032631792,0.002918754,0.001347225,0.001718444,-35.3632619,149.1652373,103861,-1,1,-152,0.005,0.024630761,78,1.524077296,358,0,0,-1000,4,3,2,-35.36247616,149.1657336,132.9821002,1,1,1,1
16:31:07,AUTO,TAKEOFF,1500,0.001797962,6.15E-05,-0.031786446,0.002001711,1.54E-05,0.001931446,-35.3632619,149.1652373,106967,-1,1,-152,0.007,0.022108916,78,1.524211287,358,0,0,-1000,3,1,3,-35.36247616,149.1657336,132.9821002,1,1,1,1
16:31:09,AUTO,TAKEOFF,1500,0.001857815,0.001002265,-0.031320039,2.78E-05,-0.000686861,0.000313723,-35.3632619,149.1652373,110073,-1,1,-152,0.002,0.018562876,78,1.52403295,358,0,0,-1000,1,1,1,-35.36247616,149.1657336,132.9821002,1,1,1,1
16:31:11,AUTO,TAKEOFF,1500,0.001645778,0.000846791,-0.030590482,0.003327603,0.000972903,0.003041255,-35.3632619,149.1652373,113178,-1,1,-152,0.003,0.017085524,60,1.523667216,358,0,0,-1000,5,2,4,-35.36247616,149.1657336,132.9821002,1,1,1,1
16:31:13,AUTO,TAKEOFF,1500,0.032975424,-0.057196338,0.43595466,0.059264641,0.017226703,-7.99E-05,-35.3632644,149.1652324,115406,0,-11,-61,0.241000012,0.112712637,39,0.61915642,24,0,6,-967,61,19,1,-35.36247616,149.1657336,132.9821002,1,1,1,1
16:31:15,AUTO,TAKEOFF,1500,0.000128867,0.015425246,0.351625651,0.375207394,0.013737408,-0.044516388,-35.3632618,149.1652367,116137,11,31,-14,0.373000026,0.339842498,36,0.14952974,20,0,24,-985,377,15,-42,-35.36247616,149.1657336,132.9821002,1,1,1,1
16:31:17,AUTO,ON MISSION,1500,0.027143151,-0.068654083,0.270165533,0.790353715,-0.058411896,-0.034447987,-35.3632608,149.1652391,116011,26,6,0,0.139000013,0.269223213,37,0.004702534,15,-5,21,-1008,792,-56,-32,-35.36247616,149.1657336,132.9821002,1,1,1,1
16:31:19,AUTO,ON MISSION,1500,-0.013080588,-0.161080897,0.773367941,0.045373343,-0.046170849,-0.101674646,-35.3632435,149.1652481,116317,183,96,-32,1.818000078,2.072411299,43,0.325761348,44,-45,-2,-1027,47,-44,-100,-35.36247616,149.1657336,132.9821002,1,1,1,1
16:31:21,AUTO,ON MISSION,1500,0.014798304,-0.184597239,0.669663429,0.01256045,0.066113986,-0.031960968,-35.3631922,149.1652805,117345,385,208,-70,4.173000336,4.37702322,57,0.705984235,38,-81,-33,-1011,14,67,-30,-35.36247616,149.1657336,132.9821002,1,1,1,1
16:31:23,AUTO,ON MISSION,1500,0.04616024,-0.294199198,0.570089936,-0.021382678,-0.023800649,-0.085058622,-35.3631128,149.1653309,118673,521,271,-5,5.631000042,5.878275394,100,0.057139024,32,-119,-53,-912,-19,-22,-83,-35.36247616,149.1657336,132.9821002,1,1,1,1
16:31:25,AUTO,ON MISSION,1500,0.061386492,-0.030331111,0.313623279,-0.029429508,0.042713132,-0.140327439,-35.3630041,149.1654,119191,601,301,-107,6.926000118,6.723246574,100,1.079197407,17,-123,-110,-1074,-27,44,-138,-35.36247616,149.1657336,132.9821002,1,1,1,1
16:31:27,AUTO,ON MISSION,1500,0.107339725,-0.127868503,0.309943229,-0.065928034,-0.154527083,0.054745305,-35.3629096,149.1654583,121685,459,270,-93,5.313000202,5.330314159,100,0.939463973,17,-75,-65,-913,-63,-152,56,-35.36247616,149.1657336,132.9821002,1,1,1,1
16:31:29,AUTO,ON MISSION,1500,0.097131088,-0.143336594,0.330706596,0.069359377,0.041237485,0.014238402,-35.362817,149.1655215,122856,561,302,-51,6.329000473,6.375033855,100,0.514302254,18,-118,-94,-1006,71,43,15,-35.36247616,149.1657336,132.9821002,1,1,1,1
16:31:31,AUTO,ON MISSION,1500,0.088560909,-0.097854488,0.35687688,0.020163585,0.090663552,0.003414075,-35.3627122,149.1655904,123943,587,317,-72,6.783000469,6.676400661,100,0.721367717,20,-146,-114,-1039,22,92,5,-35.36247616,149.1657336,132.9821002,1,1,1,1
16:31:33,AUTO,ON MISSION,1500,0.070956402,-0.022581542,0.380650043,-0.04781983,0.046599992,0.015795732,-35.362613,149.1656565,126037,486,271,-130,5.722000122,5.573801517,100,1.30872345,21,-87,-67,-1006,-45,48,17,-35.36247616,149.1657336,132.9821002,1,1,1,1
16:31:35,AUTO,ON MISSION,1500,0.04459884,0.028405976,0.395225495,-0.012239017,0.042716768,-0.000182038,-35.3625378,149.1657074,128932,337,186,-157,4.006000042,3.857754946,98,1.570347667,22,-75,-58,-1016,-9,44,1,-35.36247616,149.1657336,132.9821002,1,1,1,1
16:31:37,AUTO,ON MISSION,1500,0.052066516,0.01936827,0.573146462,0.060017217,0.044885196,0.381068289,-35.3624928,149.1657371,132171,165,85,-135,1.938000083,1.861792445,47,1.359003305,32,-39,-15,-893,62,47,382,-35.36247616,149.1657336,132.9821002,1,1,1,1
16:31:39,AUTO,ON MISSION,1500,-0.246350825,-0.003039959,-0.453205228,0.524420202,-0.003772274,-0.801914215,-35.3624819,149.165732,133054,-54,-198,22,1.731000066,2.057820082,39,-0.224315226,334,-32,45,-1011,526,-1,-800,-35.36247616,149.1657336,132.9821002,1,1,1,1
16:31:41,AUTO,ON MISSION,1500,0.033849314,-0.172659293,-1.892390609,0.349296272,-0.012801712,-0.270624459,-35.3625097,149.1656629,132645,-213,-392,17,4.331000328,4.468589306,41,-0.173114389,251,-104,-45,-992,351,-10,-268,-35.36288185,149.1647595,129.3416873,1,1,1,1
16:31:43,AUTO,ON MISSION,1500,0.045764595,-0.209795177,-1.867448568,-0.111966014,-0.013707866,-0.005759449,-35.3625532,149.1655612,132205,-274,-540,20,5.9010005,6.064751625,45,-0.20875901,253,-141,-77,-994,-109,-11,-3,-35.36288185,149.1647595,129.3416873,1,1,1,1
16:31:45,AUTO,ON MISSION,1500,0.071798615,-0.156382978,-1.901120543,-0.032028433,0.03040891,-0.005557652,-35.3626065,149.1654324,131778,-306,-613,18,6.823000431,6.86015892,43,-0.181557059,251,-157,-82,-991,-29,32,-3,-35.36288185,149.1647595,129.3416873,1,1,1,1
16:31:47,AUTO,ON MISSION,1500,0.058211375,-0.142868489,-1.919369698,-0.357110173,-0.010150516,-0.00041184,-35.3626613,149.1652973,131279,-302,-615,23,6.827000141,6.855527878,41,-0.237210765,250,-147,-87,-996,-354,-8,1,-35.36288185,149.1647595,129.3416873,1,1,1,1
16:31:49,AUTO,ON MISSION,1500,0.077986218,-0.139624655,-1.939499021,0.285714954,0.01380389,-0.007517532,-35.3627162,149.1651619,130775,-310,-618,20,6.886000156,6.920790195,42,-0.20874323,248,-137,-63,-984,287,15,-5,-35.36288185,149.1647595,129.3416873,1,1,1,1
16:31:51,AUTO,ON MISSION,1500,0.064220257,-0.125183046,-1.948521614,-0.310352296,0.071972549,0.014508152,-35.3627711,149.1650266,130292,-309,-611,19,6.868000507,6.854636669,41,-0.191430122,248,-145,-87,-1002,-308,73,16,-35.36288185,149.1647595,129.3416873,1,1,1,1
16:31:53,AUTO,ON MISSION,1500,0.088604249,-0.018111231,-1.960334063,0.832801998,0.04235616,-0.034611586,-35.3628226,149.1649011,129910,-252,-504,19,5.758000374,5.638670921,34,-0.199110508,247,-115,-42,-989,835,44,-32,-35.36288185,149.1647595,129.3416873,1,1,1,1
16:31:55,AUTO,ON MISSION,1500,0.005018956,0.02820408,-2.003487349,0.288982451,-0.010329154,-0.086765639,-35.3628591,149.1648115,129521,-173,-297,13,3.508000135,3.439349651,35,-0.133404613,245,-70,-48,-999,290,-8,-84,-35.36288185,149.1647595,129.3416873,1,1,1,1
16:31:57,AUTO,ON MISSION,1500,-0.105868563,-0.047071017,-2.602540731,-0.518722296,-0.060517691,-0.540818989,-35.3628939,149.1647726,129471,-228,-66,-11,2.4150002,2.377983332,40,0.116558738,210,-53,-33,-1013,-516,-58,-538,-35.36288185,149.1647595,129.3416873,1,1,1,1
16:31:59,AUTO,ON MISSION,1500,0.003189384,-0.162889831,3.024436474,-0.004989441,-0.028648736,-0.163375027,-35.36294175,149.1647769,129841.5,-371,71.5,-35.5,3.80700016,3.781253457,49.5,0.361761093,172.5,-75,-37.5,-1012.5,-2,-26.5,-160.5,-35.36367745,149.1650026,137.9670475,1,1,1,1
16:32:01,AUTO,ON MISSION,1500,0.064693838,-0.149967968,2.793738365,0.008043512,0.03116031,-0.149321541,-35.3630408,149.1648072,130937,-548,147,-56,5.735000134,5.685652733,63,0.567345858,160,-95,-62,-986,11,32,-147,-35.36367745,149.1650026,137.9670475,1,1,1,1
16:32:03,AUTO,ON MISSION,1500,0.152477667,-0.111912496,2.483737946,0.033040952,0.107384168,-0.040472943,-35.3631514,149.1648445,131581,-672,180,-20,7.043000221,6.968114376,90,0.202502564,142,-109,-142,-1043,36,109,-38,-35.36367745,149.1650026,137.9670475,1,1,1,1
16:32:05,AUTO,ON MISSION,1500,0.102771755,-0.08891974,2.551060319,-0.032197901,-0.038385691,0.054576147,-35.36325795,149.1648754,132545,-668.5,156,-60.5,6.936000347,6.870602608,84.5,0.611849755,145.5,-98.5,-115,-975.5,-29,-36,56.5,-35.36367745,149.1650026,137.9670475,1,1,1,1
16:32:07,AUTO,ON MISSION,1500,0.096921761,-0.105946109,2.624755979,0.033016389,-0.016029955,0.030125184,-35.36337835,149.1649106,133839,-652,171.5,-61,6.829000473,6.750335932,84,0.612781435,149.5,-109,-118.5,-986,35,-13.5,32,-35.36367745,149.1650026,137.9670475,1,1,1,1
16:32:09,AUTO,ON MISSION,1500,0.081622534,-0.046428839,2.677595377,0.014759305,0.032212285,0.021486913,-35.36349535,149.1649473,135345.5,-612.5,162,-100,6.505000353,6.341926575,67.5,1.005262673,153,-104.5,-93,-1021.5,17,34,23.5,-35.36367745,149.1650026,137.9670475,1,1,1,1
16:32:11,AUTO,ON MISSION,1500,0.052349547,0.05560257,3.09075892,0.029146954,0.106571466,-0.01961142,-35.3635973,149.1649754,137276,-472,90.5,-66,5.065500259,4.813024521,36,0.660825998,176.5,-105.5,-44,-955.5,31.5,109,-17,-35.36367745,149.1650026,137.9670475,1,1,1,1
16:32:13,AUTO,ON MISSION,1500,0.023307865,-0.025808034,3.035934687,-0.756911993,-0.040983594,-0.016374407,-35.36365885,149.1649973,137668.5,-250.5,92,10.5,2.771000147,2.672951579,35,-0.11069436,173.5,-63,-49.5,-980,-754,-38,-13.5,-35.36367745,149.1650026,137.9670475,1,1,1,1
16:32:15,AUTO,ON MISSION,1500,0.049324472,-0.063363917,2.965217471,-0.308173597,0.036507726,-0.009845241,-35.36370215,149.1650185,136766,-247.5,72.5,80.5,2.658500075,2.584511757,32,-0.809288174,169.5,-62.5,-59,-963.5,-306,38.5,-7,-35.36389474,149.1651042,127.4268381,1,1,1,1
16:32:17,AUTO,ON MISSION,1500,0.049436338,-0.036135405,2.920850635,-0.43480258,-0.009023688,0.014249941,-35.36374575,149.1650375,134747,-228.5,48.5,101.5,2.484000206,2.343247175,31.5,-1.021733075,167,-55,-42.5,-1023,-431.5,-6,17,-35.36389474,149.1651042,127.4268381,1,1,1,1
16:32:19,AUTO,ON MISSION,1500,0.025792609,-0.04647045,2.910214305,0.131502211,-0.000812258,-0.024777953,-35.36378735,149.1650521,132667,-225,51,99,2.403000116,2.313002348,32.5,-0.998084933,166,-50,-10.5,-1003.5,136,2.5,-21,-35.36389474,149.1651042,127.4268381,1,1,1,1
16:32:21,AUTO,ON MISSION,1500,0.040404469,-0.053319015,2.897544265,0.170184616,-0.008774113,-0.003161699,-35.3638288,149.1650683,130636.5,-222.5,67,101,2.447000146,2.329337358,32,-1.015185595,165.5,-56,-13.5,-947,174,-5,0,-35.36389474,149.1651042,127.4268381,1,1,1,1
16:32:23,AUTO,ON MISSION,1500,0.066472758,0.053598649,2.898014903,0.199905932,0.08295149,0.023978197,-35.3638684,149.1650865,128681.5,-180,33.5,85,2.130000114,1.83816117,32,-0.85783565,165.5,-44,-23.5,-1042,204,86,26.5,-35.36389474,149.1651042,127.4268381,1,1,1,1
16:32:25,AUTO,ON MISSION,1500,0.127713688,0.151108377,-2.855769515,0.015375152,0.02866053,0.672095209,-35.36388035,149.165087,127389,84,-86,43.5,0.740500033,1.223845422,37,-0.440331966,196,26.5,7.5,-1037,21.5,32,674.5,-35.36389474,149.1651042,127.4268381,1,1,1,1
16:32:27,AUTO,ON MISSION,1500,0.184019282,-0.052681054,-1.469190896,-0.235218421,0.009488404,0.706529409,-35.3638406,149.1650573,126828.5,344,-190,26,3.757500172,3.937774658,42,-0.265212432,275,-1,-103.5,-997.5,-229.5,12.5,708.5,-35.36292617,149.1644704,118.6466105,1,1,1,1
16:32:29,AUTO,ON MISSION,1500,0.056758301,-0.203367844,-0.380222946,0.192824848,0.016012337,-0.006827962,-35.3637619,149.1650065,126149.5,522,-262,44,5.747500181,5.84648037,44,-0.442697585,338,-122.5,-45.5,-992,197.5,20,-4,-35.36292617,149.1644704,118.6466105,1,1,1,1
16:32:31,AUTO,ON MISSION,1500,0.071474209,-0.15466623,-0.432582915,-0.254235882,0.015240391,0.015915969,-35.36365735,149.1649415,125258,609,-311,46.5,6.84400034,6.844045877,40.5,-0.468081638,335,-145.5,-87,-987,-249,18.5,19,-35.36292617,149.1644704,118.6466105,1,1,1,1
16:32:33,AUTO,ON MISSION,1500,0.067934692,-0.144544497,-0.43660377,-0.486554012,-0.013800691,0.028278736,-35.3635514,149.1648755,124315,608.5,-314,54,6.813500404,6.853392601,38.5,-0.544508427,334.5,-142,-99.5,-983.5,-481.5,-9.5,30,-35.36292617,149.1644704,118.6466105,1,1,1,1
16:32:35,AUTO,ON MISSION,1500,0.072849013,-0.14196068,-0.44572331,-0.332852483,0.013994457,-0.012896853,-35.3634372,149.1648034,123244,616.5,-321,48,6.885500431,6.957658052,39,-0.489309415,334,-133,-92,-988,-327,17.5,-10.5,-35.36292617,149.1644704,118.6466105,1,1,1,1
16:32:37,AUTO,ON MISSION,1500,0.07886821,-0.144547984,-0.449615568,0.206316069,0.003325019,-0.038776886,-35.36332775,149.1647339,122251.5,615.5,-318,48,6.861000299,6.934828758,39,-0.48579067,334,-143.5,-63,-995,211.5,6.5,-35.5,-35.36292617,149.1644704,118.6466105,1,1,1,1
16:32:39,AUTO,ON MISSION,1500,0.082408193,-0.140303314,-0.454503179,0.449564323,-0.009097066,-0.031768866,-35.36321825,149.1646647,121264.5,611.5,-317.5,47.5,6.841500282,6.898010731,39,-0.477546588,333.5,-133,-48.5,-988,454.5,-5,-28.5,-35.36292617,149.1644704,118.6466105,1,1,1,1
16:32:41,AUTO,ON MISSION,1500,0.089497425,-0.091316201,-0.456048086,0.445203602,0.054643,0.000930134,-35.36310995,149.1645961,120300,587.5,-308.5,41.5,6.680500269,6.639574528,36,-0.421064094,333,-133,-72,-983.5,448.5,57.5,4,-35.36292617,149.1644704,118.6466105,1,1,1,1
16:32:43,AUTO,ON MISSION,1500,0.068283811,0.001434976,-0.454567239,0.330826394,0.044621667,0.020498447,-35.36301545,149.1645372,119460,447.5,-234,36,5.190500259,5.058200836,33,-0.366307512,333,-100,-66.5,-1005,334.5,47,23.5,-35.36292617,149.1644704,118.6466105,1,1,1,1
16:32:45,AUTO,ON MISSION,1500,0.02807015,0.048479773,-0.457462028,0.466469243,0.014379147,0.009857357,-35.36295495,149.1645015,118871.5,247.5,-143.5,19.5,3.004000187,2.866288185,34.5,-0.198126987,333,-59,-30.5,-999.5,470,17,12.5,-35.36292617,149.1644704,118.6466105,1,1,1,1
16:32:46,AUTO,ON MISSION,1500,0.017285869,0.069637738,-0.45927757,0.644710645,-0.023386812,0.000557748,-35.3629331,149.1644879,118667.5,121.5,-83.5,7.5,1.586500049,1.483099401,35.5,-0.078195579,333,-29.5,4.5,-1017.5,648,-20,4,-35.36292617,149.1644704,118.6466105,1,1,1,1
16:32:47,AUTO,ON MISSION,1500,0.009877579,0.048426874,-0.459218517,0.08040151,-0.024332815,0.005238049,-35.3629273,149.1644839,118620,68.5,-56,3.5,0.944500059,0.890603989,36.5,-0.043936652,333,-17,-21,-1004,83.5,-20.5,8,-35.36292617,149.1644704,118.6466105,1,1,1,1
16:32:49,AUTO,ON MISSION,1500,-0.008407667,0.006941268,-0.460815355,-0.587579787,-0.028512823,-0.003492122,-35.3629233,149.1644793,118609.5,-1,-11.5,-1,0.126500007,0.125456627,37,0.016366007,333,-1,-11.5,-988,-583,-25,0,-35.36292617,149.1644704,118.6466105,1,1,1,1
16:32:50,RTL,RETURN TO ORIGIN,1500,-0.002569538,-0.008728306,-0.46223031,0.141184628,0.012675193,0.004242939,-35.36292395,149.1644787,118630,0.5,-6.5,-1,0.083500002,0.070497938,37,0.015501728,333,-0.5,23.5,-998.5,146,15,6.5,-35.36309413,149.1648539,59.32330527,1,1,1,1
16:32:51,RTL,RETURN TO ORIGIN,1500,0.014131425,-0.004829918,-0.463234976,0.653952777,0.005529668,0.000948533,-35.3629242,149.1644783,118623.5,2,-4,1.5,0.090500005,0.050740877,37,-0.01986901,333,0,31,-995,657.5,8,3.5,-35.3632621,149.1652374,0,1,1,1,1
16:32:53,RTL,RETURN TO ORIGIN,1500,0.031246669,0.049037883,-0.463351548,-0.643185198,0.028957244,-0.010683783,-35.3629256,149.1644802,118619.5,-14.5,43.5,0,0.376000024,0.464327395,37,-0.003558344,333,10.5,-32,-1005,-639,31.5,-7,-35.3632621,149.1652374,0,1,1,1,1
16:32:54,RTL,RETURN TO ORIGIN,1500,0.040128397,0.093447223,-0.462348878,0.261807943,0.043231081,0.012552208,-35.36292935,149.1644909,118614,-51,113,1,1.141500056,1.248693883,38,-0.012198711,333,31.5,16,-1002,267,45.5,15.5,-35.3632621,149.1652374,0,1,1,1,1
16:32:55,RTL,RETURN TO ORIGIN,1500,0.051008683,0.124784496,-0.461546406,0.014102519,0.044333832,-0.029393577,-35.3629339,149.164503,118606.5,-85.5,164,2,1.773000121,1.85410428,39,-0.021526746,333,47.5,-21,-996.5,17.5,46.5,-26,-35.3632621,149.1652374,0,1,1,1,1
16:32:56,RTL,RETURN TO ORIGIN,1500,0.054436669,0.158113293,-0.459612176,-0.042659566,0.003726221,0.021110414,-35.36294715,149.1645345,118578.5,-154,276,2.5,2.940000176,3.164977193,42,-0.026753974,333,76.5,2.5,-1005.5,-39,6,23.5,-35.3632621,149.1652374,0,1,1,1,1
16:32:57,RTL,RETURN TO ORIGIN,1500,0.067012452,0.176978119,-0.459491894,0.100048482,0.025613072,-0.014943028,-35.36295855,149.16456,118564.5,-191,340.5,2.5,3.75450027,3.910858989,44.5,-0.026838033,333,92,-7,-1004,103.5,27.5,-11.5,-35.3632621,149.1652374,0,1,1,1,1
16:32:59,RTL,RETURN TO ORIGIN,1500,0.052270889,0.19144728,-0.458285108,-0.06312649,-0.003030483,-0.000133731,-35.36300155,149.1646564,118546,-283.5,511.5,-2,5.783000231,5.855043888,49.5,0.026152128,333,130,-14,-989.5,-59,-0.5,3,-35.3632621,149.1652374,0,1,1,1,1
16:33:00,RTL,RETURN TO ORIGIN,1500,0.027149615,0.176268741,-0.458280116,-0.00107858,-0.004343041,-0.00202284,-35.36303595,149.1647339,118604,-317,569,-4.5,6.465500355,6.522654295,48,0.048116066,333,144,-13.5,-981,2.5,-2,1,-35.3632621,149.1652374,0,1,1,1,1
16:33:01,RTL,RETURN TO ORIGIN,1500,0.014915535,0.164895132,-0.458816156,-0.034013772,-0.027886339,-0.00370485,-35.36305685,149.1647804,118636,-325.5,582.5,-3,6.644000292,6.683035612,47,0.034284535,333,148,-25,-993.5,-30,-25,-0.5,-35.3632621,149.1652374,0,1,1,1,1
16:33:02,RTL,RETURN TO ORIGIN,1500,0.014006312,0.166234218,-0.459384397,0.046201354,0.024656512,-0.006476443,-35.3630939,149.1648629,118676.5,-329,585.5,2.5,6.675500393,6.722474575,45,-0.031022773,333,144.5,-20.5,-973.5,49.5,27,-3,-35.3632621,149.1652374,0,1,1,1,1
16:33:03,RTL,RETURN TO ORIGIN,1500,0.019425347,0.16616372,-0.459864199,-0.028724533,0.012094163,-0.005724117,-35.3631153,149.16491,118650,-332,593.5,3.5,6.743500233,6.807516813,46,-0.040168163,333,153.5,-20.5,-986.5,-25.5,14,-2.5,-35.3632621,149.1652374,0,1,1,1,1
16:33:04,RTL,RETURN TO ORIGIN,1500,-0.001727411,0.133593522,-0.462197542,-0.023294886,-0.031748197,-0.002905773,-35.36315305,149.1649936,118639,-329.5,596.5,-5,6.808000326,6.819324732,43.5,0.051350953,333,153.5,-9,-997.5,-19.5,-29,0,-35.3632621,149.1652374,0,1,1,1,1
16:33:05,RTL,RETURN TO ORIGIN,1500,-0.027371783,0.102084015,-0.461900294,-0.022210676,-0.061487282,0.021129428,-35.3631736,149.1650396,118690.5,-312.5,566,-5,6.50600028,6.472926378,39.5,0.056168908,333,140.5,-2.5,-985,-18.5,-58.5,24,-35.3632621,149.1652374,0,1,1,1,1
16:33:06,RTL,RETURN TO ORIGIN,1500,-0.043842673,0.055260712,-0.461113438,0.171737134,-0.024081677,-0.020763486,-35.36320655,149.1651133,118716,-265.5,475,3,5.619500399,5.447623253,36,-0.038472397,333,122,-17.5,-976.5,174.5,-21,-17.5,-35.3632621,149.1652374,0,1,1,1,1
16:33:07,RTL,RETURN TO ORIGIN,1500,-0.066101849,0.019298508,-0.461679071,-0.533503696,-0.045018177,-0.042926341,-35.36322225,149.1651478,118689.5,-229.5,405,3.5,4.817500114,4.663792372,35,-0.035637328,333,109,-42,-995.5,-530.5,-42,-39,-35.3632621,149.1652374,0,1,1,1,1
16:33:08,RTL,RETURN TO ORIGIN,1500,-0.069551524,-0.01746866,-0.46038951,-0.677738875,-0.020111194,-0.031883165,-35.36324435,149.1651957,118641,-158.5,273,3,3.381500244,3.166489959,35,-0.036946098,333,75,-31.5,-1007.5,-674,-17.5,-28.5,-35.3632621,149.1652374,0,1,1,1,1
16:33:09,RTL,RETURN TO ORIGIN,1500,-0.065715533,-0.037692864,-0.459916875,-0.290040785,-0.028472091,0.011030856,-35.363253,149.1652138,118619.5,-117,204.5,1,2.484000206,2.364325821,35,-0.015031137,333,56,5,-1005.5,-285.5,-25,14,-35.3632621,149.1652374,0,1,1,1,1
16:33:10,RTL,RETURN TO ORIGIN,1500,-0.040603111,-0.048329774,-0.459370762,0.083812907,0.017872008,0.014567357,-35.3632629,149.1652336,118601.5,-48.5,91.5,0.5,1.17900008,1.04044801,36.5,-0.009350072,333,23,20.5,-1007,88.5,20,17.5,-35.3632621,149.1652374,0,1,1,1,1
16:33:11,RTL,RETURN TO ORIGIN,1500,-0.011069004,-0.040095398,-0.459785864,0.679839432,0.011853669,0.002609922,-35.36326525,149.165238,118598,-21.5,52.5,0,0.580000028,0.574956909,37,-0.000437819,333,10.5,31.5,-1016,683.5,14.5,5.5,-35.3632621,149.1652374,0,1,1,1,1
16:33:12,RTL,RETURN TO ORIGIN,1500,0.007309181,-0.021535256,-0.459791541,-0.083236411,0.018923511,-0.003381036,-35.3632667,149.1652405,118608,7.5,12.5,-0.5,0.052000004,0.156786613,37,0.010244399,333,-1,-17,-992.5,-80,21.5,0,-35.3632621,149.1652374,0,1,1,1,1
16:33:13,RTL,RETURN TO ORIGIN,1500,0.010958185,-0.005584679,-0.45913808,-0.578963667,0.0140845,-0.000177289,-35.36326655,149.1652402,118613,13,10,0,0.073500002,0.172534443,37,0.002819023,333,-1.5,-29,-1006,-574.5,16.5,2.5,-35.3632621,149.1652374,0,1,1,1,1
16:33:14,RTL,RETURN TO ORIGIN,1500,0.01292046,-0.010262066,-0.458918795,0.202812187,-0.001132594,-0.002897121,-35.36326605,149.1652395,118628,15.5,13.5,0,0.061000003,0.217424177,37,-0.000999931,333,-1.5,20.5,-1000.5,208,1.5,0,-35.3632621,149.1652374,0,1,1,1,1
16:33:15,RTL,RETURN TO ORIGIN,1500,0.019879156,-0.008445913,-0.458804712,0.421463594,0.008768193,-0.004814271,-35.36326565,149.1652391,118630.5,18,11,0.5,0.097000003,0.21878808,37,-0.008395128,333,-1.5,18.5,-999.5,425.5,11,-2,-35.3632621,149.1652374,0,1,1,1,1
16:33:16,RTL,RETURN TO ORIGIN,1500,0.015196566,-0.000166823,-0.459805861,0.314083632,0.005069348,-0.0050168,-35.3632645,149.1652385,118635.5,17.5,8,1,0.135000005,0.196272813,37,-0.012580358,333,-1,0.5,-1004,317.5,7.5,-2,-35.3632621,149.1652374,0,1,1,1,1
16:33:17,RTL,RETURN TO ORIGIN,1500,0.002154139,0.001477677,-0.4600344,-0.537963822,0.000943548,-0.003635764,-35.3632638,149.1652383,118637.5,13.5,6,0.5,0.103000004,0.153899014,36.5,-0.011640531,333,-0.5,-33.5,-995.5,-533.5,3,0,-35.3632621,149.1652374,0,1,1,1,1
16:33:18,RTL,RETURN TO ORIGIN,1500,-0.001069289,-0.001016368,-0.460163489,-0.594039381,-0.00499069,0.001004173,-35.3632632,149.1652378,118635.5,7,4.5,1,0.049000001,0.091890033,36.5,-0.015981431,333,-0.5,-18,-991,-588.5,-1.5,4,-35.3632621,149.1652374,0,1,1,1,1
16:33:19,RTL,LANDING,1500,-0.000954733,-0.001682091,-0.460779592,-0.449002251,0.004202641,-0.00015776,-35.36326315,149.1652376,118501.5,6.5,5,34,0.0425,0.089300659,32,-0.34867515,333,-2,-9,-932,-443.5,6.5,2.5,-35.3632621,149.1652374,0,1,1,1,1
16:33:20,RTL,LANDING,1500,0.031660954,-0.00105587,-0.459771842,1.028796226,-0.008863397,-0.00807596,-35.363263,149.1652372,117576,6,5.5,111.5,0.037000001,0.087551236,32,-1.120187759,333,-0.5,-11,-938,1032,-5.5,-4.5,-35.3632621,149.1652374,0,1,1,1,1
16:33:21,RTL,LANDING,1500,0.014425487,-0.001039655,-0.460979342,0.344556689,-0.000279803,0.002546568,-35.3632628,149.1652373,116729,6,5,116.5,0.091500003,0.083905559,35,-1.166297138,333,2,-6.5,-1053,349,2.5,4.5,-35.3632621,149.1652374,0,1,1,1,1
16:33:22,RTL,LANDING,1500,0.002955948,0.001279882,-0.461918309,1.333400309,0.00333257,0.004921247,-35.3632622,149.1652383,115354,4,2.5,101,0.17400001,0.054520166,32,-1.014346272,333,2.5,70,-998.5,1339,5.5,7.5,-35.3632621,149.1652374,0,1,1,1,1
16:33:23,RTL,LANDING,1500,0.000735544,-0.000970571,-0.461204857,0.900997385,-0.004784572,0.001981009,-35.363262,149.1652389,114608.5,-0.5,-5,99,0.087500002,0.06047939,32.5,-0.992664933,333,2,17,-1036,905.5,-2,5,-35.3632621,149.1652374,0,1,1,1,1
16:33:24,RTL,LANDING,1500,-0.014384473,-0.002561281,-0.462700561,0.576306626,0.000236965,0.003366804,-35.3632619,149.1652393,113314.5,-1.5,-10.5,102.5,0.037,0.108673535,32.5,-1.026719272,333,-0.5,62,-970,583,3,6,-35.3632621,149.1652374,0,1,1,1,1
16:33:25,RTL,LANDING,1500,-0.00492239,-0.004894371,-0.462368071,0.499721475,8.43E-05,0.006696717,-35.36326195,149.1652393,112568,-2,-11.5,97.5,0.039000003,0.124126565,32.5,-0.977766305,333,-0.5,31,-1103.5,504.5,2.5,9,-35.3632621,149.1652374,0,1,1,1,1
16:33:26,RTL,LANDING,1500,-0.007233044,-0.006955534,-0.46240598,0.141428498,5.71E-05,0.013713405,-35.36326235,149.1652387,111269,-0.5,-10,102.5,0.125000004,0.105226282,33,-1.03367573,333,-2,50.5,-1006.5,148,2.5,16,-35.3632621,149.1652374,0,1,1,1,1
16:33:27,RTL,LANDING,1500,0.002550588,-0.005377154,-0.461876675,0.05137372,0.003187422,0.005716444,-35.3632625,149.1652381,110512,1,-6,108,0.152000006,0.066328689,35.5,-1.087731481,333,-3.5,12,-1014.5,56,5.5,8,-35.3632621,149.1652374,0,1,1,1,1
16:33:28,RTL,LANDING,1500,0.004402228,-0.005496093,-0.461588353,-0.726937324,-0.00041312,0.004271376,-35.36326305,149.1652363,109212.5,4,1.5,100,0.239500009,0.049479548,33,-1.00601688,333,-3.5,8,-1002.5,-719.5,1.5,7,-35.3632621,149.1652374,0,1,1,1,1
16:33:29,RTL,LANDING,1500,0.021860381,-0.003254495,-0.461538434,0.052891672,0.001756908,-0.003586115,-35.36326335,149.1652354,108478.5,8.5,10,100,0.130000006,0.135222185,33,-1.007587016,333,-2,15,-1019.5,58.5,4,-0.5,-35.3632621,149.1652374,0,1,1,1,1
16:33:30,RTL,LANDING,1500,-0.005815683,0.002666706,-0.459930345,-1.294143319,0.000480814,0.000576669,-35.36326315,149.1652352,107170.5,11.5,17.5,100,0.155000001,0.214310996,33.5,-1.005762279,333,3.5,-48,-1031,-1288,3,3,-35.3632621,149.1652374,0,1,1,1,1
16:33:31,RTL,LANDING,1500,-0.005601729,0.004470744,-0.461121112,-0.026910901,-0.000146578,-0.005241319,-35.3632626,149.1652362,106438.5,9.5,15,97.5,0.233500011,0.187788926,32,-0.9790245,333,3.5,8.5,-1002,-21,2,-2,-35.3632621,149.1652374,0,1,1,1,1
16:33:32,RTL,LANDING,1500,-0.037742492,0.001441931,-0.461624742,-0.99019137,-0.004077621,-0.000555287,-35.36326185,149.1652381,105145.5,0.5,3,101.5,0.145000011,0.037894228,32.5,-1.019533455,333,0.5,-11,-990,-983,-1.5,2.5,-35.3632621,149.1652374,0,1,1,1,1
16:33:33,RTL,LANDING,1500,-0.017880954,-0.002003613,-0.461595088,-0.418856002,-0.007521819,0.001544799,-35.36326175,149.1652385,104350,-2.5,-3.5,102.5,0.061500004,0.04978812,33,-1.030969024,333,1.5,-24,-957.5,-413,-4.5,5,-35.3632621,149.1652374,0,1,1,1,1
16:33:34,RTL,LANDING,1500,-0.016020373,-0.003928322,-0.460625842,-0.303842172,-0.001927137,0.001644914,-35.36326205,149.1652384,103107.5,-2,-6.5,101.5,0.037000002,0.074987873,32,-1.01959005,333,-0.5,25.5,-987,-296,0.5,4,-35.3632621,149.1652374,0,1,1,1,1
16:33:35,RTL,LANDING,1500,-0.012040365,-0.003089811,-0.461594567,-0.519181661,-0.003185161,-7.34E-05,-35.3632621,149.1652385,102315,-1,-7.5,105,0.038500003,0.079317182,34,-1.055676222,333,0.5,-20.5,-987.5,-513.5,-0.5,3.5,-35.3632621,149.1652374,0,1,1,1,1
16:33:36,RTL,LANDING,1500,-0.022646034,-0.000690925,-0.460780531,-0.028624855,-1.67E-05,0.003100887,-35.363262,149.1652388,101060,0,-7,99,0.080500007,0.07465069,32,-0.991635978,333,0.5,43,-991,-21.5,2.5,6,-35.3632621,149.1652374,0,1,1,1,1
16:33:37,RTL,LANDING,1500,-0.023397945,-0.000832209,-0.461305842,-0.439154312,0.004304389,0.004884007,-35.36326175,149.1652392,100262,-2,-10.5,102.5,0.078000002,0.11349836,33.5,-1.034069121,333,0.5,-7,-943,-434,6.5,8,-35.3632621,149.1652374,0,1,1,1,1
16:33:38,RTL,LANDING,1500,-0.013626964,-0.001814784,-0.461835071,0.51852566,0.000999394,0.00555314,-35.3632616,149.1652395,99014.5,-5,-14,96.5,0.034500002,0.154553466,32,-0.974439353,333,-0.5,57,-1021,524.5,3,8.5,-35.3632621,149.1652374,0,1,1,1,1
16:33:39,RTL,LANDING,1500,-0.013586923,-0.002703099,-0.461788982,-0.304325163,-0.002109247,0.001817005,-35.3632617,149.1652391,98222,-5.5,-13.5,103.5,0.075500002,0.154965051,33.5,-1.039988697,333,-1.5,6,-976,-299,0.5,5,-35.3632621,149.1652374,0,1,1,1,1
16:33:40,RTL,LANDING,1500,-0.000671715,-0.003806844,-0.461446077,0.799932659,-0.002749607,0.003178333,-35.36326205,149.1652383,96961.5,-2.5,-7,99,0.165000014,0.084447093,33,-0.999440461,333,-3,76.5,-978,806,0,6.5,-35.3632621,149.1652374,0,1,1,1,1
16:33:41,RTL,LANDING,1500,0.010010323,-0.005942723,-0.461484864,0.043365091,-0.001055084,0.007625862,-35.3632625,149.1652372,96174,-1,-3,96,0.227500007,0.035103573,31.5,-0.964032948,333,-3.5,7,-999,48,1.5,11,-35.3632621,149.1652374,0,1,1,1,1
16:33:42,RTL,LANDING,1500,0.019777388,-0.004843264,-0.461098582,0.108820956,-0.001481607,0.006673603,-35.36326325,149.1652352,94930,5,9,101,0.274000004,0.110889964,33.5,-1.0151245,333,-4,50.5,-986,115,1,10,-35.3632621,149.1652374,0,1,1,1,1
16:33:43,RTL,LANDING,1500,0.032324581,-0.004029684,-0.461654305,-0.275868118,0.003915215,-0.009471891,-35.36326365,149.165234,94147,10,19,101,0.203000009,0.222363606,32.5,-1.011970967,333,-2.5,-3.5,-961.5,-270.5,6,-6,-35.3632621,149.1652374,0,1,1,1,1
16:33:44,RTL,LANDING,1500,0.027373046,-0.000180226,-0.460851595,0.750268638,0.003483458,0.005326696,-35.3632639,149.1652331,92892.5,17,33.5,101,0.021500001,0.380192235,33,-1.0122554,333,0,70,-1006.5,757,5.5,8.5,-35.3632621,149.1652374,0,1,1,1,1
16:33:45,RTL,LANDING,1500,0.025892265,-0.000195034,-0.460949108,0.126132011,0.004679983,-0.003995962,-35.36326385,149.1652333,92104,17.5,34.5,98,0.029500002,0.392244622,32.5,-0.983698279,333,0.5,10.5,-1022,132.5,6.5,0,-35.3632621,149.1652374,0,1,1,1,1
16:33:46,RTL,LANDING,1500,-0.002710324,0.002597145,-0.461588174,-0.705629736,0.004509604,-0.005773136,-35.36326345,149.165234,90851,16.5,33,104.5,0.176000006,0.374112234,33.5,-1.050591797,333,1,7,-965,-697,6,-2,-35.3632621,149.1652374,0,1,1,1,1
16:33:47,RTL,LANDING,1500,-0.000631347,0.003292887,-0.460911393,-0.618200302,-0.000976665,0.002300516,-35.363263,149.165235,90068.5,12.5,25.5,96,0.222500011,0.292270586,31,-0.963204116,333,2.5,-38,-988.5,-612,1,6,-35.3632621,149.1652374,0,1,1,1,1
16:33:48,RTL,LANDING,1500,-0.018165954,0.003174385,-0.460512996,0.028005868,-0.001086625,0.007828932,-35.36326225,149.1652368,88826,6,15,104.5,0.243000008,0.166327462,33,-1.04643935,333,2.5,38.5,-967.5,36.5,1,11,-35.3632621,149.1652374,0,1,1,1,1
16:33:49,RTL,LANDING,1500,-0.018676801,0.002326368,-0.460983321,-0.285623327,0.002314589,-0.00489023,-35.3632619,149.165238,88032.5,1.5,5,102.5,0.209500007,0.072576451,33,-1.033173293,333,1.5,-22.5,-967,-279,4,-1,-35.3632621,149.1652374,0,1,1,1,1
16:33:50,RTL,LANDING,1500,-0.02251439,0.000327799,-0.459689185,0.388532221,0.000865216,0.009977177,-35.3632614,149.1652393,86794,-3.5,-5.5,103.5,0.080000002,0.070221148,33,-1.041541517,333,0,58,-980,396,2.5,13,-35.3632621,149.1652374,0,1,1,1,1
16:33:51,RTL,LANDING,1500,-0.022665141,-0.002161224,-0.461214572,-0.448358983,-0.001852599,0.003624196,-35.3632615,149.1652393,86006,-5.5,-10,101.5,0.072500005,0.124364331,32,-1.019424081,333,0,-0.5,-961.5,-441.5,1,7,-35.3632621,149.1652374,0,1,1,1,1
16:33:52,RTL,LANDING,1500,0.014175653,-0.005189371,-0.460766554,1.328642786,0.001726332,0.002135794,-35.36326205,149.1652385,84750.5,-3.5,-9.5,103,0.138500005,0.106585406,33,-1.035071552,333,-1.5,75.5,-1031.5,1335.5,4,5,-35.3632621,149.1652374,0,1,1,1,1
16:33:53,RTL,LANDING,1500,0.00102295,-0.003483917,-0.460888356,0.390102029,0.005505421,0.013580698,-35.36326225,149.165238,83959,-1,-6,103.5,0.075500004,0.065066721,33,-1.042139649,333,-1.5,41,-970,397.5,8,17,-35.3632621,149.1652374,0,1,1,1,1
16:33:54,RTL,LANDING,1500,0.014313538,-0.000866672,-0.461681366,1.342712879,-0.003137549,-0.011035185,-35.3632623,149.1652377,82697,1.5,-0.5,100,0.0185,0.020843728,33,-1.004671544,333,0.5,67,-1052,1349,-0.5,-7,-35.3632621,149.1652374,0,1,1,1,1
16:33:55,RTL,LANDING,1500,-0.002763755,-0.001635746,-0.460726812,0.026527345,-0.00543017,0.007018292,-35.36326235,149.1652375,81901.5,0.5,-0.5,104.5,0.065500002,0.017203329,34,-1.047907174,333,0,20.5,-1000,33.5,-3,10.5,-35.3632621,149.1652374,0,1,1,1,1
16:33:56,RTL,LANDING,1500,0.021460141,-0.002691695,-0.460815743,1.324931562,0.006880778,0.006133709,-35.36326255,149.1652368,80651.5,2.5,3.5,97.5,0.073500004,0.045276349,32.5,-0.980838627,333,-1,59.5,-1042,1331,9,9.5,-35.3632621,149.1652374,0,1,1,1,1
16:33:57,RTL,LANDING,1500,0.005086858,-0.001627713,-0.460928634,-0.00596559,0.000253708,0.001205291,-35.36326265,149.1652366,79855,3.5,5,102,0.058500003,0.066583581,33,-1.025931865,333,-0.5,10,-959.5,1,3,5,-35.3632621,149.1652374,0,1,1,1,1
16:33:58,RTL,LANDING,1500,0.011509855,-0.001533296,-0.460647956,0.87073642,0.005886211,0.00157647,-35.3632628,149.1652362,78603,5.5,9.5,100.5,0.029500001,0.113793112,33.5,-1.009529829,333,0,69.5,-1002,878.5,8,5.5,-35.3632621,149.1652374,0,1,1,1,1
16:33:59,RTL,LANDING,1500,0.008290156,-0.000193907,-0.460689098,0.021592081,0.001221065,0.001269234,-35.36326275,149.1652362,77810.5,6,9.5,96.5,0.073000005,0.117466372,32,-0.966801763,333,2,7,-1053,28,3.5,5,-35.3632621,149.1652374,0,1,1,1,1
16:34:00,RTL,LANDING,1500,0.005139076,0.004687866,-0.459907457,1.354528606,0.000163009,0.002087956,-35.3632621,149.1652376,76561.5,5,7,100.5,0.291500017,0.089114197,33,-1.010522902,333,5.5,45.5,-1043.5,1360.5,2,5,-35.3632621,149.1652374,0,1,1,1,1
16:34:01,RTL,LANDING,1500,-0.023577971,0.003859016,-0.460649714,0.249620587,-0.003437408,0.001699935,-35.36326145,149.1652389,75777,-1,-2.5,101.5,0.242500015,0.060841108,32.5,-1.020054162,333,3,19.5,-968,256.5,-0.5,5.5,-35.3632621,149.1652374,0,1,1,1,1
16:34:02,RTL,LANDING,1500,-0.00808552,-0.000429247,-0.460665703,1.089370251,-0.000204394,0.011365753,-35.363261,149.1652404,74518,-9,-16,102.5,0.068500003,0.193611458,33.5,-1.026252925,333,0.5,22.5,-1022.5,1094,2,14.5,-35.3632621,149.1652374,0,1,1,1,1
16:34:03,RTL,LANDING,1500,-0.013226024,-0.003718393,-0.460996777,0.373592988,-0.008589801,0.002067053,-35.3632612,149.1652403,73730.5,-11,-20.5,96,0.075500002,0.236812346,31.5,-0.965648472,333,-1,25.5,-1021.5,380,-6,5.5,-35.3632621,149.1652374,0,1,1,1,1
16:34:04,RTL,LANDING,1500,0.016306925,-0.005651973,-0.460173175,0.599757776,0.002243518,0.001865764,-35.36326175,149.1652394,72478.5,-7.5,-18.5,100.5,0.114500005,0.209294356,32.5,-1.005746454,333,-1,-10,-984.5,603.5,4,6,-35.3632621,149.1652374,0,1,1,1,1
16:34:05,RTL,LANDING,1500,0.008315013,-0.00409633,-0.460273147,0.479162723,0.00128894,0.003796224,-35.363262,149.1652388,71684.5,-4.5,-14,99.5,0.122500006,0.15000413,32,-1.000852287,333,-2,21,-950.5,484.5,3,7.5,-35.3632621,149.1652374,0,1,1,1,1
16:34:06,RTL,LANDING,1500,0.026063261,-0.00438036,-0.461358503,0.422255248,-0.002919606,-0.007333491,-35.36326235,149.1652377,70422.5,-2,-9,100,0.158000007,0.096011534,33.5,-1.002634287,333,-1,-20,-996,425.5,-0.5,-3,-35.3632621,149.1652374,0,1,1,1,1
16:34:07,RTL,LANDING,1500,0.009008231,-0.002297279,-0.460110918,0.028339282,0.004615507,0.003418021,-35.36326255,149.1652371,69626,2,-2,97.5,0.074000003,0.055917654,33,-0.983359307,333,-0.5,0.5,-1042.5,34,6.5,7,-35.3632621,149.1652374,0,1,1,1,1
16:34:08,RTL,LANDING,1500,0.022502526,-0.000899437,-0.460283339,1.331301987,-0.000873838,-0.000655991,-35.3632625,149.1652371,68371,3,2,100,0.008,0.045702826,33.5,-1.002976507,333,0,38.5,-988.5,1336,1.5,3,-35.3632621,149.1652374,0,1,1,1,1
16:34:09,RTL,LANDING,1500,-0.000432231,-0.002638092,-0.46054402,0.208071887,-0.004369671,-0.000223994,-35.36326255,149.1652371,67580.5,2.5,2.5,100,0.068500001,0.042501418,34.5,-1.001687467,333,-1,22,-1051,214.5,-1.5,3,-35.3632621,149.1652374,0,1,1,1,1
16:34:10,RTL,LANDING,1500,0.038649501,-0.005266967,-0.460817456,1.418866158,0.002243885,0.000886465,-35.3632629,149.1652362,66337.5,3.5,5,99,0.207500011,0.069834402,33.5,-0.991975933,333,-2,54,-1012.5,1424.5,4,4.5,-35.3632621,149.1652374,0,1,1,1,1
16:34:11,RTL,LANDING,1500,0.020738526,-0.005170332,-0.460553706,0.171289623,-7.98E-05,-0.000451484,-35.3632633,149.1652353,65553,8,12.5,96,0.161500007,0.153875258,31.5,-0.964065641,333,-1.5,25,-989,178,2,3.5,-35.3632621,149.1652374,0,1,1,1,1
16:34:12,RTL,LANDING,1500,0.042219605,-0.001810117,-0.459685311,1.280996203,0.014418375,0.009918151,-35.36326365,149.1652344,64305.5,13.5,21.5,98,0.046500003,0.261184692,32.5,-0.98339799,333,1,44.5,-1009,1287,16,13.5,-35.3632621,149.1652374,0,1,1,1,1
16:34:13,RTL,LANDING,1500,0.016669531,0.001528745,-0.459642321,0.752456099,0.008401472,0.006847963,-35.36326335,149.165235,63521,14.5,23,98,0.146000005,0.276374087,32,-0.98554039,333,1,49.5,-980,759,10,10,-35.3632621,149.1652374,0,1,1,1,1
16:34:14,RTL,LANDING,1500,0.017775319,0.001835179,-0.459783018,0.707236201,0.002198287,0.000855302,-35.36326265,149.1652365,62268,8.5,14,99.5,0.179500006,0.176041663,33,-0.999963224,333,2.5,-12.5,-1001.5,711.5,4,4,-35.3632621,149.1652374,0,1,1,1,1
16:34:15,RTL,LANDING,1500,-0.000405171,9.59E-05,-0.459862843,0.593500763,-0.003823391,0.008944425,-35.36326235,149.1652373,61478.5,5,8,99,0.109500006,0.103503112,32,-0.997513741,333,0.5,23,-965.5,600,-1.5,12,-35.3632621,149.1652374,0,1,1,1,1
16:34:16,RTL,LANDING,1500,0.017599414,-0.002282154,-0.460511491,0.491778746,-0.000733678,0.007119407,-35.3632623,149.1652377,60233.5,0,-1,99.5,0.048,0.013326206,32,-0.99816823,333,1,-22,-966,496,1,11,-35.3632621,149.1652374,0,1,1,1,1
16:34:17,RTL,LANDING,1500,0.003166875,0.001274882,-0.459863618,0.614137828,0.002533193,-0.003459814,-35.3632621,149.1652381,59449.5,0.5,-0.5,97.5,0.158000007,0.018677622,32,-0.980168283,333,2.5,17,-1028,620,4,0.5,-35.3632621,149.1652374,0,1,1,1,1
16:34:18,RTL,LANDING,1500,-0.019069753,0.003068765,-0.459610865,-0.848065764,-0.001899186,0.004037071,-35.36326135,149.1652395,58198,-4.5,-10.5,102,0.194500007,0.120659377,33.5,-1.027148366,333,2,-74,-1004.5,-843,0.5,7.5,-35.3632621,149.1652374,0,1,1,1,1
16:34:19,RTL,LANDING,1500,-0.027168907,0.001528527,-0.45956713,-0.013689339,-0.000646719,-0.000540614,-35.36326095,149.1652403,57404.5,-9,-17,95.5,0.126000002,0.194372758,32,-0.963906705,333,0.5,-4.5,-1056,-7.5,2,3.5,-35.3632621,149.1652374,0,1,1,1,1
16:34:20,RTL,LANDING,1500,-0.005744868,-0.00032204,-0.459820986,0.534948602,-0.001999553,0.00194897,-35.3632608,149.1652408,56153.5,-13,-25.5,99.5,0.061500002,0.29237476,33.5,-0.998275459,333,0,-10.5,-1024,539,0.5,5.5,-35.3632621,149.1652374,0,1,1,1,1
16:34:21,RTL,LANDING,1500,-0.020544922,0.000318642,-0.460413188,0.295479536,-0.002195732,-0.000805363,-35.3632607,149.1652411,55368.5,-13.5,-26.5,97.5,0.059500003,0.302824512,32,-0.97859633,333,-0.5,16,-1037,301,0,3.5,-35.3632621,149.1652374,0,1,1,1,1
16:34:22,RTL,LANDING,1500,-0.011441923,-0.002878846,-0.458663687,0.04761257,-0.001898675,-0.003440375,-35.36326075,149.1652412,54118,-16,-30.5,99.5,0.134000003,0.350729108,32.5,-0.998739749,333,-3,-25.5,-1021.5,50.5,0.5,0.5,-35.3632621,149.1652374,0,1,1,1,1
16:34:23,RTL,LANDING,1500,-0.002896279,-0.005175573,-0.460746959,0.183062635,-0.001551179,0.006609851,-35.36326125,149.1652402,53330.5,-14,-27,103.5,0.264500014,0.311743647,33.5,-1.038810492,333,-4,12.5,-969.5,188.5,1,10,-35.3632621,149.1652374,0,1,1,1,1
16:34:24,RTL,LANDING,1500,0.027673145,-0.0095694,-0.460080817,-0.168573096,-0.007728214,-0.002367473,-35.3632624,149.1652378,52071.5,-7,-14.5,100.5,0.33600001,0.168215759,33,-1.010934412,333,-4,-44,-993.5,-165,-5,1.5,-35.3632621,149.1652374,0,1,1,1,1
16:34:25,RTL,LANDING,1500,0.03073072,-0.007406686,-0.460337594,0.462627694,0.005305815,-0.007390249,-35.36326305,149.1652364,51277.5,1.5,-1.5,99.5,0.26250001,0.088256191,32.5,-1.003740013,333,-1.5,17.5,-989,467.5,7,-3.5,-35.3632621,149.1652374,0,1,1,1,1
16:34:26,RTL,LANDING,1500,0.033984042,-0.002884183,-0.459813729,-0.421433464,0.002872242,-0.006733533,-35.3632635,149.1652349,50023,9.5,12,101.5,0.064000003,0.157685488,34,-1.018939614,333,-0.5,-59,-1005.5,-417,4.5,-3,-35.3632621,149.1652374,0,1,1,1,1
16:34:27,RTL,LANDING,1500,0.015943188,-0.001026866,-0.459728569,-0.232564537,-0.001086563,-0.001903927,-35.3632634,149.1652349,49229.5,11.5,17.5,96.5,0.037500001,0.212228753,32,-0.970650434,333,0,-6.5,-996,-227,1,2.5,-35.3632621,149.1652374,0,1,1,1,1
16:34:28,RTL,LANDING,1500,0.023656918,0.001239914,-0.45897539,0.628320277,-0.002415129,-0.008753479,-35.36326295,149.1652355,47995,10,17,99.5,0.146000005,0.204359241,33,-0.998660713,333,0.5,-8.5,-1030,632,0,-4.5,-35.3632621,149.1652374,0,1,1,1,1
16:34:29,RTL,LANDING,1500,0.000216731,0.00275105,-0.459031299,0.417232275,0.004150304,-0.005088014,-35.36326255,149.1652365,47218,7,12.5,98,0.221500017,0.152102903,31,-0.984744132,333,3.5,0.5,-970,422.5,6,-0.5,-35.3632621,149.1652374,0,1,1,1,1
16:34:30,RTL,LANDING,1500,0.003650341,0.003833757,-0.458912864,1.170694292,-0.000234168,-0.002931214,-35.36326165,149.1652386,45955,1,1.5,102.5,0.271000013,0.020861509,33,-1.031562299,333,3,19.5,-975.5,1175,1.5,1,-35.3632621,149.1652374,0,1,1,1,1
16:34:31,RTL,LANDING,1500,-0.025472832,-0.000593039,-0.460257769,0.27111508,-0.01131374,0.009726062,-35.36326135,149.1652396,45163,-4,-8,103,0.127500004,0.095163027,34.5,-1.032144904,333,1.5,17,-1068.5,277,-9,13,-35.3632621,149.1652374,0,1,1,1,1
16:34:32,RTL,LANDING,1500,0.003262483,-0.003392766,-0.459217921,0.422232684,-0.002918001,0.003910359,-35.3632615,149.1652398,43938,-8,-17.5,104,0.052500002,0.194347605,32.5,-1.048435688,333,0,-12,-964,425,-1,7.5,-35.3632621,149.1652374,0,1,1,1,1
16:34:33,RTL,LANDING,1500,-0.001660317,-0.004615112,-0.459179327,0.58000721,0.001157183,0.003074968,-35.3632617,149.1652396,43137,-6,-16,105.5,0.053500002,0.176239021,33.5,-1.056463242,333,-0.5,28.5,-1029,585.5,3,6.5,-35.3632621,149.1652374,0,1,1,1,1
16:34:34,RTL,LANDING,1500,0.008391473,-0.005153285,-0.459792435,0.336208206,-0.003536923,-0.00135152,-35.36326195,149.1652391,41891.5,-4,-14.5,104,0.098500002,0.156790331,32.5,-1.045116425,333,-1,-24.5,-946.5,339,-1.5,3,-35.3632621,149.1652374,0,1,1,1,1
16:34:35,RTL,LANDING,1500,0.004852115,-0.005704938,-0.459900513,0.23493224,0.002511804,0.000182403,-35.36326225,149.1652383,41097.5,-2.5,-11,102.5,0.184500009,0.1194552,32.5,-1.032818198,333,-3,17,-961.5,240,4,3.5,-35.3632621,149.1652374,0,1,1,1,1
16:34:36,RTL,LANDING,1500,0.034721127,-0.005339793,-0.459184647,0.386991248,0.004331964,-0.000297896,-35.3632629,149.1652367,39852.5,2.5,-1,103.5,0.199500009,0.034064669,33,-1.041555226,333,-1,-17.5,-980.5,390,6,3.5,-35.3632621,149.1652374,0,1,1,1,1
16:34:37,RTL,LANDING,1500,0.023621914,-0.004604063,-0.459915161,0.145828278,-0.001565839,-0.010458087,-35.3632632,149.1652358,39057.5,6,6,100,0.142500006,0.094502797,32,-1.005135298,333,-0.5,10,-996.5,150.5,0.5,-6.5,-35.3632621,149.1652374,0,1,1,1,1
16:34:38,RTL,LANDING,1500,0.039597509,-0.001761335,-0.458615348,0.641945332,0.004099341,-0.002213301,-35.3632634,149.165235,37804,10.5,15,98.5,0.034000001,0.18915429,32,-0.991277844,333,0,-9,-989,645,5.5,2,-35.3632621,149.1652374,0,1,1,1,1
16:34:39,RTL,LANDING,1500,0.014223447,-0.000245031,-0.459580109,0.212202087,0.005670393,0.000737773,-35.3632632,149.1652353,37004,11,17.5,105.5,0.055500003,0.212218389,34.5,-1.058039844,333,1,12.5,-1012,218,7.5,4,-35.3632621,149.1652374,0,1,1,1,1
16:34:40,RTL,LANDING,1500,0.021614039,0.001125116,-0.459348261,1.004682839,-0.001832846,-0.011980973,-35.36326285,149.1652361,35748,9.5,16,99.5,0.146000013,0.190061472,32.5,-1.001013458,333,1,16.5,-995,1009.5,0,-7.5,-35.3632621,149.1652374,0,1,1,1,1
16:34:41,RTL,LANDING,1500,-0.005010865,0.000941669,-0.458975792,0.236715585,-0.003692012,-0.008164271,-35.3632625,149.1652368,34952.5,6.5,11,100,0.163000003,0.135393467,33,-1.004202485,333,1,15.5,-1035.5,243,-1.5,-4,-35.3632621,149.1652374,0,1,1,1,1
16:34:42,RTL,LANDING,1500,0.010118318,0.00089265,-0.459404603,0.956398189,-0.001376418,-0.003455819,-35.363262,149.165238,33704.5,1,1,99.5,0.109000005,0.022132927,33,-1.000326186,333,2,9,-1043,960.5,0.5,0.5,-35.3632621,149.1652374,0,1,1,1,1
16:34:43,RTL,LANDING,1500,-0.000690911,-0.000787714,-0.459444493,0.545346767,-0.00032404,-0.000546353,-35.36326195,149.1652383,32921.5,-1,-1.5,101.5,0.064000003,0.024562723,32.5,-1.017467797,333,-0.5,27,-972,550.5,1.5,3,-35.3632621,149.1652374,0,1,1,1,1
16:34:44,RTL,LANDING,1500,0.018746368,-0.003580063,-0.459024727,0.16713798,-0.001739023,-0.003641213,-35.36326215,149.1652378,31657,-1.5,-4,100,0.108000007,0.050473483,33,-1.006738216,333,-1,-27,-1037.5,171,0,0.5,-35.3632621,149.1652374,0,1,1,1,1
16:34:45,RTL,LANDING,1500,0.006350451,-0.003671153,-0.459583014,-0.037565498,-0.00296807,-0.000270532,-35.36326245,149.1652373,30865.5,0,0,102.5,0.126500007,0.01847479,33.5,-1.028065324,333,-1.5,3.5,-955.5,-32,-0.5,4,-35.3632621,149.1652374,0,1,1,1,1
16:34:46,RTL,LANDING,1500,0.020759675,-0.002991469,-0.458884776,-0.309448827,-0.003079446,-0.001521671,-35.3632629,149.1652362,29619.5,3.5,5.5,100,0.088500004,0.071620971,32.5,-1.003535986,333,0,-46.5,-970,-305.5,-0.5,2,-35.3632621,149.1652374,0,1,1,1,1
16:34:47,RTL,LANDING,1500,0.017289779,-0.001846583,-0.457851663,0.17850174,0.00129696,-0.000227007,-35.36326295,149.165236,28820,6,9,98,0.065000001,0.117235161,33.5,-0.987920612,333,0,2.5,-1067,184.5,3,3.5,-35.3632621,149.1652374,0,1,1,1,1
16:34:48,RTL,LANDING,1500,0.003009077,0.001690351,-0.458157331,-0.624434173,0.000114093,-0.006282865,-35.3632626,149.1652367,27555,6,7.5,95.5,0.217500016,0.104901757,33,-0.957974941,333,4.5,-62,-1038.5,-619.5,2,-2.5,-35.3632621,149.1652374,0,1,1,1,1
16:34:49,RTL,LANDING,1500,-0.015204686,0.004621122,-0.457694799,0.101310432,0.013158531,0.001923717,-35.3632619,149.1652382,26775,3,2,98,0.384000018,0.052844722,32,-0.981755465,333,4.5,-10,-938,107,15,5.5,-35.3632621,149.1652374,0,1,1,1,1
16:34:50,RTL,LANDING,1500,-0.060989872,0.00719301,-0.458858877,-1.038082063,-0.005019847,-0.022709509,-35.3632604,149.1652418,25527,-7.5,-20.5,97.5,0.552000046,0.225125059,32.5,-0.97692731,333,8.5,-81.5,-973,-1034,-3,-18.5,-35.3632621,149.1652374,0,1,1,1,1
16:34:51,RTL,LANDING,1500,-0.058554349,0.004498826,-0.459024146,0.273112953,-0.005040208,0.010801359,-35.3632595,149.1652443,24743,-18,-39,98.5,0.404500023,0.435223237,32.5,-0.988387942,333,5,-16,-994.5,277.5,-3,14,-35.3632621,149.1652374,0,1,1,1,1
16:34:52,RTL,LANDING,1500,-0.080555964,-0.004134705,-0.458539978,-1.360595047,-0.008993567,-0.001296515,-35.36325905,149.1652462,23512.5,-32,-64.5,101,0.075500002,0.72834301,32.5,-1.013061434,333,-0.5,-54.5,-1009,-1356.5,-6.5,2,-35.3632621,149.1652374,0,1,1,1,1
16:34:53,RTL,LANDING,1500,-0.047713274,-0.00747028,-0.458590984,-0.819064274,-0.001727991,-0.001044266,-35.36325945,149.1652456,22728,-32,-68,100.5,0.168000009,0.755771428,31.5,-1.009140372,333,-2.5,-42.5,-950,-816,0.5,2,-35.3632621,149.1652374,0,1,1,1,1
16:34:54,RTL,LANDING,1500,-0.036690138,-0.007751378,-0.457900494,0.125736337,0.008433963,0.003258636,-35.3632603,149.1652437,21478.5,-25.5,-60,103,0.248000011,0.658049762,33,-1.035244703,333,-4,48,-1031,130.5,10,6.5,-35.3632621,149.1652374,0,1,1,1,1
16:34:55,RTL,LANDING,1500,-0.019391762,-0.006247683,-0.458825201,-0.205266058,-0.004313143,0.005583128,-35.3632607,149.1652424,20667.5,-21.5,-52,103.5,0.259500019,0.568103492,33.5,-1.040154994,333,-3,0,-983,-202,-2.5,9,-35.3632621,149.1652374,0,1,1,1,1
16:34:56,RTL,LANDING,1500,-0.017575222,-0.004959476,-0.458170563,0.317674607,0.000333641,0.007266974,-35.36326135,149.1652403,19412,-13.5,-34,100,0.264000013,0.371838212,33.5,-1.006041348,333,-5,58,-989,322,1.5,10.5,-35.3632621,149.1652374,0,1,1,1,1
16:34:57,RTL,LANDING,1500,-0.009101964,-0.004816325,-0.458054945,-0.363739103,-0.001622641,0.003682105,-35.3632617,149.1652391,18616.5,-10,-25,99,0.215000011,0.272432536,33,-0.993374348,333,-3,10.5,-994.5,-360.5,0,7,-35.3632621,149.1652374,0,1,1,1,1
16:34:58,RTL,LANDING,1500,0.016424622,-0.002871003,-0.457446158,1.608901083,-0.000562953,0.002909847,-35.3632622,149.1652378,17355.5,-2.5,-10.5,100,0.082500005,0.113597702,33,-1.003053337,333,-0.5,72,-983,1611.5,1,6,-35.3632621,149.1652374,0,1,1,1,1
16:34:59,RTL,LANDING,1500,-0.000220125,-0.001600073,-0.457907006,0.100529611,0.002226291,-0.002691519,-35.3632622,149.1652378,16560,-1,-8,97,0.041500002,0.084378824,32.5,-0.973289013,333,0.5,2.5,-1025.5,103,3.5,1,-35.3632621,149.1652374,0,1,1,1,1
16:35:00,RTL,LANDING,1500,0.007442412,0.001247925,-0.456460729,1.188479066,0.000797635,0.001793749,-35.36326185,149.1652383,15317.5,-1,-6.5,98,0.119500004,0.071341805,32.5,-0.988236129,333,2,26,-1003.5,1189.5,2.5,5,-35.3632621,149.1652374,0,1,1,1,1
16:35:01,RTL,LANDING,1500,-0.013473719,0.000520722,-0.4576177,0.537372643,0.00155585,0.003042608,-35.36326165,149.1652388,14534,-3.5,-9.5,97.5,0.062000003,0.105829481,32.5,-0.979627103,333,1,28,-992,540,3,6.5,-35.3632621,149.1652374,0,1,1,1,1
16:35:02,RTL,LANDING,1500,0.011171989,-0.001378524,-0.457679212,0.899831176,0.001558751,-0.001573256,-35.3632616,149.165239,13297,-6.5,-13.5,100,0.014,0.158276089,32,-1.008794278,333,0,-1,-936.5,899.5,2.5,1.5,-35.3632621,149.1652374,0,1,1,1,1
16:35:03,RTL,LANDING,1500,-0.0073043,-0.001705888,-0.458170533,0.601979986,0.003329577,0.002919301,-35.3632616,149.1652391,12504,-5.5,-12,98,0.012000001,0.140954435,33,-0.982637435,333,0,37,-1082.5,604,4.5,6,-35.3632621,149.1652374,0,1,1,1,1
16:35:04,RTL,LANDING,1500,-0.015956916,-0.004122192,-0.458535999,-0.931331545,-0.005889346,-0.001506857,-35.36326175,149.165239,11431.5,-6,-15,58.5,0.087500006,0.167236321,35.5,-0.589606434,333,-1.5,-47,-1040.5,-930.5,-3.5,2,-35.3632621,149.1652374,0,1,1,1,1
16:35:05,RTL,LANDING,1500,-0.010609231,-0.004932213,-0.457902908,-0.640338719,-0.003349727,0.004233338,-35.36326205,149.1652385,11153.5,-4,-11.5,29.5,0.127000004,0.130458575,35.5,-0.302724078,333,-0.5,-17,-1019.5,-638,-1,7.5,-35.3632621,149.1652374,0,1,1,1,1
16:35:06,RTL,LANDING,1500,-0.002997173,-0.003766337,-0.457212508,-0.732903242,-0.001726754,-0.002399472,-35.36326245,149.1652375,10855.5,-0.5,-5,31.5,0.092500001,0.053236809,34.5,-0.317583591,333,-1,-20,-984,-731,0,0.5,-35.3632621,149.1652374,0,1,1,1,1
16:35:07,RTL,LANDING,1500,-0.004334149,-0.002491164,-0.457207322,-0.214260217,0.001084824,0.002234413,-35.3632625,149.1652373,10610,1.5,-0.5,35,0.034000001,0.025667801,35,-0.354977414,333,-0.5,17.5,-981.5,-211,2,5.5,-35.3632621,149.1652374,0,1,1,1,1
16:35:08,RTL,LANDING,1500,-0.006521331,-0.001421528,-0.457809106,-0.655499235,-0.002787929,0.002529933,-35.3632625,149.1652371,10197.5,2,0.5,36,0.044000002,0.029101286,34.5,-0.362359017,333,-0.5,-18.5,-998,-653,-1,5.5,-35.3632621,149.1652374,0,1,1,1,1
16:35:09,RTL,LANDING,1500,-0.001933143,-0.001351094,-0.457718074,-0.142104425,0.003538339,-0.003306649,-35.36326255,149.1652368,9928,2.5,3,35,0.048500001,0.046338137,34.5,-0.35804303,333,-1,17,-1007,-139.5,5,0.5,-35.3632621,149.1652374,0,1,1,1,1
16:35:10,RTL,LANDING,1500,-0.000488051,-0.000470814,-0.457329869,-0.894085854,0.0002811,0.002499276,-35.3632626,149.1652365,9509.5,2.5,4,35.5,0.019500001,0.055167256,35,-0.358336523,333,0,-44,-988,-892,1.5,5.5,-35.3632621,149.1652374,0,1,1,1,1
16:35:11,RTL,LANDING,1500,-0.011186732,0.000921264,-0.456900388,-0.667152226,0.002658837,-0.003738138,-35.3632625,149.1652368,9246,4,6,35.5,0.112500008,0.078359675,34.5,-0.358705744,333,0,-10.5,-1007,-664,4,-0.5,-35.3632621,149.1652374,0,1,1,1,1
16:35:12,RTL,LANDING,1500,-0.022823895,0.002340566,-0.456900299,-0.84564206,-0.001726561,-0.005182904,-35.3632619,149.165238,8831.5,0.5,0.5,35,0.202000007,0.011812184,34.5,-0.35522975,333,2,-39,-999,-844,0,-1.5,-35.3632621,149.1652374,0,1,1,1,1
16:35:13,RTL,LANDING,1500,-0.020853869,0.00222308,-0.457363486,0.014566526,0.000895015,0.000998127,-35.3632615,149.1652388,8690,-2.5,-4.5,10.5,0.151000004,0.062213507,37.5,-0.105789907,333,1,16.5,-1035,16.5,1.5,4,-35.3632621,149.1652374,0,1,1,1,1
16:35:14,RTL,LANDING,1500,-0.012626591,-0.000459078,-0.457866371,0.440823674,0.001003304,0.002640903,-35.3632612,149.1652397,8732.5,-8,-14,-4,0.017,0.169728644,37,0.045958057,333,0,25,-1009.5,442,2.5,5.5,-35.3632621,149.1652374,0,1,1,1,1
16:35:15,RTL,LANDING,1500,-0.006776763,-0.001959768,-0.45766594,-0.180621852,-0.002005282,-0.000988481,-35.3632614,149.1652395,8763.333333,-8.666666667,-15.66666667,-0.666666667,0.093333337,0.187648167,37,0.006035568,333,-1.333333333,-19.66666667,-987.3333333,-180.3333333,-0.333333333,2,-35.3632621,149.1652374,0,1,1,1,1
16:35:16,RTL,LANDING,1500,0.007962432,-0.004234512,-0.457904413,0.048569933,0.002071859,0.001386287,-35.36326195,149.1652383,8775.5,-6.5,-10.5,0,0.208500005,0.131426726,37,-0.00683212,333,-3,-8.5,-999,49,3,4.5,-35.3632621,149.1652374,0,1,1,1,1
