time_stamp,roll,pitch,yaw,rollspeed,pitchspeed,yawspeed,MODE,PHASE,lat,lon,relative_alt,nav_roll,nav_pitch,nav_bearing,target_bearing,wp_dist,alt_error,airspeed,groundspeed,throttle,climb,heading,GPS_status,Gyro_status,Accel_status,Baro_status,PreArm_error,chan1_raw,chan2_raw,chan3_raw,chan4_raw,satellites_visible
14:13:23,-0.000259624,0.001782438,0.025839742,0.000146268,0.000420406,0.002377981,STABILIZE,INITIALISATION,-35.3632621,149.1652374,0,-0.000402564,1.85E-05,1,0,0,0.017248746,0,0.022523608,0,-0.001568896,1,1,1,1,1,0,1500,1500,1000,1500,10
14:13:24,-0.000341347,0.001609463,0.024857657,8.82E-05,0.000265195,0.00226446,STABILIZE,INITIALISATION,-35.3632622,149.1652375,2.333333333,-0.000402563,1.85E-05,1,0,0,0.007781189,0,0.029924893,0,0.007671443,1,1,1,1,1,0,1500,1500,1000,1500,10
14:13:26,-0.000822533,0.001164471,0.023907497,0.000137148,0.000257081,0.002124696,STABILIZE,INITIALISATION,-35.3632622,149.1652375,15,-0.000402563,1.85E-05,1,0,0,-0.003481779,0,0.024710658,0,0.014808153,1,1,1,1,1,0,1500,1500,1000,1500,10
14:13:30,-0.001187142,0.000972805,0.022404894,0.000152109,0.000255362,0.001830519,STABILIZE,INITIALISATION,-35.3632621,149.1652374,22,-0.000402565,1.85E-05,1,0,0,-0.013189,0,0.018541662,0,0.018795684,1,1,1,1,1,0,1500,1500,1000,1500,10
14:13:34,-0.001080918,0.00095764,0.021349514,0.000157371,0.000293001,0.001634548,STABILIZE,INITIALISATION,-35.3632622,149.1652374,42.5,-0.000402566,1.85E-05,1,0,0,-0.026355947,0,0.020018197,0,0.027145498,1,1,1,1,1,0,1500,1500,1000,1500,10
14:13:39,-0.000825324,0.000782916,0.0200174,0.000149722,0.000274175,0.001552222,AUTO,TAKEOFF,-35.3632622,149.1652375,6,-0.000402567,1.85E-05,1,129,0,0,0,0.019373564,0,0.010245575,1,1,1,1,1,0,1500,1500,1000,1500,10
14:13:40,-0.000725906,0.000861403,0.019763111,0.000136115,0.000217397,0.001508533,AUTO,TAKEOFF,-35.3632622,149.1652375,5.25,-0.000402567,1.85E-05,1,130.75,0,0,0,0.011381442,0,0.006319251,1,1,1,1,1,0,1500,1500,1000,1500,10
14:13:41,-0.000542811,0.001060946,0.019490043,0.000225491,0.000236935,0.001313481,AUTO,TAKEOFF,-35.3632622,149.1652374,3,-0.000402567,1.85E-05,1,131,0,0,0,0.001981457,0,0.001538315,1,1,1,1,1,0,1500,1500,1000,1500,10
14:13:42,-0.000319543,0.001327038,0.019193623,0.000182601,0.00024539,0.001481452,AUTO,TAKEOFF,-35.3632622,149.1652374,5.5,0.043406373,-0.037421362,1,128.75,0,0.034947038,0,0.005157681,8.5,0.018634708,1,1,1,1,1,0,1500,1500,1000,1500,10
14:13:43,0.132838814,0.069463401,0.072680105,0.032396315,0.02049178,-0.126546443,AUTO,TAKEOFF,-35.36326105,149.1652353,127,7.20671922,4.435398463,1.5,123.5,0,0.295215346,0.408000016,0.382125147,44,0.401590805,4,1,1,1,1,0,1500,1500,1000,1500,10
14:13:44,0.287104197,0.175910067,0.03737269,0.061916282,0.027854072,-0.094557183,AUTO,TAKEOFF,-35.36325858,149.1652306,888,13.04121661,8.062731504,2,122.75,0,0.294106135,0.371000022,0.255374585,75.75,1.095837444,1.75,1,1,1,1,0,1500,1500,1000,1500,10
14:13:45,0.334031701,0.201470226,-0.000685798,0.013628952,-0.028260188,0.011597183,AUTO,TAKEOFF,-35.3632582,149.1652311,1969,8.908709288,8.21826601,2,127.5,0,-0.002739487,0.215000015,0.298395112,89.5,0.990018874,179.5,1,1,1,1,0,1500,1500,1000,1500,10
14:13:46,0.313141629,0.152725063,-0.000711216,-0.05628067,-0.054185071,0.061193633,AUTO,TAKEOFF,-35.36325825,149.1652358,2935.75,4.163093507,9.229082108,0.75,159.5,0,-0.002762604,0.523250028,0.527531356,89,0.924760923,179.5,1,1,1,1,0,1500,1500,1000,1500,10
14:13:47,0.249805629,0.123548977,0.029948089,-0.090051986,0.009691849,0.031759023,AUTO,TAKEOFF,-35.36325645,149.1652399,3945.5,5.978459835,8.035399199,0,196.5,0,-0.001846771,0.435500026,0.41730848,84,1.050195307,1.5,1,1,1,1,0,1500,1500,1000,1500,10
14:13:48,0.16947592,0.140010491,0.057360016,-0.065515223,0.022823969,0.026215383,AUTO,TAKEOFF,-35.36325348,149.1652391,5084,6.036872387,7.987918377,0,187.25,0.5,-0.0264756,0.478500031,0.550065674,78.5,1.181969076,3,1,1,1,1,0,1500,1500,1000,1500,10
14:13:49,0.150435872,0.190044202,0.072549168,0.0177723,0.071686504,-0.020450054,AUTO,TAKEOFF,-35.36325175,149.165231,6321.5,6.802601099,10.72234631,0.5,154,1,-0.117873836,0.92050004,0.951161474,76,1.219032347,3.5,1,1,1,1,0,1500,1500,1000,1500,10
14:13:50,0.168894827,0.262327906,0.055876457,0.021273878,0.037883451,-0.026987592,AUTO,TAKEOFF,-35.3632535,149.1652198,7533.5,8.040111542,15.33665442,1,121,1.25,-0.186358485,1.147000074,1.155942202,77.5,1.128103763,2.75,1,1,1,1,0,1500,1500,1000,1500,10
14:13:51,0.186265081,0.236783013,0.081529574,0.033921758,-0.05576451,0.066449862,AUTO,TAKEOFF,-35.3632599,149.165209,8633.5,11.96769047,11.74664211,0.5,96.5,2,-0.140797727,1.245500088,1.194041133,81,1.05009228,4.5,1,1,1,1,0,1500,1500,1000,1500,10
14:13:52,0.228380397,0.145018578,0.165001955,0.036437893,-0.037479646,0.086151959,AUTO,TAKEOFF,-35.36326603,149.1652,9743,14.1699388,8.076661944,0,82.75,3,-0.10452194,0.946750045,0.832299665,78.75,1.135438949,9,1,1,1,1,0,1500,1500,1000,1500,10
14:13:53,0.242686495,0.072886759,0.226394385,-0.026821902,-0.089988921,0.122374874,AUTO,TAKEOFF,-35.3632685,149.1651936,10925.5,16.26735401,4.75218159,-1,79.5,3.5,-0.14120727,0.530000016,0.462872371,77.5,1.156875491,12.5,1,1,1,1,0,1500,1500,1000,1500,10
14:13:54,0.250638101,-0.011506045,0.318453565,0.061991037,0.020405756,0.08424121,AUTO,TAKEOFF,-35.36326678,149.1651889,12139.25,19.83029652,1.478426561,-1.5,83,4,-0.207442015,0.611500025,0.648934364,73.75,1.219579965,17.5,1,1,1,1,0,1500,1500,1000,1500,10
14:13:55,0.333935946,0.00750918,0.339742228,0.089352701,0.01129695,-0.018499141,AUTO,TAKEOFF,-35.3632611,149.1651863,13385.5,23.12043571,4.595932603,-0.5,91,4,-0.306055292,0.690000057,0.652018487,74,1.177006483,19,1,1,1,1,0,1500,1500,1000,1500,10
14:13:56,0.399252757,0.022929194,0.316974588,0.025705091,0.001886421,-0.000129407,AUTO,TAKEOFF,-35.36325618,149.1651886,14517.75,23.5391674,7.219577193,0,98.25,4,-0.292936396,0.670250028,0.708514243,80.5,0.999061778,18,1,1,1,1,0,1500,1500,1000,1500,10
14:13:57,0.332576126,0.016055295,0.33096008,-0.134696916,0.001150989,0.016939859,AUTO,TAKEOFF,-35.3632523,149.1651958,15478,16.22896051,7.591121197,0,106,3.5,-0.107691039,0.828500062,0.783171326,85.5,0.930992514,18.5,1,1,1,1,0,1500,1500,1000,1500,10
14:13:58,0.190766793,0.032609698,0.344585001,-0.066304927,0.026007554,0.013022074,AUTO,TAKEOFF,-35.36324755,149.1651995,16513,9.272648573,5.719976068,0,114.75,3.25,-0.012056579,0.641750038,0.687061191,79.5,1.146814793,19.25,1,1,1,1,0,1500,1500,1000,1500,10
14:13:59,0.233016476,0.057795418,0.349367023,0.100915715,0.019960196,-0.019745441,AUTO,TAKEOFF,-35.36324215,149.1651943,17769.5,12.32292891,7.376002073,0,119,4,-0.125276484,0.877500027,0.810622215,74.5,1.278825223,19.5,1,1,1,1,0,1500,1500,1000,1500,10
14:14:00,0.334325187,0.083783172,0.325031765,0.091658099,0.012291922,-0.033474586,AUTO,TAKEOFF,-35.36323875,149.1651885,19060.75,17.63553214,10.23877811,1,120,5,-0.268601373,0.457500018,0.305702827,74.5,1.20865643,18.25,1,1,1,1,0,1500,1500,1000,1500,10
14:14:01,0.373208895,0.099529192,0.302326635,-0.020958904,-0.006121609,-0.026832424,AUTO,TAKEOFF,-35.36323845,149.1651889,20183,18.68989372,11.3500104,1,120.5,5,-0.245887443,0.244000014,0.325507715,81.5,0.995027691,16.5,1,1,1,1,0,1500,1500,1000,1500,10
14:14:02,0.262529697,0.083943188,0.266586088,-0.14810317,-0.042136231,-0.030955238,AUTO,TAKEOFF,-35.3632391,149.1651925,21164.5,12.88012147,8.414889097,0.5,121.5,4,-0.083517453,0.33050001,0.282450721,83.25,0.986828089,14.75,1,1,1,1,0,1500,1500,1000,1500,10
14:14:03,0.209480561,0.078648049,0.236230463,0.03002672,0.014108196,-0.02236102,AUTO,TAKEOFF,-35.3632376,149.1651911,22291,10.92597961,7.142264605,0,122.5,4.5,-0.064840088,0.379500028,0.50600937,77.5,1.198849678,13,1,1,1,1,0,1500,1500,1000,1500,10
14:14:04,0.27819119,0.109359181,0.219409045,0.084843149,0.029981394,-0.019269703,AUTO,TAKEOFF,-35.36323485,149.1651859,23550,14.69439745,9.243933678,1,122.5,5,-0.178179316,0.574000031,0.475662105,75,1.242768794,12,1,1,1,1,0,1500,1500,1000,1500,10
14:14:05,0.331037045,0.133168228,0.197826363,0.007145563,-0.009706452,-0.053141475,AUTO,TAKEOFF,-35.3632339,149.1651837,24748.5,17.53341389,11.01734495,1,122,5,-0.231094971,0.231500003,0.183416158,79,1.088918924,11,1,1,1,1,0,1500,1500,1000,1500,10
14:14:06,0.291353732,0.134886976,0.145734895,-0.054487072,-0.016467458,-0.032259242,AUTO,TAKEOFF,-35.36323403,149.165185,25815.25,16.10356975,10.62996793,1,123,5,-0.150441278,0.203000009,0.200567085,81.5,1.024610862,7.75,1,1,1,1,0,1500,1500,1000,1500,10
14:14:07,0.254778676,0.129202999,0.130531661,-0.017644256,-0.001822589,-0.005013868,AUTO,TAKEOFF,-35.36323375,149.1651858,26907,14.17993641,9.530350208,1,123.5,5,-0.096478269,0.138000011,0.1243168,79.5,1.11125958,7,1,1,1,1,0,1500,1500,1000,1500,10
14:14:08,0.259000644,0.13526167,0.125087095,0.021176775,0.010900441,-0.006514982,AUTO,TAKEOFF,-35.36323268,149.1651844,28066.75,14.28059578,9.47912693,1,124,5,-0.112887572,0.225000009,0.211594615,78.25,1.160759002,7,1,1,1,1,0,1500,1500,1000,1500,10
14:14:09,0.28018856,0.147387147,0.121387362,0.018764097,0.008013987,-0.006800728,AUTO,TAKEOFF,-35.3632318,149.1651827,29244.5,15.28587437,10.04240751,1,124,5.5,-0.143216543,0.165000007,0.104563558,78.5,1.138131142,6.5,1,1,1,1,0,1500,1500,1000,1500,10
14:14:10,0.284018241,0.151478849,0.115398753,-0.00828926,-0.004430611,-0.006877506,AUTO,TAKEOFF,-35.36323152,149.1651821,30386,15.43518806,10.1581707,1,124,6,-0.136771847,0.026250001,0.022055041,80,1.096754044,6,1,1,1,1,0,1500,1500,1000,1500,10
14:14:11,0.266688108,0.145564668,0.107229758,-0.019735798,-0.008304055,-0.004643986,AUTO,TAKEOFF,-35.3632314,149.1651819,31504.5,14.553123,9.645524502,1,124,6,-0.108037107,0.033000001,0.041867672,80,1.10222894,5.5,1,1,1,1,0,1500,1500,1000,1500,10
14:14:12,0.256939121,0.1427554,0.100731546,0.001379199,0.001277255,-0.004230319,AUTO,TAKEOFF,-35.3632309,149.1651811,32642,14.11284924,9.340097427,1,124,6,-0.101882933,0.133000009,0.130399689,79.25,1.135750502,5,1,1,1,1,0,1500,1500,1000,1500,10
14:14:13,0.26558426,0.14853806,0.096939299,0.014132273,0.007519159,-0.004662353,AUTO,TAKEOFF,-35.36323015,149.1651796,33806.5,14.60661507,9.598166466,1,124,6,-0.12054687,0.16650001,0.133880164,79,1.143517137,5,1,1,1,1,0,1500,1500,1000,1500,10
14:14:14,0.27479741,0.154631786,0.093494726,0.004053135,0.002333927,-0.00393769,AUTO,TAKEOFF,-35.36322958,149.1651784,34963.75,15.10455489,9.902644873,1,124,6,-0.132436521,0.101000004,0.058705197,79.25,1.122740984,5,1,1,1,1,0,1500,1500,1000,1500,10
14:14:15,0.270495579,0.15399386,0.088333603,-0.008690917,-0.004820053,-0.003434802,AUTO,TAKEOFF,-35.3632293,149.1651778,36098,14.89319134,9.802206516,1,124,6,-0.121003415,0.052500002,0.025584846,80,1.108290911,4.5,1,1,1,1,0,1500,1500,1000,1500,10
14:14:16,0.261168808,0.15064941,0.082901793,-0.004898892,-0.002342938,-0.003139918,AUTO,TAKEOFF,-35.36322893,149.1651772,37232.25,14.44451666,9.526614428,1,124,6,-0.108770749,0.082750005,0.069835328,80,1.119563401,4,1,1,1,1,0,1500,1500,1000,1500,10
14:14:17,0.260537192,0.151991285,0.078978475,0.001332963,0.003762217,-0.003550979,AUTO,TAKEOFF,-35.36322835,149.1651761,38383.5,14.46596861,9.52386713,1,124,6,-0.111881103,0.130000006,0.108562794,79,1.133728147,4,1,1,1,1,0,1500,1500,1000,1500,10
14:14:18,0.266285494,0.155877344,0.076340066,0.006252467,0.003936587,-0.002468126,AUTO,TAKEOFF,-35.3632277,149.1651749,39544.25,14.79291129,9.706067562,1,124,6,-0.123656001,0.125000006,0.090795193,79,1.130730331,4,1,1,1,1,0,1500,1500,1000,1500,10
14:14:19,0.268281683,0.158071645,0.073291309,-0.002253234,-0.000394502,-0.001726204,AUTO,TAKEOFF,-35.36322725,149.165174,40689.5,14.91131973,9.791590214,1,124,6.5,-0.124163818,0.085500002,0.052719263,79.5,1.11848253,4,1,1,1,1,0,1500,1500,1000,1500,10
14:14:20,0.263890475,0.156943113,0.069434393,-0.005002915,-0.001992205,-0.002954558,AUTO,TAKEOFF,-35.36322685,149.1651733,41823,14.69417024,9.678560257,1,124,7,-0.114125974,0.071250003,0.052923354,80,1.115174532,3.5,1,1,1,1,0,1500,1500,1000,1500,10
14:14:21,0.259155497,0.155773751,0.065940011,-0.001203552,-0.000902952,-0.003116199,AUTO,TAKEOFF,-35.36322635,149.1651725,42965,14.48110962,9.556318283,1,124,7,-0.109611817,0.100500003,0.090494856,79.5,1.125110328,3,1,1,1,1,0,1500,1500,1000,1500,10
14:14:22,0.260200858,0.157420434,0.063485565,0.004158804,0.002107188,-0.001919898,AUTO,TAKEOFF,-35.3632257,149.1651714,44115,14.56877184,9.598528147,1,124,7,-0.114001462,0.125000004,0.10945005,79,1.132472754,3,1,1,1,1,0,1500,1500,1000,1500,10
14:14:23,0.263644204,0.159998842,0.061570011,0.004776621,0.002361424,-0.001064579,AUTO,TAKEOFF,-35.36322515,149.1651703,45266.5,14.76967716,9.711474419,1,124,7,-0.119028315,0.109000005,0.085433885,79,1.12694943,3,1,1,1,1,0,1500,1500,1000,1500,10
14:14:24,0.263624206,0.160659432,0.059068037,-0.000626603,-0.000240904,-0.001285207,AUTO,TAKEOFF,-35.36322475,149.1651695,46415.25,14.77464509,9.719919682,1,124,7,-0.118565671,0.084750004,0.064585855,80,1.119999051,3,1,1,1,1,0,1500,1500,1000,1500,10
14:14:25,0.260105684,0.159531578,0.056210196,-0.003191093,-0.001019919,-0.001703418,AUTO,TAKEOFF,-35.36322425,149.1651687,47557.5,14.60944843,9.625032425,1,124,7,-0.113381345,0.089500003,0.075238939,80,1.121799052,3,1,1,1,1,0,1500,1500,1000,1500,10
14:14:26,0.258383863,0.159415919,0.053992433,0.002227676,0.000901082,-0.001668438,AUTO,TAKEOFF,-35.36322375,149.1651678,48703.25,14.5433259,9.581429243,1,124,7,-0.11332031,0.110750007,0.094501222,79.25,1.128269315,3,1,1,1,1,0,1500,1500,1000,1500,10
14:14:27,0.25993064,0.160923995,0.052133614,0.002959685,0.001321213,-0.003432081,AUTO,TAKEOFF,-35.36322315,149.1651667,49852.5,14.65363407,9.637599945,1,124,7,-0.116425779,0.114000008,0.09232441,79,1.128072858,2.5,1,1,1,1,0,1500,1500,1000,1500,10
14:14:28,0.260471873,0.161903325,0.049802297,0.000588706,0.001552413,-0.000965585,AUTO,TAKEOFF,-35.3632226,149.1651657,51000.5,14.70871425,9.673657179,1,124,7,-0.117929686,0.104250005,0.0808329,79,1.124690205,2,1,1,1,1,0,1500,1500,1000,1500,10
14:14:29,0.260188177,0.162387528,0.048219472,0.002186881,0.00053529,-4.16E-05,AUTO,TAKEOFF,-35.3632221,149.1651648,52146.5,14.70125866,9.670825481,1,124,7.5,-0.117712397,0.098500002,0.077591509,80,1.123702943,2,1,1,1,1,0,1500,1500,1000,1500,10
14:14:30,0.259333685,0.162432943,0.046489992,-0.001221581,-0.000182684,-0.00151211,AUTO,TAKEOFF,-35.36322162,149.1651639,53293.5,14.6664319,9.647254944,1,124,8,-0.115554197,0.098000005,0.078270165,80,1.123412192,2,1,1,1,1,0,1500,1500,1000,1500,10
14:14:31,0.258677721,0.162594393,0.044944063,-0.003450775,0.000293787,-0.000374063,AUTO,TAKEOFF,-35.3632211,149.165163,54439.5,14.64641428,9.632953644,1,124,8,-0.116118163,0.102500003,0.084231857,79,1.124900579,2,1,1,1,1,0,1500,1500,1000,1500,10
14:14:32,0.2589719,0.163192406,0.043655504,0.000475757,0.001365535,-0.000326438,AUTO,TAKEOFF,-35.36322058,149.165162,55584.5,14.66484571,9.647100925,1,124,8,-0.117298581,0.103500005,0.084315615,79,1.125360459,2,1,1,1,1,0,1500,1500,1000,1500,10
14:14:33,0.258950368,0.163672529,0.042490913,0.001966884,-0.000138363,-0.001933775,AUTO,TAKEOFF,-35.36322005,149.1651611,56730,14.67448711,9.655111313,1,124,8,-0.116804197,0.101000004,0.08146153,80,1.124222279,2,1,1,1,1,0,1500,1500,1000,1500,10
14:14:34,0.258569986,0.164057184,0.041193957,-0.000187592,0.000130516,0.000287634,AUTO,TAKEOFF,-35.36321955,149.1651602,57876.25,14.6682694,9.65212369,1,124,8,-0.116917724,0.099250006,0.079973241,80,1.124033123,2,1,1,1,1,0,1500,1500,1000,1500,10
14:14:35,0.258093387,0.163882725,0.040033018,0.000783497,2.42E-05,-3.80E-05,AUTO,TAKEOFF,-35.36321905,149.1651593,59022,14.65090466,9.635566711,1,124,8,-0.116374508,0.101000004,0.080421288,80,1.124293983,2,1,1,1,1,0,1500,1500,1000,1500,10
14:14:36,0.257687382,0.164044008,0.039054682,-3.21E-05,0.000560797,0.00012962,AUTO,TAKEOFF,-35.3632186,149.1651583,60171,14.64768243,9.622429848,1,124,8,-0.116047358,0.105000006,0.08392844,79,1.125294685,2,1,1,1,1,0,1500,1500,1000,1500,10
14:14:37,0.258259341,0.164284736,0.038135931,-0.000819008,0.000345997,0.00040992,AUTO,TAKEOFF,-35.3632181,149.1651573,61317,14.68071461,9.626162529,1,123.5,8,-0.116811518,0.105000004,0.081916396,79,1.125148535,2,1,1,1,1,0,1500,1500,1000,1500,10
14:14:38,0.258492,0.16481379,0.037327492,0.000704878,0.000768727,-0.000201175,AUTO,TAKEOFF,-35.36321758,149.1651564,62461.75,14.69300008,9.646003962,1,124,8,-0.117701413,0.101750005,0.07820012,79.25,1.124302864,2,1,1,1,1,0,1500,1500,1000,1500,10
14:14:39,0.258217633,0.165068187,0.036504416,-0.000295221,0.000720098,0.001430646,AUTO,TAKEOFF,-35.36321705,149.1651555,63609.5,14.68887806,9.646381855,1,124,8.5,-0.117109373,0.099500004,0.076423876,80,1.123453259,2,1,1,1,1,0,1500,1500,1000,1500,10
14:14:40,0.257769912,0.165057838,0.035556988,0.001509013,0.000330618,0.000439404,AUTO,TAKEOFF,-35.36321655,149.1651545,64759.75,14.67814231,9.631970882,1,123.5,9,-0.117003171,0.099750003,0.077715879,79.5,1.123629659,2,1,1,1,1,0,1500,1500,1000,1500,10
14:14:41,0.257729784,0.164928652,0.034673382,0.001381866,0.000109766,-0.00101636,AUTO,TAKEOFF,-35.3632161,149.1651536,65905.5,14.67214108,9.613910675,1,123,9,-0.116401367,0.101000004,0.078920908,80,1.123422027,1.5,1,1,1,1,0,1500,1500,1000,1500,10
14:14:42,0.257295087,0.16493164,0.033899842,0.000658628,0.000247241,-0.000786201,AUTO,TAKEOFF,-35.36321562,149.1651526,67048.5,14.65478086,9.598008394,1,123,9,-0.115362545,0.102000006,0.082171435,80,1.123667091,1,1,1,1,1,0,1500,1500,1000,1500,10
14:14:43,0.256977022,0.164946862,0.033204064,1.02E-05,-0.000151222,0.000525029,AUTO,TAKEOFF,-35.3632151,149.1651516,68195,14.65025234,9.593204498,1,123,9,-0.115368649,0.104000006,0.084889814,79.5,1.123805225,1,1,1,1,1,0,1500,1500,1000,1500,10
14:14:44,0.256901897,0.165018674,0.032773525,0.002021611,-0.000151563,-0.000848935,AUTO,TAKEOFF,-35.3632146,149.1651507,69341.5,14.65074301,9.593286991,1,123,9,-0.1161499,0.105000004,0.087809924,79,1.124037236,1,1,1,1,1,0,1500,1500,1000,1500,10
14:14:45,0.256938145,0.165200315,0.03227892,-0.001615272,0.000925621,0.000925669,AUTO,TAKEOFF,-35.363214,149.1651497,70488,14.65833282,9.596835136,1,123,9,-0.116662592,0.104000006,0.089223702,79,1.123522103,1,1,1,1,1,0,1500,1500,1000,1500,10
14:14:46,0.256912358,0.165405892,0.031738239,-0.000467696,0.000630023,-0.000125997,AUTO,TAKEOFF,-35.3632135,149.1651487,71640,14.66287327,9.599599838,1,123,9,-0.117962644,0.102500007,0.087913869,79.5,1.122853965,1,1,1,1,1,0,1500,1500,1000,1500,10
14:14:47,0.256808758,0.165493779,0.031221924,0.001340726,-0.000158744,0.000315026,AUTO,TAKEOFF,-35.363213,149.1651478,72786,14.65831184,9.596617222,1,123,9,-0.117851559,0.102000006,0.087989815,79.5,1.122785211,1,1,1,1,1,0,1500,1500,1000,1500,10
14:14:48,0.256730191,0.165619157,0.030678562,-0.000355265,4.56E-05,0.000314306,AUTO,TAKEOFF,-35.3632125,149.1651468,73933.25,14.6550045,9.594091415,1,123,9,-0.11779541,0.102000006,0.088022204,79,1.123027295,1,1,1,1,1,0,1500,1500,1000,1500,10
14:14:49,0.256497636,0.165647909,0.029924493,0.003776252,-9.34E-05,-0.000693752,AUTO,TAKEOFF,-35.363212,149.1651459,75080.5,14.65800858,9.592225552,1,123,10,-0.117712397,0.102500007,0.088100698,79,1.122932732,1,1,1,1,1,0,1500,1500,1000,1500,10
14:14:50,0.256438367,0.165769797,0.029107753,-0.00036315,0.000732361,0.00133926,AUTO,TAKEOFF,-35.3632115,149.1651449,76226.25,14.67792702,9.592280626,1,123,10,-0.11950317,0.104750004,0.088297874,79,1.123674601,1,1,1,1,1,0,1500,1500,1000,1500,10
14:14:51,0.257378623,0.166278273,0.028933512,0.001028942,0.000623305,0.001368335,AUTO,TAKEOFF,-35.363211,149.165144,77373.5,14.72368431,9.611444473,1,123,10,-0.120461423,0.101500005,0.083874896,79,1.122887671,1,1,1,1,1,0,1500,1500,1000,1500,10
14:14:52,0.257521816,0.166364409,0.028676101,0.00060725,9.53E-05,0.000399146,AUTO,TAKEOFF,-35.36321055,149.165143,78518.25,14.72435045,9.609333515,1,123,10,-0.119282225,0.095500004,0.078544587,80,1.120907694,1,1,1,1,1,0,1500,1500,1000,1500,10
14:14:53,0.256575689,0.165750451,0.028232083,-0.001252688,-0.001096174,0.00031216,AUTO,TAKEOFF,-35.36321005,149.1651422,79663,14.66708231,9.571135044,1,123,10,-0.117712401,0.097500004,0.081878014,80,1.12119621,1,1,1,1,1,0,1500,1500,1000,1500,10
14:14:54,0.256009556,0.16575063,0.027719308,0.000575123,0.000720875,1.19E-05,AUTO,TAKEOFF,-35.36320953,149.1651412,80811.25,14.64955807,9.562613487,1,123,10,-0.116707761,0.104000006,0.089129003,79,1.123778313,1,1,1,1,1,0,1500,1500,1000,1500,10
14:14:55,0.256869346,0.166322052,0.027710998,0.002519834,0.000605328,-0.000232503,AUTO,TAKEOFF,-35.363209,149.1651403,81958.5,14.69629478,9.588114738,1,123,10,-0.119301755,0.105500005,0.088267822,79,1.12436986,1,1,1,1,1,0,1500,1500,1000,1500,10
14:14:56,0.257928997,0.166811038,0.027633201,0.000342122,9.28E-05,2.45E-06,AUTO,TAKEOFF,-35.36320855,149.1651393,83104.5,14.75503206,9.617113352,1,123,10,-0.120915525,0.098500004,0.078416264,79.25,1.122184277,1,1,1,1,1,0,1500,1500,1000,1500,10
14:14:57,0.257908359,0.166783065,0.027460062,0.001017528,-0.000324995,0.001059767,AUTO,TAKEOFF,-35.36320805,149.1651384,84249.5,14.7497983,9.614731789,1,123,10,-0.119975582,0.092500005,0.072671033,80,1.120411277,1,1,1,1,1,0,1500,1500,1000,1500,10
14:14:58,0.257342465,0.166490443,0.027232804,-0.000909996,-0.000101138,0.000179941,AUTO,TAKEOFF,-35.3632076,149.1651376,85392,14.71846843,9.595235109,1,123,10,-0.120024411,0.092500005,0.074838433,80,1.120841801,1,1,1,1,1,0,1500,1500,1000,1500,10
14:14:59,0.256891921,0.166566573,0.026984145,-0.000849998,-0.000127263,0.00040005,AUTO,TAKEOFF,-35.3632071,149.1651367,86596,14.70752048,9.591123581,1,123,11,-0.119907226,0.096500006,0.077433173,79,1.122004628,1,1,1,1,1,0,1500,1500,1000,1500,10
14:15:00,0.257041857,0.166668188,0.026685987,0.001243476,-0.000184955,0.000992701,AUTO,TAKEOFF,-35.3632066,149.1651357,87801,14.71613932,9.592502356,1,123,11,-0.12023193,0.098000005,0.078458127,79,1.122343659,1,1,1,1,1,0,1500,1500,1000,1500,10
14:15:01,0.257107243,0.166696317,0.026769804,-0.002637829,0.000912545,0.00113876,AUTO,TAKEOFF,-35.36320615,149.1651348,88947,14.72944164,9.59579277,1,123,11,-0.120317381,0.097500004,0.076767977,79,1.121665001,1,1,1,1,1,0,1500,1500,1000,1500,10
14:15:02,0.257159263,0.166662741,0.026448756,0.000139004,-0.000144385,1.74E-05,AUTO,TAKEOFF,-35.36320565,149.1651339,90089,14.72516561,9.590947151,1,123,11,-0.119565425,0.096000001,0.076336898,79.75,1.121201128,1,1,1,1,1,0,1500,1500,1000,1500,10
14:15:03,0.25707227,0.166571662,0.026438145,0.00204678,0.001126411,0.00047946,AUTO,TAKEOFF,-35.3632054,149.1651333,90805,14.72006321,9.585853577,1,123,11,-0.119951166,0.096000001,0.078959055,79,1.1217978,1,1,1,1,1,0,1500,1500,1000,1500,10
14:15:04,0.257096332,0.166562721,0.026164405,-0.000376073,0.00045285,0.00045575,AUTO,TAKEOFF,-35.36320478,149.1651322,92235.2,14.72006321,9.585853577,1,123,11,-0.11942578,0.096000001,0.079680498,79.6,1.121666861,1,1,1,1,1,0,1500,1500,1000,1500,10
14:15:05,0.257066056,0.166563854,0.025984544,0.001736949,0.001050468,0.001427807,AUTO,TAKEOFF,-35.36320425,149.1651311,93523.5,14.71919298,9.581310749,1,123,11,-0.119389646,0.096000001,0.079987939,79.5,1.121808708,1,1,1,1,1,0,1500,1500,1000,1500,10
14:15:06,0.256920174,0.166617863,0.025888348,-0.000691065,0.00079341,0.00094965,AUTO,TAKEOFF,-35.3632038,149.1651303,94672.5,14.71938753,9.574758291,1,123,11,-0.120744625,0.097000003,0.079967741,79,1.121771514,1,1,1,1,1,0,1500,1500,1000,1500,10
14:15:07,0.257148951,0.166643269,0.025688673,-0.00100118,0.000285425,0.002838286,AUTO,TAKEOFF,-35.36320335,149.1651294,95819.5,14.73261976,9.572509766,1,123,11,-0.121694334,0.097000003,0.081063896,79,1.122325599,1,1,1,1,1,0,1500,1500,1000,1500,10
14:15:08,0.257666893,0.166620474,0.025763497,0.001572447,0.000315138,0.000298825,AUTO,TAKEOFF,-35.36320285,149.1651284,96964.75,14.75705767,9.580925941,1,123,11,-0.122038571,0.095500004,0.076439712,79.25,1.121603698,1,1,1,1,1,0,1500,1500,1000,1500,10
14:15:09,0.257449493,0.166481666,0.025556657,-0.00330948,0.000311346,0.001335692,AUTO,TAKEOFF,-35.36320245,149.1651276,98110.5,14.74356318,9.571713448,1,123,11.5,-0.120717771,0.094000004,0.072680943,80,1.120735407,1,1,1,1,1,0,1500,1500,1000,1500,10
14:15:10,0.256741136,0.166195042,0.02540614,0.000829761,-0.000344306,-0.000726139,AUTO,TAKEOFF,-35.36320193,149.1651267,99252.75,14.70741796,9.550071001,1,123,12,-0.120300291,0.096600005,0.077260929,79.6,1.121085525,1,1,1,1,1,0,1500,1500,1000,1500,10
14:15:11,0.25660044,0.166230634,0.025347231,0.002592001,-0.000439656,-0.00087265,AUTO,TAKEOFF,-35.3632016,149.1651261,99968,14.70248127,9.547681808,1,123,12,-0.120253906,0.100000001,0.081215374,79,1.122282505,1,1,1,1,1,0,1500,1500,1000,1500,10
14:15:12,0.25718658,0.166607091,0.02467813,0.001614917,0.001065202,-0.0003468,AUTO,TAKEOFF,-35.363201,149.1651249,101401.6,14.7624197,9.57235775,1,123,12,-0.122742184,0.102200006,0.08257059,79,1.123466682,1,1,1,1,1,0,1500,1500,1000,1500,10
14:15:13,0.258372188,0.167099565,0.024751946,-0.000335798,0.001152617,0.00184841,AUTO,ON MISSION,-35.3632007,149.1651242,102262,14.8118372,9.598680496,1,123,12,-0.124052733,0.097000003,0.074932501,79,1.121815681,1,1,1,1,1,0,1500,1500,1000,1500,10
14:15:14,0.258065659,0.16701853,0.024629996,-0.000745371,-0.000641909,0.000105792,AUTO,ON MISSION,-35.3632001,149.1651232,103691.2,14.79035587,9.588010979,1,123,12,-0.121218747,0.087400004,0.06918003,80,1.119409847,1,1,1,1,1,0,1500,1500,1000,1500,10
14:15:15,0.256406978,0.166122504,0.02423242,-0.003682729,-0.000361965,-0.000108583,AUTO,ON MISSION,-35.3631996,149.1651223,104977.5,14.70032072,9.534469128,1,123,12,-0.118876949,0.088000007,0.071855046,80,1.119194388,1,1,1,1,1,0,1500,1500,1000,1500,10
14:15:16,0.256391078,0.166156396,0.024361935,0.002435276,0.001498421,0.001515716,AUTO,ON MISSION,-35.3631991,149.1651213,106122.25,14.70272779,9.533926249,1,123,12,-0.120664058,0.101400004,0.086696878,79,1.124065351,1,1,1,1,1,0,1500,1500,1000,1500,10
14:15:17,0.257422656,0.166730195,0.024359467,0.001422036,0.002667253,0.001768751,AUTO,ON MISSION,-35.3631988,149.1651207,106839,14.75382137,9.561882973,1,123,12,-0.122226559,0.103000008,0.081545658,79,1.123149157,1,1,1,1,1,0,1500,1500,1000,1500,10
14:15:18,0.257473946,0.166658339,0.02443055,-0.000493396,-0.000440689,0.000472165,AUTO,ON MISSION,-35.3631982,149.1651196,108269.6,14.75590591,9.563486099,1,123,12,-0.121660154,0.094800003,0.074467182,80,1.120017815,1,1,1,1,1,0,1500,1500,1000,1500,10
14:15:19,0.256976664,0.16632916,0.024124924,-0.00058782,-0.000717813,0.000184402,AUTO,ON MISSION,-35.3631979,149.165119,109127,14.72108841,9.543541908,1,123,12,-0.120214842,0.094000004,0.075949565,80,1.119726419,1,1,1,1,1,0,1500,1500,1000,1500,10
14:15:20,0.256010157,0.165807819,0.024204025,0.000292531,0.000246718,0.000811803,AUTO,ON MISSION,-35.36319726,149.1651178,110561,14.68013515,9.513829422,1,123,13,-0.119109371,0.102000004,0.086632927,79.2,1.12232914,1,1,1,1,1,0,1500,1500,1000,1500,10
14:15:21,0.257029459,0.166429013,0.024326622,0.002059315,0.00087467,0.000370578,AUTO,ON MISSION,-35.3631967,149.1651167,111851,14.73497581,9.542630672,1,123,13,-0.121079102,0.103000004,0.086363133,79,1.122453511,1,1,1,1,1,0,1500,1500,1000,1500,10
14:15:22,0.257841147,0.166864783,0.024370091,0.000156485,0.00062852,-0.000196758,AUTO,ON MISSION,-35.3631962,149.1651158,112997,14.77937245,9.569019318,1,123,13,-0.122524412,0.095250005,0.078268316,79,1.120358557,1,1,1,1,1,0,1500,1500,1000,1500,10
14:15:23,0.257728785,0.166858122,0.024419412,-0.003255536,0.00051049,0.001289725,AUTO,ON MISSION,-35.3631959,149.1651152,113712,14.78212452,9.56996727,1,123,13,-0.122216791,0.092000008,0.074937247,80,1.119572639,1,1,1,1,1,0,1500,1500,1000,1500,10
14:15:24,0.257064331,0.1661531,0.024292663,-6.07E-05,-0.000122439,0.000357135,AUTO,ON MISSION,-35.36319538,149.1651142,115145.6,14.73599205,9.534128189,1,123,13,-0.121007809,0.092200005,0.076466268,80,1.11969316,1,1,1,1,1,0,1500,1500,1000,1500,10
14:15:25,0.256639332,0.165930659,0.024045592,-0.003344168,0.000948176,-0.000340103,AUTO,ON MISSION,-35.363195,149.1651135,116005,14.71479702,9.521504402,1,123,13,-0.121083982,0.097000003,0.080272079,79,1.12121594,1,1,1,1,1,0,1500,1500,1000,1500,10
14:15:26,0.25744139,0.166488782,0.024333577,0.001993231,0.001658051,0.000470297,AUTO,ON MISSION,-35.36319438,149.1651124,117433.6,14.75907993,9.549782181,1,123,13,-0.121687496,0.099800004,0.082127675,79,1.122790623,1,1,1,1,1,0,1500,1500,1000,1500,10
14:15:27,0.258211285,0.166973025,0.024331251,-0.002733708,0.001138325,0.000891126,AUTO,ON MISSION,-35.363194,149.1651117,118298,14.80046463,9.57540226,1,123,13,-0.124052733,0.096000001,0.076302938,79,1.121258855,1,1,1,1,1,0,1500,1500,1000,1500,10
14:15:28,0.25831309,0.16680699,0.024355974,-0.000190666,-9.29E-05,0.000704441,AUTO,ON MISSION,-35.3631935,149.1651106,119727.6,14.8030817,9.5720438,1,123,13,-0.122599606,0.088600005,0.068251342,80,1.119448185,1,1,1,1,1,0,1500,1500,1000,1500,10
14:15:29,0.2576015,0.166293949,0.024147971,-0.005274261,-0.0012204,0.001552403,AUTO,ON MISSION,-35.3631932,149.16511,120584,14.75880241,9.539944649,1,123,13,-0.120615229,0.088000007,0.069007568,80,1.11918819,1,1,1,1,1,0,1500,1500,1000,1500,10
14:15:30,0.256602013,0.165859705,0.024110368,0.001658271,0.000687751,0.000615288,AUTO,ON MISSION,-35.3631926,149.1651089,122015,14.71584206,9.513523293,1,123,13.8,-0.120453122,0.099400005,0.079454456,79.2,1.122693133,1,1,1,1,1,0,1500,1500,1000,1500,10
14:15:31,0.25696677,0.166192412,0.02413908,-0.000509123,0.000863149,0.000891981,AUTO,ON MISSION,-35.3631922,149.1651082,122874,14.74449635,9.526713371,1,123,14,-0.121210933,0.103000008,0.082148351,79,1.123675942,1,1,1,1,1,0,1500,1500,1000,1500,10
14:15:32,0.258381438,0.16672259,0.024362558,0.000997561,-0.000131836,0.000561828,AUTO,ON MISSION,-35.36319162,149.1651071,124309.6,14.80580006,9.565852928,1,123,14,-0.122037108,0.095000005,0.073218644,79.2,1.121605253,1,1,1,1,1,0,1500,1500,1000,1500,10
14:15:33,0.258384764,0.166774198,0.024388945,-0.003696394,0.000944391,0.002081578,AUTO,ON MISSION,-35.3631913,149.1651064,125168,14.81195354,9.571418762,1,123,14,-0.121035151,0.090000004,0.068351179,80,1.119897366,1,1,1,1,1,0,1500,1500,1000,1500,10
14:15:34,0.256961006,0.166241294,0.023403397,0.000821019,0.000516974,0.000428711,AUTO,ON MISSION,-35.36319072,149.1651054,126594.6,14.75578861,9.534728813,1,123,14,-0.12025781,0.094200005,0.075749785,79.6,1.121450067,1,1,1,1,1,0,1500,1500,1000,1500,10
14:15:35,0.25682494,0.16628471,0.02347389,-0.003552222,0.001732335,0.001255863,AUTO,ON MISSION,-35.3631904,149.1651047,127456,14.7477026,9.528841019,1,123,14,-0.118945308,0.098000005,0.079655282,79,1.122626305,1,1,1,1,1,0,1500,1500,1000,1500,10
14:15:36,0.257527602,0.166413897,0.02346455,-4.83E-05,0.000337565,0.000458411,AUTO,ON MISSION,-35.36318978,149.1651035,128885.6,14.77485542,9.537206268,1,123,14,-0.121999997,0.098800004,0.078826882,79,1.122887754,1,1,1,1,1,0,1500,1500,1000,1500,10
14:15:37,0.258095682,0.166683719,0.023457194,0.004876054,0.002610672,0.000908113,AUTO,ON MISSION,-35.3631894,149.1651028,129744,14.79935646,9.555397987,1,123,14,-0.122167967,0.096000001,0.075663954,79,1.122384667,1,1,1,1,1,0,1500,1500,1000,1500,10
14:15:38,0.257859904,0.166534141,0.023713724,-0.001225879,-0.000248726,0.001052717,AUTO,ON MISSION,-35.36318884,149.1651018,131174.6,14.79015522,9.546578407,1,123,14,-0.121236326,0.092200007,0.072311553,80,1.120673108,1,1,1,1,1,0,1500,1500,1000,1500,10
14:15:39,0.257350355,0.166021585,0.02352559,0.001411085,-0.000371239,0.000693339,AUTO,ON MISSION,-35.3631885,149.1651011,132032,14.75755978,9.519002914,1,123,14,-0.120185547,0.093000002,0.074369751,80,1.121338606,1,1,1,1,1,0,1500,1500,1000,1500,10
14:15:40,0.256895226,0.166000473,0.02348719,-0.000257641,0.001155323,0.000252966,AUTO,ON MISSION,-35.36318792,149.1651,133465.2,14.7392395,9.510835266,1,123,14.4,-0.119898435,0.099600004,0.078914867,79.2,1.122842383,1,1,1,1,1,0,1500,1500,1000,1500,10
14:15:41,0.257255524,0.166302577,0.023472626,0.002765965,0.000526217,-0.000437627,AUTO,ON MISSION,-35.3631875,149.1650993,134326,14.76056385,9.52332592,1,123,15,-0.119882807,0.101000004,0.079999112,79,1.123260379,1,1,1,1,1,0,1500,1500,1000,1500,10
14:15:42,0.257889825,0.16642085,0.023744833,-6.82E-05,0.000909859,0.000564973,AUTO,ON MISSION,-35.36318692,149.1650982,135757.6,14.79041729,9.541354561,1,123,15,-0.12077734,0.095400004,0.077532314,79,1.121886659,1,1,1,1,1,0,1500,1500,1000,1500,10
14:15:43,0.258036047,0.166405424,0.023791445,0.001045292,-0.001954652,0.001681376,AUTO,ON MISSION,-35.3631866,149.1650975,136616,14.79483509,9.544751167,1,123,15,-0.120644532,0.092000008,0.074286386,80,1.120963454,1,1,1,1,1,0,1500,1500,1000,1500,10
14:15:44,0.257576996,0.166167879,0.023784694,-0.00089028,-8.40E-05,0.000562878,AUTO,ON MISSION,-35.363186,149.1650964,138047.6,14.76509724,9.525109291,1,123,15,-0.118623045,0.092000005,0.075984763,80,1.120922732,1,1,1,1,1,0,1500,1500,1000,1500,10
14:15:45,0.257154256,0.165937319,0.023637095,0.003281173,0.000595883,-0.001134172,AUTO,ON MISSION,-35.3631856,149.1650958,138907,14.74087334,9.513181686,1,123,15,-0.117246091,0.095000006,0.079357691,80,1.122000456,1,1,1,1,1,0,1500,1500,1000,1500,10
14:15:46,0.257481492,0.166099182,0.023843187,0.001777759,0.000847007,-0.000570761,AUTO,ON MISSION,-35.36318508,149.1650946,140336,14.76800842,9.517754745,1,123,15,-0.119677733,0.099800004,0.082356046,79,1.124197459,1,1,1,1,1,0,1500,1500,1000,1500,10
14:15:47,0.258350492,0.166499898,0.023867706,-0.002973313,0.001620008,-0.000444576,AUTO,ON MISSION,-35.3631847,149.1650939,141198,14.81388474,9.543646812,1,123,15,-0.119326167,0.098000005,0.076674037,79,1.123081207,1,1,1,1,1,0,1500,1500,1000,1500,10
14:15:48,0.258529902,0.166636288,0.023888748,0.000621414,0.000233574,0.001198946,AUTO,ON MISSION,-35.36318414,149.1650929,142631.2,14.82172737,9.552137756,1,123,15,-0.119494137,0.089800006,0.069859245,79.8,1.121319938,1,1,1,1,1,0,1500,1500,1000,1500,10
14:15:49,0.257932186,0.166127786,0.023710757,-0.004355676,-0.000794011,0.000434617,AUTO,ON MISSION,-35.3631838,149.1650922,143491,14.78557301,9.528171539,1,123,15,-0.118291013,0.088000007,0.068892457,80,1.119528174,1,1,1,1,1,0,1500,1500,1000,1500,10
14:15:50,0.25603081,0.16525833,0.023455149,0.000502932,0.000428003,0.000145317,AUTO,ON MISSION,-35.3631832,149.1650912,144915.6,14.68575439,9.468650246,1,123,15.2,-0.115695308,0.100400004,0.083260377,79.4,1.123457456,1,1,1,1,1,0,1500,1500,1000,1500,10
14:15:51,0.256414741,0.165502325,0.023699347,0.001820671,0.000599633,0.002144464,AUTO,ON MISSION,-35.3631828,149.1650904,145781,14.71034431,9.483847618,1,123,16,-0.118720703,0.108000003,0.08879067,79,1.125404477,1,1,1,1,1,0,1500,1500,1000,1500,10
14:15:52,0.275037277,0.173554969,0.024714138,0.038315017,0.014727743,-0.002098819,AUTO,ON MISSION,-35.36318224,149.1650893,147210.2,15.88775215,10.22306538,1,123,16,-0.122777341,0.072800003,0.059793818,76,1.118948746,1,1,1,1,1,0,1500,1500,1000,1500,10
14:15:53,0.314826787,0.185124874,0.026300011,0.056783397,0.010476379,-0.000726028,AUTO,ON MISSION,-35.3631822,149.1650893,148058,18.87521744,12.20687389,2,123,16,-0.139677733,0.064000003,0.165900633,71,1.070853949,1,1,1,1,1,0,1500,1500,1000,1500,10
14:15:54,0.350578892,0.211043388,0.004313349,-0.013430078,0.051569767,-0.128261853,AUTO,ON MISSION,-35.36318262,149.165095,149306.2,24.323843,16.75390949,3.6,123.8,15,-0.292328113,0.563000029,0.638847429,61,0.879526758,71.8,1,1,1,1,0,1500,1500,1000,1500,10
14:15:55,0.256776601,0.312872708,-0.189093217,-0.105406716,-0.043310884,-0.524226308,AUTO,ON MISSION,-35.3631834,149.1651004,149940,25.03224373,17.07778549,4,125,15,-0.434765607,0.717000008,0.698124051,48,0.706475973,349,1,1,1,1,0,1500,1500,1000,1500,10
14:15:56,0.167119882,0.415936106,-0.42616151,0.039771695,0.059809856,-0.005677141,AUTO,ON MISSION,-35.36318748,149.1651062,150340,24.34811859,17.87825089,2.8,162,48.8,-0.40163281,0.568400037,0.60134027,37.4,-0.036530425,335.4,1,1,1,1,0,1500,1500,1000,1500,10
14:15:57,0.149983957,0.461485475,-0.382182807,0.030798923,0.021659147,0.031767204,AUTO,ON MISSION,-35.3631914,149.1651087,150195,22.44944763,20.40229988,5,218,100,-0.195888668,0.731000006,0.889150321,39,-0.321205199,338,1,1,1,1,0,1500,1500,1000,1500,10
14:15:58,0.128598837,0.487394023,-0.467122716,0.014794725,0.01156503,-0.331895149,AUTO,ON MISSION,-35.36320448,149.1651142,149942.2,18.3201725,23.53439102,-4.2,218.8,99.6,0.057316405,1.417000055,1.475100589,46.4,-0.088341244,332.8,1,1,1,1,0,1500,1500,1000,1500,10
14:15:59,-0.099200107,0.510832489,-0.952512026,0.085987553,0.007520379,-0.766733289,AUTO,ON MISSION,-35.3632142,149.1651192,149894,5.206210136,29.58513069,-33,219,99,0.105917968,1.646000028,1.683325768,49,-0.000229039,305,1,1,1,1,0,1500,1500,1000,1500,10
14:16:00,-0.458357769,0.237259175,-1.895311165,0.003170792,0.006682864,-0.706052899,AUTO,ON MISSION,-35.36323212,149.1651308,149913.2,-20.30337372,21.20644588,-88.8,220.6,98.2,0.086283201,1.848800111,1.852625942,51.8,0.045165927,250.8,1,1,1,1,0,1500,1500,1000,1500,10
14:16:01,-0.525058568,-0.008578007,-2.365240335,0.001751939,0.004372178,-0.688880444,AUTO,ON MISSION,-35.363243,149.1651386,149942,-28.84146118,8.63435936,-118,221,98,0.057226561,1.888000131,1.882470965,52,0.04930035,224,1,1,1,1,0,1500,1500,1000,1500,10
14:16:02,-0.499651027,-0.170569286,-2.649930191,0.002749697,-0.005728166,0.055540052,AUTO,ON MISSION,-35.36326092,149.1651524,149983.4,-29.99906082,0.115396138,-132.8,222.6,97,0.015884766,1.873400068,1.870570946,51,0.025107703,207.6,1,1,1,1,0,1500,1500,1000,1500,10
14:16:03,-0.467089891,-0.218039379,-2.58488369,0.350994885,-0.558845341,-0.169278175,AUTO,ON MISSION,-35.3632716,149.1651606,149992,-28.59199142,-6.563260555,-131,223,97,0.007929687,1.869000077,1.861930847,52,-0.004616367,211,1,1,1,1,0,1500,1500,1000,1500,10
14:16:04,-0.212281886,-0.446413714,-2.604391766,0.044514114,0.056208795,-0.061034768,AUTO,ON MISSION,-35.36329568,149.1651562,149924.6,-19.58554649,-23.05397644,-129,224.4,94.6,0.074886717,2.723400116,2.862876415,57.8,-0.078258479,210.4,1,1,1,1,0,1500,1500,1000,1500,10
14:16:05,-0.165299103,-0.406011671,-2.684464216,-0.002029702,-0.009002446,-0.089768372,AUTO,ON MISSION,-35.3633132,149.1651423,149873,-18.35980797,-24.14746094,-129,225,92,0.126855463,3.300000191,3.254060507,59,0.014676457,206,1,1,1,1,0,1500,1500,1000,1500,10
14:16:06,-0.11910824,-0.432742214,-2.81800909,-0.008493964,-0.012328764,-0.101163282,AUTO,ON MISSION,-35.3633419,149.1651114,149911.4,-17.38405323,-24.81074181,-131,225,88,0.088035156,3.459800196,3.408480835,61.8,0.033264425,198.2,1,1,1,1,0,1500,1500,1000,1500,10
14:16:07,-0.087742776,-0.470034719,-2.901469707,0.004391828,-0.119870707,-0.126438692,AUTO,ON MISSION,-35.3633592,149.1650917,149932,-14.19124126,-26.70280266,-135,225,86,0.067802735,3.498000145,3.470796347,65,-0.030466784,193,1,1,1,1,0,1500,1500,1000,1500,10
14:16:08,-0.027695893,-0.523055792,-2.901157284,0.013479746,0.01209186,0.026867836,AUTO,ON MISSION,-35.3633899,149.1650562,149577.2,-12.9114027,-27.05779076,-135.4,225,81,0.422423816,3.893000221,3.936399078,87,-0.452120173,193.2,1,1,1,1,0,1500,1500,1000,1500,10
14:16:09,-0.052262969,-0.490795523,-2.883387327,-0.085167721,0.114211448,0.007386569,AUTO,ON MISSION,-35.3634094,149.1650326,149220,-13.69540501,-21.82100296,-136,225,78,0.779091775,4.127000332,4.111017227,95,-0.435900748,194,1,1,1,1,0,1500,1500,1000,1500,10
14:16:10,-0.120794728,-0.31692183,-2.853436041,-0.018076685,0.081681843,0.048773866,AUTO,ON MISSION,-35.36343994,149.1649961,149161.6,-13.30085545,-10.94783401,-136.4,225,73,0.838271487,3.522000217,3.337172318,73.8,0.310037433,196,1,1,1,1,0,1500,1500,1000,1500,10
14:16:11,-0.122205563,-0.329849482,-2.820594072,0.083626136,-0.253047794,0.00263681,AUTO,ON MISSION,-35.3634546,149.1649776,149515,-16.13159561,-18.31754875,-132,225,71,0.484257787,2.876000166,2.777607203,59,0.547694862,198,1,1,1,1,0,1500,1500,1000,1500,10
14:16:12,-0.087715866,-0.485042423,-2.800234938,0.005506529,-0.031548006,0.01537547,AUTO,ON MISSION,-35.36347814,149.1649446,149798.6,-18.08288612,-24.25033989,-130.4,225,66.8,0.200972646,3.425200129,3.540708208,70.8,-0.068915091,199,1,1,1,1,0,1500,1500,1000,1500,10
14:16:13,-0.092658401,-0.497588396,-2.785765409,0.010244632,-0.009653963,0.014286395,AUTO,ON MISSION,-35.363495,149.1649222,149694,-18.48559189,-24.05449104,-130,225,64,0.305195302,3.803000212,3.879903793,79,-0.286845297,200,1,1,1,1,0,1500,1500,1000,1500,10
14:16:14,-0.113694681,-0.434730834,-2.769018173,-0.032105458,0.094258572,0.03110328,AUTO,ON MISSION,-35.363526,149.1648832,149334.6,-17.38374176,-19.85882835,-130,225,59,0.664912093,3.95760026,3.907775879,84,-0.176611298,201,1,1,1,1,0,1500,1500,1000,1500,10
14:16:15,-0.134747803,-0.388379335,-2.742645264,0.029617483,-0.042193346,0.042585269,AUTO,ON MISSION,-35.3635442,149.1648607,149297,-16.71158218,-17.73944092,-131,225,56,0.702197254,3.695000172,3.58724761,77,0.101583742,202,1,1,1,1,0,1500,1500,1000,1500,10
14:16:16,-0.146803695,-0.431404006,-2.670954466,0.005977793,-0.01521919,0.044878338,AUTO,ON MISSION,-35.3635718,149.1648252,149381.2,-17.11536102,-20.1338913,-130,225,51.8,0.618296874,3.578200197,3.608244419,78.8,-0.004873806,206.6,1,1,1,1,0,1500,1500,1000,1500,10
14:16:17,-0.162070096,-0.424224377,-2.635356426,-0.005706916,0.020277716,0.041164167,AUTO,ON MISSION,-35.3635887,149.1648031,149361,-17.06166458,-19.92995453,-130,225,49,0.638330042,3.683000088,3.708173275,81,-0.049848333,209,1,1,1,1,0,1500,1500,1000,1500,10
14:16:18,-0.186039838,-0.404227006,-2.584551668,0.002600463,-0.000914313,0.037115737,AUTO,ON MISSION,-35.36361698,149.1647664,149344.6,-17.01820564,-19.30960579,-130,225,44,0.655136716,3.661600161,3.661342859,79.2,0.002838871,211.2,1,1,1,1,0,1500,1500,1000,1500,10
14:16:19,-0.196240157,-0.403094471,-2.557808161,-0.00123768,-0.00816216,0.030017283,AUTO,ON MISSION,-35.3636339,149.1647445,149350,-17.05342865,-19.44615746,-130,225,42,0.649394512,3.639000177,3.642054081,79,0.003752734,213,1,1,1,1,0,1500,1500,1000,1500,10
14:16:20,-0.208687696,-0.398420531,-2.520918417,-0.006315885,0.00640782,0.028380444,AUTO,ON MISSION,-35.36366196,149.1647081,149346,-16.97277985,-19.56217537,-130,224,37,0.653490222,3.660000181,3.646179485,79.8,-0.005045906,215,1,1,1,1,0,1500,1500,1000,1500,10
14:16:21,-0.217792988,-0.391753107,-2.500990868,-0.003524652,0.00039407,0.023937074,AUTO,ON MISSION,-35.3636789,149.1646862,149339,-17.01792908,-19.40444374,-130,224,34,0.660488248,3.669000149,3.646957874,80,0.00161936,216,1,1,1,1,0,1500,1500,1000,1500,10
14:16:22,-0.228235173,-0.385016763,-2.474238062,0.000335362,0.000477109,0.019992117,AUTO,ON MISSION,-35.36370724,149.1646494,149336.2,-17.01476479,-19.32260818,-130,224,30,0.663404286,3.656000137,3.633444309,79.4,0.008202698,217.6,1,1,1,1,0,1500,1500,1000,1500,10
14:16:23,-0.236484215,-0.381165266,-2.459336519,-0.007665602,0.00514646,0.019809874,AUTO,ON MISSION,-35.3637241,149.1646275,149338,-17.16890335,-19.25821877,-130,224,27,0.661357403,3.647000074,3.625452518,79,0.009896694,219,1,1,1,1,0,1500,1500,1000,1500,10
14:16:24,-0.245345184,-0.376067144,-2.438072252,-0.001953977,0.002671868,0.016461069,AUTO,ON MISSION,-35.3637523,149.1645912,149339.4,-17.21852608,-19.22255783,-130,223.2,22.4,0.660197246,3.639800167,3.623124504,79.4,0.004526397,219.8,1,1,1,1,0,1500,1500,1000,1500,10
14:16:25,-0.251455486,-0.371415943,-2.42709589,-0.007834828,0.008667823,0.015282121,AUTO,ON MISSION,-35.3637693,149.1645694,149339,-17.31846428,-19.09520912,-130,223,20,0.660234332,3.634000063,3.620115519,80,0.003412017,220,1,1,1,1,0,1500,1500,1000,1500,10
14:16:26,-0.259488726,-0.367803258,-2.41151576,-0.003817763,0.000540178,0.010025068,AUTO,ON MISSION,-35.36379752,149.1645335,149344.8,-17.45256157,-19.0679863,-130,222.4,15,0.654623044,3.613400126,3.602532911,79,0.003941043,221.2,1,1,1,1,0,1500,1500,1000,1500,10
14:16:27,-0.265438497,-0.364658475,-2.403131485,0.002215714,0.000624372,0.010346578,AUTO,ON MISSION,-35.3638145,149.1645121,149348,-17.62751007,-18.98514748,-130,222,12,0.651220679,3.608000278,3.591897488,79,0.006581038,222,1,1,1,1,0,1500,1500,1000,1500,10
14:16:28,-0.271667957,-0.355997795,-2.393513107,-0.007895029,0.039402432,0.012466516,AUTO,ON MISSION,-35.36384294,149.1644768,149350.6,-17.70767975,-18.5242466,-130,220.2,8,0.648992169,3.602400208,3.58684535,79.2,0.009646803,222.2,1,1,1,1,0,1500,1500,1000,1500,10
14:16:29,-0.278294176,-0.285723478,-2.400845528,-0.00664123,0.157247961,0.028675037,AUTO,ON MISSION,-35.3638602,149.1644557,149385,-17.56509399,-14.54098797,-131,218,5,0.614677727,3.553000212,3.469001293,73,0.169066742,222,1,1,1,1,0,1500,1500,1000,1500,10
14:16:30,-0.267106527,-0.115937836,-2.186927223,0.03868441,0.108033315,0.34418658,AUTO,ON MISSION,-35.36388422,149.164427,149883,-20.83997955,-3.965525389,-132.6,203.6,1.8,0.116650383,2.724800158,2.604118061,48.4,0.424262851,234.2,1,1,1,1,0,1500,1500,1000,1500,10
14:16:31,-0.297781676,0.063394509,-2.01972127,-0.149973497,0.19953534,0.05995262,AUTO,ON MISSION,-35.3638945,149.1644116,150170,-26.72115326,2.930959463,-134,149,0,-0.170429677,2.180000067,1.972823024,37,0.223464534,244,1,1,1,1,0,1500,1500,1000,1500,10
14:16:32,-0.355477947,0.176778862,-2.074432564,-0.018666308,0.04607954,-0.028398445,AUTO,ON MISSION,-35.36390348,149.1643987,150189,-26.67638855,5.914331341,-134.8,79.2,1,-0.189730462,0.844800037,0.686743498,37.2,-0.132222158,240.6,1,1,1,1,0,1500,1500,1000,1500,10
14:16:33,-0.34801507,0.19033809,-2.102340937,0.487955481,0.01791,-0.025705777,AUTO,ON MISSION,-35.3639068,149.1643973,150096,-25.00025558,6.51382637,-135,68,1,-0.096259765,0.43900001,0.338064045,39,-0.128468484,239,1,1,1,1,0,1500,1500,1000,1500,10
14:16:34,-0.335303754,0.189083603,-2.136616755,0.104482181,-0.002761621,-0.023383688,AUTO,ON MISSION,-35.36390926,149.1644012,150015.4,-22.33090515,6.910934734,-134.6,54,1,-0.015855468,0.430000019,0.351769435,39.4,-0.040803992,237,1,1,1,1,0,1500,1500,1000,1500,10
14:16:35,-0.334931821,0.175966039,-2.152651548,-0.44318831,-0.023778977,-0.025939943,AUTO,ON MISSION,-35.3639096,149.1644046,150005,-21.16508102,6.437561035,-134,46,1,-0.005605469,0.414000034,0.359086454,39,-0.012807801,236,1,1,1,1,0,1500,1500,1000,1500,10
14:16:36,-0.331328827,0.131909885,-2.171984148,-0.148689134,-0.028314058,-0.018572262,RTL,RETURN TO ORIGIN,-35.36390912,149.1644087,150014.4,-20.21800385,4.401813745,-133.8,38.2,0,-0.003839844,0.237800005,0.173451407,38.4,-0.00618133,235,1,1,1,1,0,1500,1500,1000,1500,10
14:16:37,-0.322823018,0.126038224,-2.181829929,0.434894562,0.006460877,-0.007743425,RTL,RETURN TO ORIGIN,-35.3639092,149.1644099,150016,-19.71840096,4.240421295,-134,13,0,-0.004921875,0.106000006,0.048129499,38,-0.003102674,235,1,1,1,1,0,1500,1500,1000,1500,10
14:16:38,-0.315904343,0.162065166,-2.213404131,0.144727999,0.037034259,-0.007888014,RTL,RETURN TO ORIGIN,-35.36390932,149.164411,150020.6,-19.35974579,6.56228714,-134.4,46,103.6,-0.011041015,0.124000004,0.191347139,38,-0.006414824,232.6,1,1,1,1,0,1500,1500,1000,1500,10
14:16:39,-0.320434332,0.181689456,-2.229928732,-0.421914846,0.031923916,-0.012127643,RTL,RETURN TO ORIGIN,-35.3639084,149.1644123,150026,-19.41586494,7.839251041,-135,46,103,-0.016455078,0.285000026,0.3606776,38,-0.013184073,232,1,1,1,1,0,1500,1500,1000,1500,10
14:16:40,-0.320344979,0.235894546,-2.262848425,-0.09139531,0.062813003,-0.008083292,RTL,RETURN TO ORIGIN,-35.36390422,149.1644172,150020,-19.85387306,11.19645348,-136.2,46,102.8,-0.010607422,0.655400038,0.751229298,39.4,-0.02818789,229.8,1,1,1,1,0,1500,1500,1000,1500,10
14:16:41,-0.318488151,0.284884274,-2.28723979,0.43193242,0.085799254,-0.001733681,RTL,RETURN TO ORIGIN,-35.3639001,149.164422,150009,-20.28884315,14.10893917,-137,46,102,0.000576172,0.980000019,1.09206152,41,-0.035760824,228,1,1,1,1,0,1500,1500,1000,1500,10
14:16:42,-0.330838144,0.386602956,-2.33428812,0.043949046,0.065098963,-0.008048846,RTL,RETURN TO ORIGIN,-35.36388816,149.1644366,149968.6,-21.3176384,19.92367439,-139.6,46,100.2,0.040917968,1.816000056,1.960110974,47,-0.050550969,225.8,1,1,1,1,0,1500,1500,1000,1500,10
14:16:43,-0.335023701,0.409265786,-2.350039244,0.086528026,0.00932621,-0.004206647,RTL,RETURN TO ORIGIN,-35.3638779,149.1644492,149940,-21.60939598,21.29729462,-140,46,99,0.069902346,2.386000156,2.458854914,51,-0.035130464,225,1,1,1,1,0,1500,1500,1000,1500,10
14:16:44,-0.330552733,0.412089145,-2.359839821,0.017160176,0.011763619,-0.004500624,RTL,RETURN TO ORIGIN,-35.3638566,149.1644745,149944,-21.16629753,21.76610107,-140,46,95.4,0.06555078,2.75440011,2.763215303,53.2,0.018079415,224.2,1,1,1,1,0,1500,1500,1000,1500,10
14:16:45,-0.321193278,0.41955629,-2.367763281,0.010371882,0.013988159,-0.009945969,RTL,RETURN TO ORIGIN,-35.3638427,149.1644903,149963,-20.57120323,22.32889366,-141,46,93,0.046982422,2.862000227,2.871353149,54,0.024762208,224,1,1,1,1,0,1500,1500,1000,1500,10
14:16:46,-0.319691879,0.420104015,-2.376880026,-0.008674498,-0.006685556,-0.008479029,RTL,RETURN TO ORIGIN,-35.36381724,149.1645165,149991.6,-20.34840164,22.52964249,-140.8,46,89.6,0.01777539,2.98360014,2.999956894,53.8,0.019320829,223,1,1,1,1,0,1500,1500,1000,1500,10
14:16:47,-0.33300367,0.410046637,-2.378526449,-0.009026548,-0.000936869,-0.0083557,RTL,RETURN TO ORIGIN,-35.3638015,149.164532,150009,-20.90988731,22.01345634,-140,46,87,0.000878906,2.987000227,2.998352528,53,0.020788958,223,1,1,1,1,0,1500,1500,1000,1500,10
14:16:48,-0.354075003,0.394234109,-2.379161835,-0.008325146,-0.006961515,-0.00629784,RTL,RETURN TO ORIGIN,-35.3637765,149.1645578,150027.4,-21.80895119,21.12374191,-140,47,83.6,-0.017908203,2.853800058,2.86253705,52,0.004936937,223,1,1,1,1,0,1500,1500,1000,1500,10
14:16:49,-0.362939805,0.387099832,-2.380658865,-0.023861229,0.005761489,-0.004968969,RTL,RETURN TO ORIGIN,-35.3637624,149.1645734,150026,-22.17072678,20.74383736,-140,47,82,-0.016210938,2.782000065,2.807121754,51,-0.00564847,223,1,1,1,1,0,1500,1500,1000,1500,10
14:16:50,-0.369493461,0.380631292,-2.384320498,-0.000650597,-0.000219096,-0.003299813,RTL,RETURN TO ORIGIN,-35.36374032,149.1645996,150016.8,-22.43088112,20.46051788,-140,47,78,-0.007259766,2.711400127,2.759212923,51.8,-0.009971983,223,1,1,1,1,0,1500,1500,1000,1500,10
14:16:51,-0.37140891,0.378426671,-2.387319803,0.002455335,0.003087335,-0.004565456,RTL,RETURN TO ORIGIN,-35.3637275,149.1646155,150012,-22.48551178,20.40004921,-140,47,76,-0.002089844,2.698000193,2.748603582,52,-0.007651671,223,1,1,1,1,0,1500,1500,1000,1500,10
14:16:52,-0.375131011,0.37458362,-2.391438055,-0.000335642,-0.000520007,-0.003058526,RTL,RETURN TO ORIGIN,-35.36370636,149.1646423,150011.8,-22.59773407,20.2743679,-140,47,72.6,-0.002203125,2.688250065,2.726317346,52,-0.002976426,222.5,1,1,1,1,0,1500,1500,1000,1500,10
14:16:53,-0.377428442,0.372481555,-2.394088507,-0.005831237,-0.006876158,-0.003157212,RTL,RETURN TO ORIGIN,-35.3636939,149.1646583,150012,-22.65206718,20.21293831,-140,47,71,-0.002792969,2.68050015,2.713636875,52,-0.002711036,222,1,1,1,1,0,1500,1500,1000,1500,10
14:16:54,-0.377611446,0.371943957,-2.398442078,-0.002535328,-0.002504631,-0.003761183,RTL,RETURN TO ORIGIN,-35.36367545,149.1646823,150012.25,-22.59812164,20.27389574,-140,47,67.75,-0.002766113,2.677250147,2.698092043,52,-0.002532601,222,1,1,1,1,0,1500,1500,1000,1500,10
14:16:55,-0.378985345,0.370149136,-2.400488615,0.005742344,-0.002730963,-3.88E-05,RTL,RETURN TO ORIGIN,-35.36366305,149.1646985,150012,-22.63698101,20.23013973,-140,47,65.5,-0.002387695,2.676000118,2.702441454,52,-0.003124314,222,1,1,1,1,0,1500,1500,1000,1500,10
14:16:56,-0.379761297,0.369419646,-2.404429865,-0.006078795,-0.001374013,-0.002082034,RTL,RETURN TO ORIGIN,-35.36364036,149.1647279,150012.8,-22.59722614,20.27468395,-140,47,62.25,-0.002988281,2.672500134,2.706772923,52,-0.00434287,222,1,1,1,1,0,1500,1500,1000,1500,10
14:16:57,-0.380668193,0.368212521,-2.406441927,-0.00130588,0.00665397,-0.00202465,RTL,RETURN TO ORIGIN,-35.363628,149.164744,150015,-22.61693001,20.25242615,-140,47,60.5,-0.004892578,2.674500108,2.705508947,52,-0.002715507,222,1,1,1,1,0,1500,1500,1000,1500,10
14:16:58,-0.380733621,0.368122238,-2.410280466,-0.001194888,0.001589919,-0.001534525,RTL,RETURN TO ORIGIN,-35.36360726,149.1647708,150016.2,-22.55819435,20.31882935,-140,47,56.6,-0.006847656,2.679000139,2.717134333,52,-0.008349592,221.2,1,1,1,1,0,1500,1500,1000,1500,10
14:16:59,-0.380574435,0.368204594,-2.412326336,-0.000527286,-0.002095266,-0.003250272,RTL,RETURN TO ORIGIN,-35.3635948,149.1647869,150018,-22.52427673,20.35682106,-140,47,55,-0.008730468,2.687000036,2.720279932,52,-0.00912687,221,1,1,1,1,0,1500,1500,1000,1500,10
14:17:00,-0.382046586,0.366788083,-2.415117216,0.001823161,0.002910562,-0.002200325,RTL,RETURN TO ORIGIN,-35.36357398,149.1648137,150021,-22.54762697,20.3307066,-140,47,51.75,-0.01189209,2.688750148,2.720248103,52,-0.011269785,221,1,1,1,1,0,1500,1500,1000,1500,10
14:17:01,-0.380678236,0.368541181,-2.417323828,1.50E-05,-5.91E-06,0.002447899,RTL,RETURN TO ORIGIN,-35.3635615,149.1648299,150020,-22.4503746,20.43874264,-140,47.5,49.5,-0.010664062,2.693000078,2.729675174,52,-0.015073708,221,1,1,1,1,0,1500,1500,1000,1500,10
14:17:02,-0.381727839,0.367471707,-2.419852352,-0.001656274,0.000364237,-0.001919346,RTL,RETURN TO ORIGIN,-35.36354054,149.1648567,150021.2,-22.43639755,20.45453215,-140,48,46.25,-0.0115625,2.709500074,2.732642055,52,-0.013543051,221,1,1,1,1,0,1500,1500,1000,1500,10
14:17:03,-0.382230133,0.367026895,-2.42122817,-0.019699421,-0.012884382,-0.002027965,RTL,RETURN TO ORIGIN,-35.3635279,149.1648731,150022,-22.4226923,20.46970177,-140,48,44.5,-0.012407226,2.717500091,2.741868377,52,-0.013500522,221,1,1,1,1,0,1500,1500,1000,1500,10
14:17:04,-0.382833534,0.366378373,-2.42350831,-0.001915437,-0.001515921,-0.000792057,RTL,RETURN TO ORIGIN,-35.3635068,149.1649,150024.2,-22.41919899,20.47363663,-140,48,40.75,-0.014638671,2.717750192,2.739075601,52,-0.012104763,221,1,1,1,1,0,1500,1500,1000,1500,10
14:17:05,-0.383427143,0.365728647,-2.425075054,0.001644506,0.001573164,-0.00012645,RTL,RETURN TO ORIGIN,-35.3634941,149.1649163,150025,-22.41509438,20.47817612,-140,48,38.5,-0.015117187,2.718000174,2.735239267,52,-0.011656947,221,1,1,1,1,0,1500,1500,1000,1500,10
14:17:06,-0.383810717,0.365546423,-2.426688623,-0.001856922,0.00100775,-0.000355103,RTL,RETURN TO ORIGIN,-35.3634752,149.1649405,150022.5,-22.4024725,20.49202967,-140,48,35.25,-0.01270996,2.714000165,2.73829484,52,-0.012584703,220.25,1,1,1,1,0,1500,1500,1000,1500,10
14:17:07,-0.384063542,0.365466952,-2.428262711,-0.002094956,0.003293023,-0.003487996,RTL,RETURN TO ORIGIN,-35.3634626,149.1649567,150020,-22.38811779,20.5079298,-140,48,33.5,-0.010615234,2.716500163,2.740593076,52,-0.01086073,220,1,1,1,1,0,1500,1500,1000,1500,10
14:17:08,-0.384230569,0.364685498,-2.429252744,-0.003925324,-0.005247896,-0.001426412,RTL,RETURN TO ORIGIN,-35.36344145,149.1649837,150019,-22.39697933,20.49786854,-140,49,30,-0.009521484,2.720500171,2.73974371,52,-0.009040168,220,1,1,1,1,0,1500,1500,1000,1500,10
14:17:09,-0.386183515,0.362652242,-2.4291991,-0.009299505,-0.002530937,-0.001766026,RTL,RETURN TO ORIGIN,-35.36342875,149.1649999,150018,-22.48608494,20.39937782,-140,49,28,-0.008540038,2.71600008,2.733428836,52,-0.006996752,220,1,1,1,1,0,1500,1500,1000,1500,10
14:17:10,-0.387145631,0.361797884,-2.430886984,0.002641185,0.001470835,7.38E-05,RTL,RETURN TO ORIGIN,-35.3634077,149.1650269,150016.5,-22.49278545,20.39195251,-140,49,24.75,-0.007033691,2.701500177,2.724644601,52,-0.006428125,220,1,1,1,1,0,1500,1500,1000,1500,10
14:17:11,-0.387518346,0.361403257,-2.431312084,-3.11E-05,-0.001152309,0.000475009,RTL,RETURN TO ORIGIN,-35.3633951,149.165043,150014.5,-22.50688171,20.37628937,-140,49.5,22.5,-0.005029297,2.700500131,2.731869578,52,-0.007255868,220,1,1,1,1,0,1500,1500,1000,1500,10
14:17:12,-0.388573319,0.360051006,-2.432544053,-0.004721311,-0.001096979,-0.002971612,RTL,RETURN TO ORIGIN,-35.3633742,149.16507,150014.5,-22.54154444,20.33743238,-140,50,19,-0.005065918,2.699750066,2.720542789,52,-0.00524034,220,1,1,1,1,0,1500,1500,1000,1500,10
14:17:13,-0.389544547,0.358849689,-2.432800531,0.001805007,0.001658595,-0.00040326,RTL,RETURN TO ORIGIN,-35.3633617,149.1650862,150015,-22.58612061,20.28745079,-140,51,17,-0.005473633,2.698000073,2.7117275,52,-0.004475384,220,1,1,1,1,0,1500,1500,1000,1500,10
14:17:14,-0.389822982,0.359155215,-2.434012294,-0.000167308,1.65E-05,-0.001361323,RTL,RETURN TO ORIGIN,-35.36334098,149.1651133,150014,-22.56347752,20.31295252,-140,51.75,13.75,-0.004501953,2.696500123,2.711962998,52,-0.006069517,220,1,1,1,1,0,1500,1500,1000,1500,10
14:17:15,-0.390855372,0.357975826,-2.434500456,-0.002616952,-0.0007611,-0.000965013,RTL,RETURN TO ORIGIN,-35.36332855,149.1651296,150014.5,-22.6069479,20.26405811,-140,52.5,11.5,-0.005014648,2.69750011,2.711038232,52,-0.005409823,220,1,1,1,1,0,1500,1500,1000,1500,10
14:17:16,-0.39381139,0.354725212,-2.433794737,-0.005782572,-0.002132361,0.0007736,RTL,RETURN TO ORIGIN,-35.36330798,149.1651568,150016,-22.75763845,20.09256744,-140,54.75,8.25,-0.006606445,2.679750085,2.694272339,52,-0.004396287,220,1,1,1,1,0,1500,1500,1000,1500,10
14:17:17,-0.397798419,0.347713813,-2.431704283,-0.013155113,-0.035671154,-0.002048742,RTL,RETURN TO ORIGIN,-35.3632958,149.1651731,150017,-22.97565746,19.66332817,-139,56.5,6.5,-0.007338867,2.666500092,2.67186451,52,-0.001258745,220,1,1,1,1,0,1500,1500,1000,1500,10
14:17:18,-0.407341592,0.274313599,-2.399945676,-0.003968154,-0.064267257,0.000820962,RTL,RETURN TO ORIGIN,-35.3632777,149.1651994,150045,-23.39482355,15.57392311,-137.5,63.25,3.5,-0.035444336,2.36375016,2.292324483,47.75,0.027418854,222,1,1,1,1,0,1500,1500,1000,1500,10
14:17:19,-0.401550829,0.228167132,-2.380554199,0.006738084,-0.070530947,-0.000397658,RTL,RETURN TO ORIGIN,-35.36326905,149.1652135,150068.5,-22.99372196,12.96286535,-136.5,70.5,2,-0.059238281,2.000000119,1.92083317,44.5,0.021786983,223,1,1,1,1,0,1500,1500,1000,1500,10
14:17:20,-0.382717595,0.15159687,-2.349318624,0.031348737,-0.052867184,-0.000580054,RTL,RETURN TO ORIGIN,-35.3632597,149.1652313,150088.5,-21.89304686,8.616215825,-134.5,122.25,0,-0.078981932,1.271250069,1.193290383,40,-0.003239881,224.75,1,1,1,1,0,1500,1500,1000,1500,10
14:17:21,-0.371997982,0.119278654,-2.337165952,0.019339971,-0.044084826,7.30E-05,RTL,RETURN TO ORIGIN,-35.36325645,149.1652386,150082.5,-21.21615696,6.740155458,-134,187.5,0,-0.072719723,0.860500038,0.802723259,39,-0.024295613,225.5,1,1,1,1,0,1500,1500,1000,1500,10
14:17:22,-0.35667824,0.074788829,-2.320539415,0.014401,-0.028178289,-0.000143771,RTL,RETURN TO ORIGIN,-35.36325433,149.165245,150043.5,-20.380723,4.162260056,-133,217.25,1,-0.033774414,0.331750013,0.287034836,38.5,-0.031708637,226.75,1,1,1,1,0,1500,1500,1000,1500,10
14:17:23,-0.34673962,0.059164371,-2.31564784,0.008578897,-0.009221513,0.001373345,RTL,RETURN TO ORIGIN,-35.36325435,149.1652465,150027.5,-19.94372749,3.302460551,-132,222.5,1,-0.018002929,0.147500008,0.091632746,38,-0.015670291,227,1,1,1,1,0,1500,1500,1000,1500,10
14:17:24,-0.340511903,0.064926366,-2.317944765,-0.057870307,0.003649595,-0.001475797,RTL,RETURN TO ORIGIN,-35.3632558,149.1652464,150019.5,-19.52608299,3.606755614,-133,228.25,1,-0.010270996,0.167500008,0.122889573,38,-0.006799847,227,1,1,1,1,0,1500,1500,1000,1500,10
14:17:25,-0.341195971,0.059667796,-2.315906048,-0.063604563,-0.008280028,-0.001393582,RTL,RETURN TO ORIGIN,-35.36325675,149.1652458,150016.5,-19.35903931,3.296712637,-132,230.5,0,-0.007036133,0.170000009,0.144283772,38,-0.007216454,227,1,1,1,1,0,1500,1500,1000,1500,10
14:17:26,-0.336330935,0.05885013,-2.31616044,0.001356993,0.003806843,0.000239487,RTL,RETURN TO ORIGIN,-35.36325847,149.165244,150013.5,-19.20706463,3.306195796,-132,234.5,0,-0.003974609,0.211250011,0.201674372,38,-0.004232676,227,1,1,1,1,0,1500,1500,1000,1500,10
14:17:27,-0.328265369,0.062724596,-2.317419291,0.385524683,0.006222324,-0.002675786,RTL,RETURN TO ORIGIN,-35.36325955,149.1652428,150013,-19.17216301,3.521674514,-133,238.5,0,-0.003530273,0.206000008,0.20040527,38,-0.004837264,227,1,1,1,1,0,1500,1500,1000,1500,10
