time_stamp,airspeed,groundspeed,throttle,climb,heading,GPS_status,Gyro_status,Accel_status,Baro_status,PreArm_error,satellites_visible,lat,lon,relative_alt,nav_roll,nav_pitch,nav_bearing,target_bearing,wp_dist,alt_error,chan1_raw,chan2_raw,chan3_raw,chan4_raw,roll,pitch,yaw,rollspeed,pitchspeed,yawspeed,MODE,PHASE
22:46:22,0,0.027771007,0,0.015832327,1,1,1,1,1,0,10,-35.3632621,149.1652375,7,-0.000233116,0.000245495,1,0,0,-0.029281789,1500,1500,1000,1500,1.70E-05,3.141592654,0.027666086,0.000238961,0.000360626,0.002262596,STABILIZE,INITIALISATION
22:46:23,0,0.029331533,0,0.007734557,1,1,1,1,1,0,10,-35.3632622,149.1652375,3.5,-0.000233116,0.000245495,1,0,0,-0.025444952,1500,1500,1000,1500,-2.88E-05,3.141592654,0.027325558,0.000234268,0.00026052,0.002324549,STABILIZE,INITIALISATION
22:46:24,0,0.025769468,0,0.002952189,1,1,1,1,1,0,10,-35.3632622,149.1652375,0,-0.000233115,0.000245495,1,0,0,-0.01941062,1500,1500,1000,1500,-0.000332812,3.141592654,0.026553847,0.000324166,0.00026182,0.002093649,STABILIZE,INITIALISATION
22:46:25,0,0.023767889,0,0.001124411,1,1,1,1,1,0,10,-35.3632622,149.1652375,0,-0.000233115,0.000245495,1,0,0,-0.015930763,1500,1500,1000,1500,-0.000559255,3.141592654,0.026111491,0.000265833,0.000247997,0.002096028,STABILIZE,INITIALISATION
22:46:31,0,0.021226736,0,-0.007367539,1,1,1,1,1,0,10,-35.36326215,149.1652375,0,-0.000233116,0.000245496,1,0,0,0.005231584,1500,1500,1000,1500,-0.000854568,3.141592654,0.023623886,0.000221355,0.000164224,0.001599589,STABILIZE,INITIALISATION
22:46:35,0,0.020492281,0,-0.005574501,1,1,1,1,1,0,10,-35.3632622,149.1652375,0,-0.000233118,0.000245498,1,0,0,0.008759262,1500,1500,1000,1500,-0.00095513,3.141592654,0.022537958,0.000320927,0.000251327,0.001627069,STABILIZE,INITIALISATION
22:46:36,0,0.01852946,0,-0.005066322,1,1,1,1,1,0,10,-35.3632622,149.1652375,0,-0.000233118,0.000245498,1,140,0,0,1500,1500,1000,1500,-0.000967716,3.141592654,0.022274167,0.000195377,0.000115494,0.001583851,AUTO,TAKEOFF
22:46:37,0,0.008199584,0,0.006202918,1,1,1,1,1,0,10,-35.3632621,149.1652375,2.25,-0.000233119,0.000245498,1,137.5,0,0,1500,1500,1000,1500,-0.000903853,3.141592654,0.022088251,0.000277153,0.000298131,0.001533382,AUTO,TAKEOFF
22:46:38,0,0.001773809,0,0.006406441,1,1,1,1,1,0,10,-35.3632621,149.1652375,6,-0.000233119,0.000245498,1,139.5,0,0,1500,1500,1000,1500,-0.000629872,3.141592654,0.021797848,0.000290169,0.000268484,0.001483118,AUTO,TAKEOFF
22:46:39,0,0.003362065,13,0.003927354,1,1,1,1,1,0,10,-35.3632621,149.1652375,6,-0.047056633,0.008288982,1,141,0,0.061900546,1500,1500,1000,1500,-0.00044097,3.141592654,0.021596862,0.000318081,0.000261678,0.001462168,AUTO,TAKEOFF
22:46:40,0.006,0.010788889,54,0.812649012,1,1,1,1,1,0,10,-35.3632621,149.1652375,276.5,-0.158700772,0.110501703,1,145,0,0.383623764,1500,1500,1000,1500,0.002025284,3.141592654,0.021387068,-0.002056577,0.004026631,0.00190105,AUTO,TAKEOFF
22:46:41,0.018000001,0.044765264,66.25,1.374290913,1,1,1,1,1,0,10,-35.36326208,149.1652375,1170.5,-0.681914475,0.254994687,1,159.5,0,0.218526376,1500,1500,1000,1500,0.015570061,3.141592654,0.020889345,0.03456219,-0.004778871,0.001546912,AUTO,TAKEOFF
22:46:42,0.330000013,0.475815997,83.5,1.471316576,179.5,1,1,1,1,0,10,-35.3632616,149.1652401,3056.5,-9.917613029,2.231029153,0.5,246.5,0,-0.100616299,1500,1500,1000,1500,0.055545999,3.141592654,-0.002497497,-0.04584071,0.050952737,-0.063473252,AUTO,TAKEOFF
22:46:43,0.502750024,0.461973511,80.75,1.474504203,357,1,1,1,1,0,10,-35.36326093,149.1652441,4193.5,-13.25645113,0.775312312,0,253.75,0,-0.201032862,1500,1500,1000,1500,-0.015497622,3.141592654,-0.043434316,-0.074646401,-0.023914473,-0.023975487,AUTO,TAKEOFF
22:46:44,0.135500006,0.29625608,76.5,1.483680427,352.5,1,1,1,1,0,10,-35.3632598,149.1652463,6107.5,-7.67723012,3.413822055,0,249,0,-0.387930289,1500,1500,1000,1500,-0.083169021,3.141592654,-0.119540799,0.042836538,0.004302192,-0.055600196,AUTO,TAKEOFF
22:46:45,0.625000022,0.690011606,78.25,1.483526856,351.25,1,1,1,1,0,10,-35.36326065,149.165242,7253.5,0.014278084,-0.188579112,0,242.75,0,-0.465064079,1500,1500,1000,1500,-0.038222159,3.141592654,-0.143886738,0.0681916,0.006573318,-0.020202382,AUTO,TAKEOFF
22:46:46,0.744500011,0.659014076,85,1.511382401,352,1,1,1,1,0,10,-35.3632653,149.1652335,9183,3.457029223,-8.966472626,-1,48.5,0,-0.462399274,1500,1500,1000,1500,0.036714366,3.141592654,-0.132186685,-0.013877702,-0.095634362,0.086252898,AUTO,TAKEOFF
22:46:47,0.409000017,0.291866872,84.5,1.526290983,355.5,1,1,1,1,0,10,-35.36326802,149.1652317,10357.75,2.926772147,-9.38646841,-1,40.25,0,-0.458469845,1500,1500,1000,1500,0.04686069,3.141592654,-0.065016969,0.038576875,-0.047389179,0.07599004,AUTO,TAKEOFF
22:46:48,0.646500051,0.8922562,87.5,1.434290648,358.5,1,1,1,1,0,10,-35.36326615,149.1652347,12281.5,-3.634812236,1.28052631,-0.5,31.5,0,-0.429468989,1500,1500,1000,1500,0.054715153,3.141592654,-0.015392493,-0.121489396,0.079809554,-0.054687847,AUTO,TAKEOFF
22:46:49,1.001750022,0.942065477,87,1.492263973,353.25,1,1,1,1,0,10,-35.3632607,149.165239,13401.75,-3.655675858,8.456433058,-1,166.25,0,-0.375562437,1500,1500,1000,1500,-0.010886415,3.141592654,-0.105668872,-0.035150876,0.081285685,-0.117207391,AUTO,TAKEOFF
22:46:50,0.424000025,0.307360545,87,1.524184763,347.5,1,1,1,1,0,10,-35.36325405,149.165242,15351.5,-1.548683316,9.711674213,-1,202,0.5,-0.36754334,1500,1500,1000,1500,-0.08336639,3.141592654,-0.205424495,0.018767181,0.035738124,-0.053178854,AUTO,TAKEOFF
22:46:51,0.526750036,0.620427646,87.75,1.503503233,346.5,1,1,1,1,0,10,-35.36325435,149.1652386,16514,5.685100764,6.899292648,-1.5,183.75,0.25,-0.355654597,1500,1500,1000,1500,-0.046840946,3.141592654,-0.226933882,0.063662839,0.0079875,-0.019005407,AUTO,TAKEOFF
22:46:52,0.942000031,0.959782511,88,1.510836363,346.5,1,1,1,1,0,10,-35.36326125,149.1652317,18434,7.640353203,-5.932334185,-3.5,102,0,-0.318517461,1500,1500,1000,1500,0.045359546,3.141592654,-0.226713859,0.078747034,-0.029577715,0.005101125,AUTO,TAKEOFF
22:46:53,0.956750035,0.992180511,89,1.506843269,347.5,1,1,1,1,0,10,-35.36326743,149.1652321,19597,1.811004251,-9.271615982,-4,43.75,0,-0.302809753,1500,1500,1000,1500,0.088656541,3.141592654,-0.210499123,0.020872453,-0.100981041,0.056085211,AUTO,TAKEOFF
22:46:54,0.947000027,1.071062863,93,1.435213983,354.5,1,1,1,1,0,10,-35.36327125,149.1652422,21504,-8.675524235,-3.603912294,-4.5,336.5,1,-0.248222657,1500,1500,1000,1500,-0.005401799,3.141592654,-0.091192696,-0.181421928,0.06586401,-0.020396929,AUTO,TAKEOFF
22:46:55,1.193750054,1.203222245,94,1.449099511,347.25,1,1,1,1,0,10,-35.36326483,149.1652462,22605,-7.052720189,5.465892076,-5.75,286.5,0,-0.171697386,1500,1500,1000,1500,-0.103291312,3.141592654,-0.217283376,-0.088163555,0.136158673,-0.18206799,AUTO,TAKEOFF
22:46:56,1.338500082,1.380825877,95,1.47463268,338,1,1,1,1,0,10,-35.36325405,149.1652376,24472.5,5.324772358,8.12453413,-6.5,179.5,0.5,-0.087603755,1500,1500,1000,1500,-0.095530268,3.141592654,-0.374654844,0.052548844,0.082194526,-0.052733488,AUTO,TAKEOFF
22:46:57,1.444750071,1.452383041,96,1.487547189,336.5,1,1,1,1,0,10,-35.36325333,149.1652261,25606,8.834797382,3.985207766,-7,135.25,1,-0.04553833,1500,1500,1000,1500,-0.045932319,3.141592654,-0.402208082,0.079944829,0.069199654,-0.020743758,AUTO,TAKEOFF
22:46:58,1.504500091,1.604888976,98.5,1.451884389,336,1,1,1,1,0,10,-35.3632635,149.165212,27491.5,8.860589981,-4.27443707,-8.5,86.5,2,-0.001046143,1500,1500,1000,1500,0.070281267,3.141592654,-0.408638895,0.101376079,-0.025377911,0.009476927,AUTO,TAKEOFF
22:46:59,1.779000103,1.882595927,100,1.401878059,336.75,1,1,1,1,0,10,-35.36327453,149.1652142,28580,4.921122432,-8.265502691,-9,57,2,-0.001316528,1500,1500,1000,1500,0.131374514,3.141592654,-0.395125724,0.058383667,-0.123578112,0.051103317,AUTO,TAKEOFF
22:47:00,2.096500158,2.152516842,100,1.376356304,343,1,1,1,1,0,10,-35.36328655,149.1652355,30359,-4.730839729,-8.528057575,-9,183.5,2,-0.004556885,1500,1500,1000,1500,0.106395587,3.141592654,-0.289812714,-0.127379041,-0.24077449,0.23927179,AUTO,TAKEOFF
22:47:01,2.282000124,2.397262156,100,1.270034522,345.5,1,1,1,1,0,10,-35.36328013,149.165251,31367,-8.922346354,-1.81654416,-10,326.75,2,-0.00520813,1500,1500,1000,1500,-0.043281953,3.141592654,-0.243426546,-0.20371563,0.109353136,-0.087845585,AUTO,TAKEOFF
22:47:02,2.394000053,2.250510454,97,1.485476673,337,1,1,1,1,0,10,-35.363255,149.1652571,33050,-4.907543898,8.522902012,-12,245,1.5,-0.004082031,1500,1500,1000,1500,-0.117738448,3.141592654,-0.394349754,0.040900396,0.190703839,0.007510997,AUTO,TAKEOFF
22:47:03,1.734000087,1.588048071,94.5,1.597321838,336.5,1,1,1,1,0,10,-35.36324478,149.1652489,34246,-0.944583423,9.752239466,-12,207.25,2,-0.033093261,1500,1500,1000,1500,-0.095637379,3.141592654,-0.401779287,0.036062634,0.111733306,0.000788825,AUTO,TAKEOFF
22:47:04,1.405500114,1.66015327,100,1.369424522,336,1,1,1,1,0,10,-35.36324695,149.1652335,36179,8.496156693,2.468612473,-12.5,166.5,1,-0.018425292,1500,1500,1000,1500,-0.011213031,3.141592654,-0.409551084,0.097644813,0.00429925,0.008404885,AUTO,TAKEOFF
22:47:05,2.181500047,2.302360892,99.75,1.281897426,339.5,1,1,1,1,0,10,-35.3632602,149.1652308,37168.5,5.443575025,-7.457034588,-14,101.75,0.25,-0.003878784,1500,1500,1000,1500,0.032069515,3.141592654,-0.34872625,0.047626547,-0.157373533,0.110860951,AUTO,TAKEOFF
22:47:06,2.215500116,2.047892451,96,1.547483206,345.5,1,1,1,1,0,10,-35.36328475,149.1652392,38964.5,-0.91151011,-9.881445885,-14,176.5,2,-0.006464844,1500,1500,1000,1500,0.115105651,3.141592654,-0.240294777,0.006913103,-0.182352819,0.110479224,AUTO,TAKEOFF
22:47:07,1.722000062,1.781622589,98.5,1.458279163,349.75,1,1,1,1,0,10,-35.3632899,149.1652517,40132,-5.193858325,-8.139736891,-14.25,337.25,3,-0.006741333,1500,1500,1000,1500,0.077612785,3.141592654,-0.172429856,-0.095820234,-0.098020541,0.067271769,AUTO,TAKEOFF
22:47:08,2.343500018,2.436263561,100,1.253636241,342,1,1,1,1,0,10,-35.3632748,149.1652689,41789.5,-9.653116703,1.10244647,-16,295.5,3,-0.004614258,1500,1500,1000,1500,-0.13630306,3.141592654,-0.310505748,-0.193423957,0.138353713,-0.221364155,AUTO,TAKEOFF
22:47:09,2.532000184,2.508994937,99.5,1.350184739,335.25,1,1,1,1,0,10,-35.3632589,149.1652642,42775,-5.741580248,7.377125144,-16.75,259,2,-0.001871338,1500,1500,1000,1500,-0.162894081,3.141592654,-0.425359905,0.02380734,0.21602365,-0.041233629,AUTO,TAKEOFF
22:47:10,2.085000038,2.062594771,95,1.493895292,333,1,1,1,1,0,10,-35.36324565,149.1652397,44626.5,5.396245956,7.967091322,-17,184.5,1,-0.006689453,1500,1500,1000,1500,-0.099714864,3.141592654,-0.463930428,0.081528675,0.122325294,-0.001451183,AUTO,TAKEOFF
22:47:11,2.194250107,2.385922253,95.25,1.28050822,334,1,1,1,1,0,10,-35.3632531,149.1652255,45687,9.076634407,0.095926911,-18,131.75,1,-0.005516357,1500,1500,1000,1500,-0.035546116,3.141592654,-0.445637383,0.058364892,-0.040427375,0.073452007,AUTO,TAKEOFF
22:47:12,2.997000098,2.970344782,80.5,1.35810405,341.5,1,1,1,1,0,10,-35.3632823,149.1652161,47245.5,6.246773243,-7.743457079,-19,41,2.5,-0.034721679,1500,1500,1000,1500,0.071904372,3.141592654,-0.307156533,0.124357797,-0.146608561,0.090951744,AUTO,TAKEOFF
22:47:13,2.551750124,2.323479831,60,1.541884959,346.25,1,1,1,1,0,10,-35.3632996,149.1652208,48376.5,4.344506502,-11.50351214,-19.75,20.5,4,-0.34443726,1500,1500,1000,1500,0.105674582,3.141592654,-0.229160789,-0.034402067,-0.439261064,0.181515267,AUTO,TAKEOFF
22:47:14,2.106000066,2.86620152,53.5,0.385104775,355,1,1,1,1,0,10,-35.36329915,149.165234,49797,0.352627501,-9.024181008,-20,4.5,3.5,-0.684069812,1500,1500,1000,1500,-0.044471644,3.141592654,-0.075629205,0.026346087,0.737452745,0.066485615,AUTO,TAKEOFF
22:47:15,3.170750201,2.866303802,35,0.458005875,352.5,1,1,1,1,0,10,-35.36327823,149.1652352,50141.75,-1.915802628,9.380924225,-20.5,8.75,1.25,-0.584160149,1500,1500,1000,1500,0.009275263,3.141592654,-0.119327677,0.142058616,0.370083256,-0.070755948,AUTO,TAKEOFF
22:47:16,0.906500012,0.482303932,33.5,-0.225751519,350,1,1,1,1,0,10,-35.36325835,149.1652355,50302,-3.940291643,10.95151472,-20.5,226,18,-0.323745102,1500,1500,1000,1500,-0.028652512,3.141592654,-0.161920473,-0.961791813,0.029889468,-0.060028413,AUTO,TAKEOFF
22:47:17,0.510250024,0.519178681,35.75,-0.199567897,349,1,1,1,1,0,10,-35.36325925,149.1652362,50100.25,-3.919302285,3.30233714,-20.5,300,36,-0.100889891,1500,1500,1000,1500,-0.04368696,3.141592654,-0.180262208,0.509851352,-0.270659961,-0.042534824,AUTO,TAKEOFF
22:47:18,0.480000019,0.589073479,36,0.014568663,347,1,1,1,1,0,10,-35.3632642,149.165233,49966,-2.044677496,-5.034763813,-25,301,36,0.032094724,1500,1500,1000,1500,-0.034305734,3.141592654,-0.29888957,0.396003611,-0.030460115,-0.538607761,AUTO,TAKEOFF
22:47:19,0.725000039,0.969125539,36.5,0.00796809,321,1,1,1,1,0,10,-35.3632627,149.1652267,49959,0.832482301,-5.732470989,-47.75,301,35.75,0.038293457,1500,1500,1000,1500,0.011556286,3.141592654,-0.817379236,-0.160915713,0.003906393,-0.496143366,AUTO,TAKEOFF
22:47:20,1.440000057,1.700682402,38,0.014253272,305.5,1,1,1,1,0,10,-35.36325395,149.1652093,49962.5,2.264742494,-6.678643227,-59,301,34.5,0.04064697,1500,1500,1000,1500,0.018772945,3.141592654,-0.911097527,0.18739897,-0.034446076,0.008457497,AUTO,TAKEOFF
22:47:21,2.275500059,2.55079186,39.5,-0.004410455,307,1,1,1,1,0,10,-35.36324498,149.165193,49959,2.097513366,-8.40772028,-59,301,32,0.039417968,1500,1500,1000,1500,0.014177216,3.141592654,-0.913692757,-0.059115257,0.007368735,-0.004439438,AUTO,TAKEOFF
22:47:22,3.273000161,3.445161899,40,0.015716156,306.3333333,1,1,1,1,0,10,-35.3632258,149.1651564,49974.5,2.769270539,-7.354551792,-59,301,27.5,0.024929199,1500,1500,1000,1500,0.030989655,3.141592654,-0.929930598,0.255383984,0.015399394,-0.042034559,AUTO,TAKEOFF
22:47:23,3.756666899,3.888263385,40.33333333,0.010547668,306,1,1,1,1,0,10,-35.3632127,149.16513,49986.25,3.157844067,-7.321552912,-59,301,25.33333333,0.014698893,1500,1500,1000,1500,0.039470459,3.141592654,-0.936430767,-0.009507485,0.002643042,-0.003087479,AUTO,TAKEOFF
22:47:24,4.14800024,4.232254823,40.33333333,0.008930989,305.3333333,1,1,1,1,0,10,-35.3631907,149.1650859,49995.5,3.202031136,-6.846139908,-59,301,21.66666667,0.005880534,1500,1500,1000,1500,0.045648254,3.141592654,-0.943651885,0.215277577,0.023264939,-0.015410319,AUTO,TAKEOFF
22:47:25,4.348250151,4.370654821,39.25,0.018111754,305,1,1,1,1,0,10,-35.36317548,149.1650554,50005,3.211877167,-5.424371123,-59,300,17,-0.005688476,1500,1500,1000,1500,0.046589025,3.141592654,-0.947825059,-0.028924196,0.014797748,-0.014256686,AUTO,TAKEOFF
22:47:26,4.343000412,4.305204391,38,0.022293912,305,1,1,1,1,0,10,-35.3631509,149.1650052,50013,3.701263428,-3.691444874,-59,300,12,-0.013540039,1500,1500,1000,1500,0.060098723,3.141592654,-0.956008792,0.050541058,0.037216757,0.007166115,AUTO,TAKEOFF
22:47:27,4.157500267,4.057947278,36.75,0.022686088,305,1,1,1,1,0,10,-35.36313885,149.1649806,50024,3.27921623,-2.064831823,-59,300,9.5,-0.024415283,1500,1500,1000,1500,0.055761075,3.141592654,-0.958788355,0.205371847,0.045958178,-0.015008128,AUTO,TAKEOFF
22:47:28,3.577000141,3.370225549,35.5,0.014527313,304,1,1,1,1,0,10,-35.36312165,149.1649452,50028,2.311293721,1.168022454,-59.5,300.5,5.5,-0.028723144,1500,1500,1000,1500,0.039496425,3.141592654,-0.966956526,-0.202872742,0.053062092,-0.013262855,AUTO,TAKEOFF
22:47:29,2.552500129,2.259046823,34.5,-0.000246541,299.75,1,1,1,1,0,10,-35.36310862,149.1649145,50020.2,-0.829675,5.369799316,-63.5,303.5,2.5,-0.023863525,1500,1500,1000,1500,-0.013385296,3.141592654,-1.067808282,0.006474343,0.056966269,-0.197300464,AUTO,TAKEOFF
22:47:30,1.273500085,1.188887239,36.5,-0.033183013,278,1,1,1,1,0,10,-35.3631074,149.164896,49977,-6.130102158,4.24948597,-85.5,325,1,0.007705078,1500,1500,1000,1500,-0.129253477,3.141592654,-1.662394881,0.528699458,-0.070841298,-0.805483282,AUTO,TAKEOFF
22:47:31,1.379750073,1.595205039,38.75,-0.020361554,237.5,1,1,1,1,0,10,-35.3631143,149.1648931,49953,-7.938033223,-4.053310871,-124,218.25,39.75,0.04647461,1500,1500,1000,1500,-0.140007913,3.141592654,-2.127540559,-0.053545117,-0.053912858,-0.740586385,AUTO,TAKEOFF
22:47:32,2.646500111,2.87822926,42,-0.007503234,196.5,1,1,1,1,0,10,-35.3631347,149.1648921,49920.5,-2.01357317,-10.19760513,-163,176,51,0.078881834,1500,1500,1000,1500,-0.03966458,3.141592654,-2.840558887,0.04206522,-0.030137722,-0.619182616,AUTO,TAKEOFF
22:47:33,3.901000202,4.071208298,45.25,0.010924564,176.5,1,1,1,1,0,10,-35.36316598,149.1648941,49903,3.354709148,-10.99604273,176.75,176,47.5,0.096307371,1500,1500,1000,1500,0.048139445,3.141592654,3.086868942,-0.039095249,0.004815698,-0.017318549,AUTO,TAKEOFF
22:47:34,4.878000259,4.952334166,46,0.046702905,178,1,1,1,1,0,10,-35.36320745,149.164897,49915,4.149345517,-9.906633377,176,176,42.5,0.084851071,1500,1500,1000,1500,0.063675895,3.141592654,3.112775326,0.169393711,0.019529313,0.004277593,AUTO,ON MISSION
22:47:35,5.526000142,5.549674988,46,0.053390225,178,1,1,1,1,0,10,-35.36325505,149.1649003,49942.75,3.82282263,-9.134647131,176,176,37.25,0.056613768,1500,1500,1000,1500,0.057523323,3.141592654,3.112626493,-0.016488377,0.009283166,-0.004262426,AUTO,ON MISSION
22:47:36,5.890500307,5.871612549,44.5,0.049532499,178,1,1,1,1,0,10,-35.3633072,149.1649048,49980.5,4.257787704,-7.900955915,176,176,31.5,0.018886718,1500,1500,1000,1500,0.067221705,3.141592654,3.109847665,0.045284064,0.020842643,-0.006441339,AUTO,ON MISSION
22:47:37,6.0060004,5.929360151,42.25,0.034645627,178,1,1,1,1,0,10,-35.36336078,149.1649096,50021,4.530806422,-6.617699504,176,176,25.5,-0.021583251,1500,1500,1000,1500,0.075432019,3.141592654,3.107777953,0.020667077,0.013504287,-0.001563723,AUTO,ON MISSION
22:47:38,5.911000252,5.807738781,40.5,0.011185435,177.5,1,1,1,1,0,10,-35.36341405,149.1649144,50043.5,4.654834986,-5.02568388,176,176,19.5,-0.044020995,1500,1500,1000,1500,0.073210735,3.141592654,3.106363535,-0.262846433,0.0739672,-0.015075523,AUTO,ON MISSION
22:47:39,5.53575027,5.345734835,37.75,0.009759868,177.25,1,1,1,1,0,10,-35.36346503,149.1649186,50074,4.610740542,-2.245589525,176,176,13.75,-0.07434204,1500,1500,1000,1500,0.077396454,3.141592654,3.105991364,-0.029003555,0.052833405,-0.012484363,AUTO,ON MISSION
22:47:40,4.800500154,4.529207706,35.5,-0.010842894,178,1,1,1,1,0,10,-35.36351,149.1649219,50085,3.816144109,0.946744747,176,176,9,-0.08519531,1500,1500,1000,1500,0.067505039,3.141592654,3.106995106,-0.033772141,0.050497398,-0.019195567,AUTO,ON MISSION
22:47:41,3.73600024,3.410721004,34.75,-0.046866901,176,1,1,1,1,0,10,-35.36354693,149.1649244,50071.25,0.20265007,3.918659985,174.25,176,4.5,-0.071662595,1500,1500,1000,1500,0.013322866,3.141592654,3.079746246,0.528544884,0.02999383,-0.092400704,AUTO,ON MISSION
22:47:42,2.542000175,2.315197468,35.5,-0.050936133,166,1,1,1,1,0,10,-35.36357215,149.1649301,50034.5,-4.224973083,3.4386518,164,187.5,2,-0.035092773,1500,1500,1000,1500,-0.066652376,3.141592654,2.905194879,0.028490633,-0.00653784,-0.28856428,AUTO,ON MISSION
22:47:43,1.961500078,1.955382347,37.75,-0.057345995,139.75,1,1,1,1,0,10,-35.36358705,149.1649429,49997.25,-7.041153431,-1.378826443,138.25,195.25,17,0.002005615,1500,1500,1000,1500,-0.123345207,3.141592654,2.450791001,-0.156191779,-0.053467304,-0.641475201,AUTO,ON MISSION
22:47:44,2.62800014,2.753850222,41.5,-0.046171123,105.5,1,1,1,1,0,10,-35.36359255,149.1649673,49955,-3.658569038,-8.139347792,106.5,85.5,63.5,0.044353027,1500,1500,1000,1500,-0.062781833,3.141592654,1.849629879,0.381806433,-0.050523255,-0.496859372,AUTO,ON MISSION
22:47:45,3.785250127,3.866217971,44.75,-0.018200441,89.25,1,1,1,1,0,10,-35.36359268,149.165004,49928.5,1.051802903,-10.06587362,89.5,85,60.5,0.071025388,1500,1500,1000,1500,0.015353678,3.141592654,1.56227982,0.055570124,-0.006779527,-0.119625799,AUTO,ON MISSION
22:47:46,4.839500189,4.902592897,48.5,-0.016154274,85.5,1,1,1,1,0,10,-35.36358975,149.1650537,49911.5,3.673339367,-11.11349726,85.5,85,56,0.087849118,1500,1500,1000,1500,0.059545739,3.141592654,1.504336059,-0.057532996,-0.004121907,-0.017071337,AUTO,ON MISSION
22:47:47,5.809750319,5.813252807,50.25,0.033202121,86,1,1,1,1,0,10,-35.3635859,149.1651139,49912,4.255803466,-10.48566532,85,85,50,0.087402344,1500,1500,1000,1500,0.071697326,3.141592654,1.504498273,0.006490413,0.021121228,0.005858571,AUTO,ON MISSION
22:47:48,6.353500366,6.364265442,49.5,0.04758163,86,1,1,1,1,0,10,-35.3635817,149.1651826,49961,4.288675785,-9.659188271,85,85,43.5,0.038454589,1500,1500,1000,1500,0.072010409,3.141592654,1.505687118,0.005088431,0.015273027,0.000508985,AUTO,ON MISSION
22:47:49,6.723250389,6.683491349,47.75,0.036447633,86,1,1,1,1,0,10,-35.36357688,149.1652559,50010,4.637429953,-8.44151783,85,85,37.25,-0.010322265,1500,1500,1000,1500,0.07801291,3.141592654,1.50500375,-0.008213742,0.020678316,0.002814185,AUTO,ON MISSION
22:47:50,6.794000387,6.72587204,45,0.010389542,86,1,1,1,1,0,10,-35.36357195,149.1653305,50052.5,4.890105486,-7.312945843,85,85,30.5,-0.05293945,1500,1500,1000,1500,0.084506847,3.141592654,1.50473839,0.020297591,0.020760688,-0.000207192,AUTO,ON MISSION
22:47:51,6.701000333,6.597783089,42.5,0.006721102,86,1,1,1,1,0,10,-35.36356725,149.1654046,50076,4.905251622,-5.587293506,85,85.25,23.75,-0.076442869,1500,1500,1000,1500,0.084354185,3.141592654,1.506145686,-0.00457307,0.056188422,-0.001465151,AUTO,ON MISSION
22:47:52,6.308000326,6.086973667,37.5,0.012090501,86,1,1,1,1,0,10,-35.3635631,149.1654754,50115.5,4.868439436,-2.641337514,85.5,86,17.5,-0.115681149,1500,1500,1000,1500,0.088428013,3.141592654,1.506713092,0.327730317,0.050055748,-0.016568783,AUTO,ON MISSION
22:47:53,5.480750203,5.232953429,35,-0.047970183,86,1,1,1,1,0,10,-35.36355983,149.1655388,50121,4.004252017,0.347712593,86,85,11.5,-0.121787107,1500,1500,1000,1500,0.069344725,3.141592654,1.508515716,-0.045142315,0.049228651,-0.001082537,AUTO,ON MISSION
22:47:54,4.426500201,4.083942294,34.5,-0.060921358,86,1,1,1,1,0,10,-35.3635576,149.1655902,50078,2.465728104,2.886653543,85.5,84.5,6.5,-0.078586424,1500,1500,1000,1500,0.046105388,3.141592654,1.506975472,-0.014723092,0.043649138,-0.00990985,AUTO,ON MISSION
22:47:55,3.124500155,2.849078596,35.5,-0.052550815,83,1,1,1,1,0,10,-35.36355555,149.165629,50034.5,-1.562368959,4.512456179,82.75,83.5,3.25,-0.034958496,1500,1500,1000,1500,-0.027892734,3.141592654,1.460085213,-0.007675461,0.023788323,-0.126111445,AUTO,ON MISSION
22:47:56,2.00850004,1.854250014,36.5,-0.03143822,67.5,1,1,1,1,0,10,-35.36355035,149.1656524,50007.5,-6.6542871,3.644459963,66,100.5,1.5,-0.008220215,1500,1500,1000,1500,-0.111006007,3.141592654,1.187805891,0.196303092,-0.015097952,-0.490259349,AUTO,ON MISSION
22:47:57,1.601000071,1.930523634,39,-0.052976239,30.75,1,1,1,1,0,10,-35.36353925,149.1656617,49985,-8.63300252,-4.011986285,31,287.25,43,0.014525146,1500,1500,1000,1500,-0.147051252,3.141592654,0.546698906,0.035429761,-0.071729507,-0.756379351,AUTO,ON MISSION
22:47:58,2.7075001,3.123937011,43,-0.052649312,173,1,1,1,1,0,10,-35.3635189,149.1656577,49958,-2.80607795,-10.92073107,-4,339,55,0.041433105,1500,1500,1000,1500,-0.04781833,3.141592654,-0.115715008,0.067527073,-0.036817458,-0.48140607,AUTO,ON MISSION
22:47:59,3.963500142,4.352806449,46.5,-0.036940597,338.25,1,1,1,1,0,10,-35.36348913,149.1656447,49945,2.542874068,-12.17855,-18.75,339,51.5,0.054418945,1500,1500,1000,1500,0.044408009,3.141592654,-0.369444713,0.077025695,-0.005682404,-0.033965073,AUTO,ON MISSION
22:48:00,5.125000238,5.338876724,48.5,-0.009700602,338,1,1,1,1,0,10,-35.36344925,149.1656258,49947,4.158139944,-11.63263702,-21,339,47,0.05239502,1500,1500,1000,1500,0.072108347,3.141592654,-0.373785168,-0.016396256,0.01823985,0.007324391,AUTO,ON MISSION
22:48:01,5.836250424,5.987862825,48.25,0.019119686,338,1,1,1,1,0,10,-35.36340248,149.1656041,49974.5,4.02656877,-10.26534247,-20.25,339,41,0.0250708,1500,1500,1000,1500,0.069039324,3.141592654,-0.368605904,0.007442809,0.0224306,-0.00183714,AUTO,ON MISSION
22:48:02,6.239500284,6.309113979,46,0.037554823,338,1,1,1,1,0,10,-35.36335095,149.1655798,50011.5,4.419326544,-8.678278446,-20,339,35,-0.011999512,1500,1500,1000,1500,0.075765729,3.141592654,-0.368975401,-0.018070177,0.014614299,0.003083976,AUTO,ON MISSION
22:48:03,6.382750392,6.366048217,43.25,0.028007872,338,1,1,1,1,0,10,-35.3632978,149.1655545,50044.25,4.728671193,-7.158220172,-20,339,28.5,-0.044715576,1500,1500,1000,1500,0.081966585,3.141592654,-0.368362091,-0.012459558,0.009232192,0.000970985,AUTO,ON MISSION
22:48:04,6.295500278,6.23132515,41.5,0.01529452,338,1,1,1,1,0,10,-35.36324485,149.1655294,50051,4.997653484,-5.916803122,-20,339,22.5,-0.051599121,1500,1500,1000,1500,0.089130167,3.141592654,-0.36776796,0.132539168,-0.000981219,-0.005906517,AUTO,ON MISSION
22:48:05,5.954000354,5.826216578,37.75,0.032430366,339,1,1,1,1,0,10,-35.36319363,149.1655054,50064,4.791252494,-3.057780862,-20,339,16.25,-0.064403075,1500,1500,1000,1500,0.084929196,3.141592654,-0.365356557,0.022655793,0.043548179,0.004907345,AUTO,ON MISSION
22:48:06,5.254000425,5.041218042,35.5,0.002258515,339,1,1,1,1,0,10,-35.3631478,149.1654842,50064.5,4.356772423,-0.143956512,-20,339,11,-0.065151365,1500,1500,1000,1500,0.076250244,3.141592654,-0.36249502,-0.188949218,0.040399089,0.012662054,AUTO,ON MISSION
22:48:07,4.176250219,3.973596394,34.75,-0.012486436,339,1,1,1,1,0,10,-35.36310945,149.1654666,50041.25,3.531984329,2.708999127,-20,338.75,6.5,-0.041745605,1500,1500,1000,1500,0.058982053,3.141592654,-0.360093504,-0.233621273,0.041586826,0.002028244,AUTO,ON MISSION
22:48:08,3.016000152,2.775125384,35,-0.020295219,339,1,1,1,1,0,10,-35.36308165,149.165454,50004.5,2.574008465,3.939369321,-20,338,3,-0.00482666,1500,1500,1000,1500,0.048265845,3.141592654,-0.359230906,0.142937273,0.010979302,-0.011321928,AUTO,ON MISSION
22:48:09,1.810750067,1.665593505,35.75,0.00015248,339,1,1,1,1,0,10,-35.3630631,149.1654456,49978,1.635692447,4.52630043,-20,335.25,0.75,0.021359863,1500,1500,1000,1500,0.034185089,3.141592654,-0.359479874,0.240683611,-0.005097796,-0.002159645,AUTO,ON MISSION
22:48:10,0.930000067,0.821108967,36.5,0.01427245,339,1,1,1,1,0,10,-35.3630536,149.1654414,49965.5,0.808240652,3.389377475,-20,258,0,0.034294434,1500,1500,1000,1500,0.016180902,3.141592654,-0.359924152,-0.049857676,-0.021179234,0.003102902,AUTO,ON MISSION
22:48:11,0.305000015,0.300525129,37,0.021714811,339,1,1,1,1,0,10,-35.3630495,149.1654397,49966,0.25748096,2.264605671,-20,174.75,0,0.033433837,1500,1500,1000,1500,0.004714396,3.141592654,-0.359892741,-0.265297031,-0.021804857,0.002510653,AUTO,ON MISSION
22:48:12,0.091500003,0.073340213,37,0.021526609,339,1,1,1,1,0,10,-35.3630489,149.1654392,49974.5,0.209731929,0.737367,-20,169,0,0.024992675,1500,1500,1000,1500,0.005426617,3.141592654,-0.360528022,0.106268212,-0.029291444,0.002363832,AUTO,ON MISSION
22:48:13,0.085750002,0.063154989,37,0.018067506,339,1,1,1,1,0,10,-35.36304933,149.1654387,49984.25,0.621978857,-0.238988297,-20,38,0,0.02324707,1500,1500,1000,1500,0.015265951,3.141592654,-0.360284157,0.224328615,0.007855469,0.00445271,RTL,RETURN TO ORIGIN
22:48:14,0.061500002,0.092820764,37,-0.017718975,339,1,1,1,1,0,10,-35.36304955,149.1654381,49975,0.632178754,-0.057262653,-20,47.5,0,0.018825684,1500,1500,1000,1500,0.010459492,3.141592654,-0.36088033,-0.261610977,0.003806825,0.000259263,RTL,RETURN TO ORIGIN
22:48:15,0.129750006,0.092118422,37,0.005943945,339,1,1,1,1,0,10,-35.36305003,149.1654374,49967.5,-1.15741079,0.971546113,-20,217,29,0.012493896,1500,1500,1000,1500,-0.022780102,3.141592654,-0.361281037,-0.133097306,0.029759301,0.00508342,RTL,RETURN TO ORIGIN
22:48:16,0.574000031,0.596541956,37,0.007160511,339,1,1,1,1,0,10,-35.36305325,149.1654346,49967,-3.854710698,2.000082731,-20,217,29,0.012526855,1500,1500,1000,1500,-0.063308131,3.141592654,-0.362004861,0.3418511,0.012059213,-0.002024538,RTL,RETURN TO ORIGIN
22:48:17,1.408000067,1.451221317,39,-0.013720333,339,1,1,1,1,0,10,-35.36306128,149.1654275,49956.5,-6.540000796,2.755557537,-20,217,27.75,0.022822265,1500,1500,1000,1500,-0.113792177,3.141592654,-0.363261163,-0.11757696,0.012201249,-0.001186309,RTL,RETURN TO ORIGIN
22:48:18,2.405000091,2.506112933,40.5,-0.002782195,339,1,1,1,1,0,10,-35.3630768,149.1654134,49936,-8.0760324,2.650626659,-20,217,26,0.04326416,1500,1500,1000,1500,-0.136153013,3.141592654,-0.362431213,0.392366767,-0.011451529,0.000592284,RTL,RETURN TO ORIGIN
22:48:19,3.327500165,3.301898479,41,0.031153511,339,1,1,1,1,0,10,-35.36309868,149.1653931,49940.5,-6.872280955,1.175337583,-20,217,22.5,0.039197998,1500,1500,1000,1500,-0.115377938,3.141592654,-0.357964523,0.122078804,-0.024291971,0.002574557,RTL,RETURN TO ORIGIN
22:48:20,3.718500137,3.658638477,40,0.026922991,339,1,1,1,1,0,10,-35.3631246,149.1653685,49965,-6.126252174,0.475167364,-20,217,18.5,0.014282226,1500,1500,1000,1500,-0.107684914,3.141592654,-0.356356636,-0.417403147,-0.004899384,-0.000938983,RTL,RETURN TO ORIGIN
22:48:21,3.913000226,3.813673556,39.5,0.017638501,339,1,1,1,1,0,10,-35.36315208,149.1653423,49984.25,-5.066750526,-0.158530414,-20,217,15.25,-0.004608154,1500,1500,1000,1500,-0.084593499,3.141592654,-0.355283625,0.076022547,-0.012859734,-0.000382592,RTL,RETURN TO ORIGIN
22:48:22,3.893000245,3.775408149,38.5,0.011451664,339,1,1,1,1,0,10,-35.36317975,149.1653156,49995,-4.203212738,-0.566317514,-20,217,11.5,-0.015512696,1500,1500,1000,1500,-0.075805072,3.141592654,-0.354802594,-0.123065427,-0.011041575,0.00060799,RTL,RETURN TO ORIGIN
22:48:23,3.700000167,3.530035794,37,0.019560087,339,1,1,1,1,0,10,-35.3632066,149.1652898,50011.75,-2.222691149,-1.521461517,-20,217,7.5,-0.032358398,1500,1500,1000,1500,-0.038068831,3.141592654,-0.353744276,0.046686567,-0.020684822,0.001853987,RTL,RETURN TO ORIGIN
22:48:24,3.097000122,2.882222295,36,-0.006556423,339,1,1,1,1,0,10,-35.36322985,149.1652675,50025.5,0.30775401,-2.747957349,-20,216.5,4,-0.046342773,1500,1500,1000,1500,0.002931708,3.141592654,-0.353047103,-0.21548111,-0.020105132,0.001046506,RTL,RETURN TO ORIGIN
22:48:25,2.190250099,1.931715548,35.5,-0.030235065,339,1,1,1,1,0,10,-35.3632477,149.1652504,50017.25,2.828917712,-3.570689023,-20,215.25,1.5,-0.037923583,1500,1500,1000,1500,0.047100456,3.141592654,-0.353678778,0.071556006,-0.005411249,-3.92E-05,RTL,RETURN TO ORIGIN
22:48:26,1.171500057,0.938501924,36.5,-0.030868632,339,1,1,1,1,0,10,-35.36325755,149.1652406,49993.5,3.12603271,-2.651803672,-20,200.5,0,-0.014038086,1500,1500,1000,1500,0.052907662,3.141592654,-0.352935702,0.100973677,0.029103823,0.001831625,RTL,RETURN TO ORIGIN
22:48:27,0.471500024,0.345063642,36.75,-0.014954485,339,1,1,1,1,0,10,-35.36326203,149.1652358,49983.25,2.050481379,-1.245075434,-20,103,0,-0.003660889,1500,1500,1000,1500,0.031928141,3.141592654,-0.352127559,-0.070493482,0.014188367,-0.002845493,RTL,RETURN TO ORIGIN
22:48:28,0.160000004,0.089167833,37,-0.004665804,339,1,1,1,1,0,10,-35.3632635,149.1652343,49985,1.338199198,-0.619519874,-20,62.5,0,-0.005646972,1500,1500,1000,1500,0.017795134,3.141592654,-0.351823002,-0.113044135,0.011729851,0.000298345,RTL,LANDING
22:48:29,0.052500003,0.056111762,37,-0.009642819,339,1,1,1,1,0,10,-35.36326403,149.165234,49991.25,0.457815688,-0.064520951,-20,56.5,0,-0.011531982,1500,1500,1000,1500,0.004556457,3.141592654,-0.351383351,0.156030942,0.001365512,0.003887958,RTL,LANDING
22:48:30,0.058000002,0.072214711,37,-0.009057868,339,1,1,1,1,0,10,-35.36326445,149.165234,49992,0.777712971,-0.367514729,-20,51,0,-0.012290039,1500,1500,1000,1500,0.011778421,3.141592654,-0.350658238,0.077196032,-0.008324045,0.002019898,RTL,LANDING
22:48:31,0.096500004,0.118454205,36.75,-0.01245554,339,1,1,1,1,0,10,-35.36326445,149.1652344,49994.5,0.553353779,-0.35383144,-20,46.75,0,-0.015163574,1500,1500,1000,1500,0.007397134,3.141592654,-0.35104157,-0.156288579,0.002875178,-0.001252279,RTL,LANDING
22:48:32,0.105500005,0.128893871,37,-0.014345046,339,1,1,1,1,0,10,-35.363264,149.1652354,49991,0.153780203,-0.215744749,-20,43.5,0,-0.011440429,1500,1500,1000,1500,-0.0011028,3.141592654,-0.351235121,-0.125213772,0.001174906,0.001123688,RTL,LANDING
22:48:33,0.054000002,0.098367656,37,-0.008566227,339,1,1,1,1,0,10,-35.36326348,149.165236,49987.25,0.246067651,-0.167506445,-20,43,0,-0.00776001,1500,1500,1000,1500,0.005247039,3.141592654,-0.351306468,0.247273903,-0.000152463,-0.002098812,RTL,LANDING
22:48:34,0.029000002,0.078707051,35,-0.037386222,339,1,1,1,1,0,10,-35.3632632,149.1652362,49984,0.334148839,-0.161641367,-20,47.5,0,-0.008913574,1500,1500,1000,1500,0.007393552,3.141592654,-0.351580426,-0.195113778,-0.003010945,-0.000922102,RTL,LANDING
22:48:35,0.034250002,0.073809817,32.5,-0.505497843,339,1,1,1,1,0,10,-35.363263,149.1652363,49770.5,0.393274859,-0.162345013,-20,51.25,0,0.041805419,1500,1500,1000,1500,-0.003790215,3.141592654,-0.350792624,-1.115502656,0.000204134,-0.002447848,RTL,LANDING
22:48:36,0.030500002,0.069744907,32,-1.036790252,339,1,1,1,1,0,10,-35.36326275,149.1652365,48956.5,0.257148162,-0.125637945,-20,55.5,0,0.243715815,1500,1500,1000,1500,-0.012561747,3.141592654,-0.351518065,-1.542807519,-0.001302285,-0.004105308,RTL,LANDING
22:48:37,0.024250001,0.071095748,32.75,-1.077594429,339,1,1,1,1,0,10,-35.36326268,149.1652366,47822.25,0.254666511,-0.186005231,-20,58.25,0,0.445729971,1500,1500,1000,1500,-0.01399895,3.141592654,-0.352103896,-1.289629608,-0.006074869,0.000797651,RTL,LANDING
22:48:38,0.058000002,0.086521395,32,-0.997624606,339,1,1,1,1,0,10,-35.3632627,149.1652364,46750.5,0.577098832,-0.225121848,-20,60.5,0,0.498022467,1500,1500,1000,1500,-0.007832396,3.141592654,-0.352146849,-0.702141106,-0.002018469,0.010334486,RTL,LANDING
22:48:39,0.028500001,0.116858613,32.5,-1.004315093,339,1,1,1,1,0,10,-35.36326275,149.1652362,45728,0.662017256,-0.211923823,-20,62.5,0,0.502550036,1500,1500,1000,1500,-0.006280463,3.141592654,-0.350811169,-0.620619334,-0.002309753,0.0089878,RTL,LANDING
22:48:40,0.099500004,0.120494239,32,-0.99753657,339,1,1,1,1,0,10,-35.36326275,149.1652364,44720,0.437257811,-0.128676388,-20,60.5,0,0.490310043,1500,1500,1000,1500,0.005742597,3.141592654,-0.35122332,0.564994529,0.002586698,0.002576646,RTL,LANDING
22:48:41,0.242000014,0.081518122,33,-1.012737051,339,1,1,1,1,0,10,-35.36326238,149.1652374,43699.75,-0.339063341,0.045829513,-20,169,0,0.490983874,1500,1500,1000,1500,0.006049094,3.141592654,-0.350294016,1.355695218,0.004552392,0.004560703,RTL,LANDING
22:48:42,0.340000004,0.067885973,33.5,-1.016831696,339,1,1,1,1,0,10,-35.3632617,149.1652394,42677.5,-1.485916138,0.151388109,-20,250.5,0,0.493034646,1500,1500,1000,1500,-0.013464723,3.141592654,-0.350795731,1.37098825,0.003727583,0.003086276,RTL,LANDING
22:48:43,0.274500012,0.231131233,32.75,-0.999989048,339,1,1,1,1,0,10,-35.36326098,149.1652416,41660,-2.360939145,0.09694453,-20,249.25,0,0.48758544,1500,1500,1000,1500,-0.021671454,3.141592654,-0.351234056,1.425498843,-0.001576721,0.002115741,RTL,LANDING
22:48:44,0.139000006,0.391881883,33,-1.024536669,339,1,1,1,1,0,10,-35.36326065,149.1652429,40648.5,-2.46474123,-0.100318471,-20,250.5,0,0.480159894,1500,1500,1000,1500,-0.022145243,3.141592654,-0.351752296,0.905030727,-0.004566546,0.003451831,RTL,LANDING
22:48:45,0.063250002,0.490662321,32.25,-1.031263202,339,1,1,1,1,0,10,-35.36326068,149.1652432,39634,-2.159739643,-0.300589498,-20,251.5,0,0.476907946,1500,1500,1000,1500,-0.019934787,3.141592654,-0.351254672,0.530722164,-0.003774353,-0.000631776,RTL,LANDING
22:48:46,0.165500008,0.49044621,32,-1.002431333,339,1,1,1,1,0,10,-35.36326095,149.1652425,38611,-1.431374848,-0.402399525,-20,253,0,0.47573486,1500,1500,1000,1500,-0.013199109,3.141592654,-0.351701975,-0.101559915,-0.002777477,-0.004516925,RTL,LANDING
22:48:47,0.278000012,0.411292538,33,-1.029749483,339,1,1,1,1,0,10,-35.3632614,149.165241,37588.5,-0.692698039,-0.48072654,-20,254.75,0,0.47659117,1500,1500,1000,1500,-0.004181809,3.141592654,-0.352316685,-0.631218031,-0.002148309,0.005750361,RTL,LANDING
22:48:48,0.404000014,0.263599493,32.5,-0.998540252,339,1,1,1,1,0,10,-35.3632621,149.1652388,36565,0.443464395,-0.564334542,-20,284.5,0,0.480213612,1500,1500,1000,1500,0.012167449,3.141592654,-0.352567673,-0.529393584,-0.00265725,-0.001801563,RTL,LANDING
22:48:49,0.441500023,0.082350567,32.25,-1.00722006,339,1,1,1,1,0,10,-35.36326293,149.1652359,35555.75,2.018747032,-0.606223851,-20,55,0,0.471314684,1500,1500,1000,1500,0.023145325,3.141592654,-0.351816714,-1.183943197,0.001873283,0.003917049,RTL,LANDING
22:48:50,0.241500005,0.20043828,33.5,-1.044569552,339,1,1,1,1,0,10,-35.36326355,149.1652336,34538.5,2.445295691,-0.357733093,-20,66.5,0,0.468624264,1500,1500,1000,1500,0.026367401,3.141592654,-0.351157829,-0.528775327,0.002834193,-0.000323581,RTL,LANDING
22:48:51,0.093500003,0.360313967,32.5,-1.030977145,339,1,1,1,1,0,10,-35.36326363,149.1652328,33515.75,2.06897217,-0.062026804,-20,69.25,0,0.471128531,1500,1500,1000,1500,0.027870221,3.141592654,-0.350349508,0.422969664,0.006487715,0.003072603,RTL,LANDING
22:48:52,0.273000009,0.362672269,32,-0.996654063,339,1,1,1,1,0,10,-35.3632631,149.1652339,32487.5,0.83981213,0.250007391,-20,73.5,0,0.477432847,1500,1500,1000,1500,0.023947953,3.141592654,-0.349589705,1.183582842,0.008856486,0.00231546,RTL,LANDING
22:48:53,0.347500011,0.251577768,32.5,-1.009777874,339,1,1,1,1,0,10,-35.3632623,149.1652363,31457,-0.723051704,0.318301272,-20,99.25,0,0.485988759,1500,1500,1000,1500,0.001290258,3.141592654,-0.350394264,1.34802863,0.001699403,0.005200657,RTL,LANDING
22:48:54,0.172500011,0.080513526,32.5,-1.01260674,339,1,1,1,1,0,10,-35.36326175,149.1652382,30441.5,-0.95537886,0.051449547,-20,224,0,0.481932357,1500,1500,1000,1500,-0.001186412,3.141592654,-0.350390047,0.907995597,-0.011697474,-0.00484939,RTL,LANDING
22:48:55,0.044250001,0.08104884,32.5,-1.026126981,339,1,1,1,1,0,10,-35.36326175,149.1652388,29421.75,-0.566385858,-0.187187513,-20,247.5,0,0.479486071,1500,1500,1000,1500,-0.006054238,3.141592654,-0.350738801,-0.582436332,-0.003070219,-0.003895198,RTL,LANDING
22:48:56,0.107000005,0.093215849,32.5,-1.023312032,339,1,1,1,1,0,10,-35.363262,149.1652384,28394.5,-0.03310629,-0.314025171,-20,260.5,0,0.486574709,1500,1500,1000,1500,-0.008952916,3.141592654,-0.35070549,-1.28966701,-0.000462462,-0.000576376,RTL,LANDING
22:48:57,0.196250007,0.039979526,32.75,-1.01562202,339,1,1,1,1,0,10,-35.36326243,149.1652374,27372,0.658182904,-0.408333629,-20,185,0,0.491227411,1500,1500,1000,1500,-0.007090007,3.141592654,-0.350895405,-1.40471229,-0.000733663,0.001372031,RTL,LANDING
22:48:58,0.237000011,0.066726161,32,-1.004302651,339,1,1,1,1,0,10,-35.36326285,149.1652359,26355,1.505513608,-0.356382355,-20,62.5,0,0.488266602,1500,1500,1000,1500,0.006152375,3.141592654,-0.350619838,-1.083175063,0.001952143,0.004764956,RTL,LANDING
22:48:59,0.187500007,0.20967751,33,-1.031801701,339.25,1,1,1,1,0,10,-35.36326325,149.1652343,25337.75,1.937459081,-0.270471685,-20,68,0,0.485139146,1500,1500,1000,1500,0.01677728,3.141592654,-0.349875666,-0.404960721,0.000759833,0.001233366,RTL,LANDING
22:49:00,0.072000002,0.308856726,32.5,-1.008218348,339,1,1,1,1,0,10,-35.3632634,149.1652334,24316.5,2.16671133,-0.111958984,-20,70,0,0.486596674,1500,1500,1000,1500,0.017435539,3.141592654,-0.350692526,-0.581600666,0.005824137,-0.000685277,RTL,LANDING
22:49:01,0.089250003,0.375800431,32.25,-1.024013326,339,1,1,1,1,0,10,-35.36326333,149.1652334,23306,1.569392473,0.031869703,-20,71.5,0,0.473260485,1500,1500,1000,1500,0.016018577,3.141592654,-0.349935308,0.274297472,0.004842332,0.002627835,RTL,LANDING
22:49:02,0.196500011,0.338795111,32,-0.997594893,339,1,1,1,1,0,10,-35.36326295,149.1652345,22285,0.808812767,0.08370408,-20,72.5,0,0.476409912,1500,1500,1000,1500,0.012150265,3.141592654,-0.349602818,0.693047166,0.002062785,0.004255515,RTL,LANDING
22:49:03,0.258000012,0.238158077,32.5,-1.017605647,339.25,1,1,1,1,0,10,-35.3632625,149.165236,21261.25,0.040422408,0.154636908,-20,77.5,0,0.480799556,1500,1500,1000,1500,0.009032198,3.141592654,-0.349248946,1.335042447,0.003693586,0.007728195,RTL,LANDING
22:49:04,0.258000009,0.100367937,33,-0.986701608,339.5,1,1,1,1,0,10,-35.363262,149.1652378,20231.5,-0.736646861,0.15340139,-20,171,0,0.489598989,1500,1500,1000,1500,-0.000613236,3.141592654,-0.349288359,1.231379867,0.000412278,0.006071707,RTL,LANDING
22:49:05,0.197000008,0.052895913,33,-1.021732926,340,1,1,1,1,0,10,-35.36326153,149.1652394,19216.5,-1.283042461,0.06550846,-20,245.25,0,0.48643554,1500,1500,1000,1500,0.000245122,3.141592654,-0.349040776,1.300612152,0.00138525,0.006867156,RTL,LANDING
22:49:06,0.065500001,0.173775271,32.5,-1.010132283,339,1,1,1,1,0,10,-35.3632614,149.1652402,18195.5,-1.167788327,-0.10065427,-20,249,0,0.485876456,1500,1500,1000,1500,-0.002179064,3.141592654,-0.350724205,0.513227558,-0.005404456,-0.005793048,RTL,LANDING
22:49:07,0.075750006,0.226091392,32.5,-1.019162133,339,1,1,1,1,0,10,-35.36326148,149.1652401,17174.75,-0.891970381,-0.259080265,-20,252,0,0.48356536,1500,1500,1000,1500,-0.010417815,3.141592654,-0.350053661,-0.682131208,-0.001558849,0.001487347,RTL,LANDING
22:49:08,0.214000009,0.202011026,32.5,-1.004955143,339,1,1,1,1,0,10,-35.3632619,149.165239,16149.5,0.132305875,-0.363276586,-20,258,0,0.488021836,1500,1500,1000,1500,-0.00576177,3.141592654,-0.350746125,-1.123220086,-0.002929085,0.006174827,RTL,LANDING
22:49:09,0.173500005,0.093097781,33,-1.011427194,339.25,1,1,1,1,0,10,-35.3632623,149.1652375,15131.5,0.805367962,-0.284639407,-20,181.25,0,0.487901598,1500,1500,1000,1500,0.003934928,3.141592654,-0.349757463,-1.300540417,6.12E-05,-0.003319423,RTL,LANDING
22:49:10,0.049000001,0.03051147,32.5,-0.996908128,339,1,1,1,1,0,10,-35.3632624,149.1652368,14113.5,0.582750544,-0.101926563,-20,69,0,0.485939935,1500,1500,1000,1500,-0.003810965,3.141592654,-0.350037277,-1.320316553,0.000493954,-0.001939081,RTL,LANDING
22:49:11,0.029750001,0.05754638,32.5,-1.016808212,339,1,1,1,1,0,10,-35.3632623,149.1652368,13099.5,0.17954904,-0.005853821,-20,82.25,0,0.47980345,1500,1500,1000,1500,-0.016560293,3.141592654,-0.350000523,-0.766345277,0.000448627,0.002973108,RTL,LANDING
22:49:12,0.009000001,0.052428408,33.5,-0.908689499,339,1,1,1,1,0,10,-35.3632622,149.1652369,12092.5,0.257054314,-0.005543366,-20,93.5,0,0.478705436,1500,1500,1000,1500,-0.002626026,3.141592654,-0.350712776,0.144144565,-0.002862574,0.011637648,RTL,LANDING
22:49:13,0.012750001,0.0440156,35.5,-0.463870429,339.25,1,1,1,1,0,10,-35.3632622,149.1652369,11353,0.201819025,-0.025977951,-20,91.5,0,0.39551574,1500,1500,1000,1500,0.009570957,3.141592654,-0.349417016,0.196311746,0.000538167,0.001346881,RTL,LANDING
22:49:14,0.038000002,0.042204091,35,-0.244048379,339.5,1,1,1,1,0,10,-35.3632622,149.1652371,11056.5,0.10851356,-0.046749292,-20,92.5,0,0.243716426,1500,1500,1000,1500,0.002562832,3.141592654,-0.349226996,-0.053431362,-0.000448154,1.36E-05,RTL,LANDING
22:49:15,0.053500001,0.020527569,34.25,-0.317960106,339,1,1,1,1,0,10,-35.36326218,149.1652374,10795.5,-0.050233252,-0.043748678,-20,134.75,0,0.158649288,1500,1500,1000,1500,-0.003965066,3.141592654,-0.349635303,-0.534850299,-0.001124523,-0.002837844,RTL,LANDING
22:49:16,0.048000002,0.019637434,34.5,-0.346071512,339,1,1,1,1,0,10,-35.36326205,149.1652377,10470.5,-0.105113283,-0.003711833,-20,216,0,0.143289186,1500,1500,1000,1500,-0.002019456,3.141592654,-0.349672288,0.028039029,-0.001967341,0.003171551,RTL,LANDING
22:49:17,0.038500002,0.035634972,34.25,-0.355473496,339.25,1,1,1,1,0,10,-35.36326192,149.1652379,10133.25,-0.171217108,0.004802461,-20,228.25,0,0.140773617,1500,1500,1000,1500,-0.009999885,3.141592654,-0.349396951,-0.387703851,-0.000182364,0.001658355,RTL,LANDING
22:49:18,0.044500003,0.050493546,34,-0.357665151,340,1,1,1,1,0,10,-35.36326175,149.1652382,9790,-0.420516014,0.003993983,-20,232.5,0,0.1439505,1500,1500,1000,1500,-0.001988668,3.141592654,-0.349161029,0.12458539,-0.000399513,-0.000962914,RTL,LANDING
22:49:19,0.015500001,0.07566116,34.5,-0.349548675,339.25,1,1,1,1,0,10,-35.3632617,149.1652384,9443.75,-0.324477546,-0.01865227,-20,235.75,0,0.150514062,1500,1500,1000,1500,-0.013814875,3.141592654,-0.349469468,-0.241205963,-0.000923104,0.000336665,RTL,LANDING
22:49:20,0.012500001,0.087405104,34,-0.330846488,339,1,1,1,1,0,10,-35.3632617,149.1652383,9102,-0.189583451,-0.031965199,-20,233.5,0,0.152013548,1500,1500,1000,1500,-0.002429755,3.141592654,-0.349511787,0.038030297,6.21E-05,-0.000348225,RTL,LANDING
22:49:21,0.00525,0.080962496,36.75,-0.222103452,339.25,1,1,1,1,0,10,-35.3632617,149.1652383,8787.5,-0.266430251,-0.029264253,-20,233,0,0.149106748,1500,1500,1000,1500,-0.000864054,3.141592654,-0.349442557,0.295390082,-0.00059478,0.001759788,RTL,LANDING
22:49:22,0.019500001,0.086429857,38,0.056587923,339,1,1,1,1,0,10,-35.3632617,149.1652383,8744.5,-0.197037708,-0.03881588,-20,231.5,0,0.088311767,1500,1500,1000,1500,-0.002924653,3.141592654,-0.349976555,-0.140811697,-0.000473738,0.000857458,RTL,LANDING
22:49:23,0.032250001,0.075280029,37,0.03382971,339,1,1,1,1,0,10,-35.36326173,149.1652381,8803,-0.083057992,-0.043596839,-20,225.75,0,0.023918151,1500,1500,1000,1500,-0.006020519,3.141592654,-0.349844523,-0.254553594,-0.000329104,0.000566305,RTL,LANDING
22:49:24,0.061500002,0.054328378,37,0.007787874,339,1,1,1,1,0,10,-35.36326185,149.1652378,8828,-0.031676628,-0.06750682,-20,211,0,-0.000930786,1500,1500,1000,1500,0.001291051,3.141592654,-0.350037441,0.223282948,-0.000950486,0.00143919,RTL,LANDING
22:49:25,0.105500005,0.038875889,37,0.000225174,339,1,1,1,1,0,10,-35.363262,149.1652373,8833.5,0.367459979,-0.111872442,-20,138.5,0,-0.006907349,1500,1500,1000,1500,0.00643567,3.141592654,-0.350058392,0.077986181,0.001554045,0.00121213,RTL,LANDING
22:49:26,0.072500004,0.042030436,37,-0.007939941,339,1,1,1,1,0,10,-35.36326225,149.1652367,8833.5,0.659000725,-0.098285504,-20,86,0,-0.006830444,1500,1500,1000,1500,0.005918753,3.141592654,-0.35007,-0.176161066,-0.000222879,0.000406808,RTL,LANDING
22:49:27,0.01375,0.081930446,37,-0.006064727,339,1,1,1,1,0,10,-35.3632623,149.1652363,8828.75,0.520883814,0.009806972,-20,85,0,-0.002196808,1500,1500,1000,1500,0.01121336,3.141592654,-0.349815242,0.255233597,0.003175589,0.001292549,RTL,LANDING
22:49:28,0.023500001,0.088077351,35,-0.153974043,339,1,1,1,1,0,10,-35.36326225,149.1652364,8788,0.41318278,0.0613456,-20,90,0,0.004478149,1500,1500,1000,1500,0.009376912,3.141592654,-0.349695623,0.16786918,-0.000537666,-0.001937044,RTL,LANDING
22:49:29,0.043750003,0.073790336,34,-0.416525692,339.5,1,1,1,1,0,10,-35.3632622,149.1652366,8500.75,0.264640607,0.048985549,-20,94.25,0,0.068462981,1500,1500,1000,1500,0.005690879,3.141592654,-0.349227041,-0.27178885,0.00036496,-0.001218026,RTL,LANDING
22:49:30,0.065500004,0.064744893,34,-0.36950025,339.5,1,1,1,1,0,10,-35.36326215,149.165237,8100.5,0.081612628,0.031417179,-20,107,0,0.133354794,1500,1500,1000,1500,-0.000670927,3.141592654,-0.349224478,0.131592572,-0.001539105,0.002191479,RTL,LANDING
22:49:31,0.078750005,0.027809432,34.25,-0.348733455,339.25,1,1,1,1,0,10,-35.36326205,149.1652375,7738.75,-0.174580185,0.011096983,-20,178.25,0,0.154405821,1500,1500,1000,1500,-0.007365952,3.141592654,-0.349480845,-0.569561797,-0.000608245,-0.003937919,RTL,LANDING
22:49:32,0.064500004,0.031679935,34,-0.332854077,339.5,1,1,1,1,0,10,-35.3632619,149.165238,7392.5,-0.355907544,-0.010606468,-20,231,0,0.161246337,1500,1500,1000,1500,-0.00449658,3.141592654,-0.349493593,0.171872668,-0.002165556,0.002073505,RTL,LANDING
22:49:33,0.025250001,0.062884414,34.75,-0.343220875,339,1,1,1,1,0,10,-35.3632618,149.1652383,7048.75,-0.35154397,-0.08048303,-20,241.25,0,0.16496307,1500,1500,1000,1500,-0.013248302,3.141592654,-0.349332929,-0.64162454,-0.002413176,0.000336443,RTL,LANDING
22:49:34,0.035500001,0.069173411,35,-0.330463454,339,1,1,1,1,0,10,-35.36326185,149.1652383,6705,-0.225645505,-0.131908711,-20,244.5,0,0.167813107,1500,1500,1000,1500,-0.001617021,3.141592654,-0.349441424,0.128054477,0.00156053,0.002428893,RTL,LANDING
22:49:35,0.088500006,0.057697657,34.25,-0.326850615,339,1,1,1,1,0,10,-35.363262,149.1652379,6368.75,0.107475856,-0.195718311,-20,243.75,0,0.16414199,1500,1500,1000,1500,-0.001881001,3.141592654,-0.349965282,-0.167078785,-0.001043188,0.000849509,RTL,LANDING
22:49:36,0.108500004,0.030372701,35,-0.34164165,339,1,1,1,1,0,10,-35.36326225,149.1652372,6030.5,0.522116527,-0.198532894,-20,78.5,0,0.16219116,1500,1500,1000,1500,0.010443495,3.141592654,-0.349972531,0.078428775,0.002399306,0.001857149,RTL,LANDING
22:49:37,0.095000003,0.052141115,34.5,-0.343193196,339,1,1,1,1,0,10,-35.3632624,149.1652365,5690.25,0.736208677,-0.173788272,-20,72,0,0.162512816,1500,1500,1000,1500,0.015194846,3.141592654,-0.349788487,0.600705067,0.002299551,0.003176256,RTL,LANDING
22:49:38,0.048000002,0.094247226,35,-0.335855395,339.5,1,1,1,1,0,10,-35.36326255,149.165236,5347,0.800414473,-0.113875769,-20,73,0,0.165656425,1500,1500,1000,1500,0.016385982,3.141592654,-0.34942016,-0.229427934,-0.000349075,-0.000610491,RTL,LANDING
22:49:39,0.042750001,0.139333155,34.5,-0.331879802,339,1,1,1,1,0,10,-35.3632626,149.1652358,5014.25,0.753131554,-0.087106273,-20,74.75,0,0.157579266,1500,1500,1000,1500,0.01267121,3.141592654,-0.349864133,0.377608784,0.002160993,0.005750688,RTL,LANDING
22:49:40,0.071000002,0.155428953,34,-0.343250915,339,1,1,1,1,0,10,-35.36326265,149.1652355,4680.5,0.950774014,-0.094103619,-20,75,0,0.151966549,1500,1500,1000,1500,0.015260468,3.141592654,-0.349903166,-0.171528146,-0.004307578,-0.000158266,RTL,LANDING
22:49:41,0.050250002,0.194184311,34.5,-0.346695244,339,1,1,1,1,0,10,-35.36326273,149.1652351,4340.5,1.138058186,-0.064396588,-20,75,0,0.151926801,1500,1500,1000,1500,0.025429688,3.141592654,-0.349757783,0.541687345,0.001582368,0.003159075,RTL,LANDING
22:49:42,0.025,0.217201956,34,-0.333857149,339,1,1,1,1,0,10,-35.3632628,149.1652348,3994.5,1.153500915,-0.029068196,-20,75,0,0.157670438,1500,1500,1000,1500,0.01603025,3.141592654,-0.349597275,-0.21460858,0.000185675,-0.000373629,RTL,LANDING
22:49:43,0.079750004,0.226041336,34.75,-0.345349066,339.75,1,1,1,1,0,10,-35.36326275,149.1652351,3654.5,0.82053721,0.020327813,-20,75.25,0,0.158368453,1500,1500,1000,1500,0.022565434,3.141592654,-0.349042356,0.58992926,0.002471113,-0.000455121,RTL,LANDING
22:49:44,0.127500009,0.182722338,34,-0.337483466,339,1,1,1,1,0,10,-35.3632625,149.1652359,3314,0.44099243,0.060601743,-20,79,0,0.158525236,1500,1500,1000,1500,0.00529309,3.141592654,-0.349627286,-0.076191559,0.0016979,-0.001304003,RTL,LANDING
22:49:45,0.141000006,0.121898888,34.5,-0.347192042,339.25,1,1,1,1,0,10,-35.36326223,149.1652367,2973,-0.031235826,0.06985406,-20,92.25,0,0.159830779,1500,1500,1000,1500,0.009289976,3.141592654,-0.349346377,0.494954692,0.001428876,-0.002161137,RTL,LANDING
22:49:46,0.101500005,0.052559771,34.5,-0.333316848,339,1,1,1,1,0,10,-35.363262,149.1652376,2627,-0.278730474,0.020993681,-20,179.5,0,0.1658995,1500,1500,1000,1500,-0.008171388,3.141592654,-0.349789128,-0.180660523,-0.000686125,0.000988795,RTL,LANDING
22:49:47,0.019250001,0.031507296,34.25,-0.334270932,339,1,1,1,1,0,10,-35.3632619,149.165238,2288.5,-0.214172292,-0.049716945,-20,233.5,0,0.163556132,1500,1500,1000,1500,0.003430049,3.141592654,-0.349556245,0.262608642,0.00199334,-0.00325954,RTL,LANDING
22:49:48,0.011,0.034804599,34.5,-0.32837671,339.5,1,1,1,1,0,10,-35.36326195,149.165238,1946.5,0.027813312,-0.110849161,-20,236,0,0.16504547,1500,1500,1000,1500,-0.001852719,3.141592654,-0.349663273,-0.011022598,0.001047272,-0.000213881,RTL,LANDING
22:49:49,0.038750001,0.037860972,34.5,-0.337506898,339,1,1,1,1,0,10,-35.36326198,149.1652378,1605.75,0.031321407,-0.05319218,-20,235.25,0,0.165956762,1500,1500,1000,1500,0.006113671,3.141592654,-0.349549808,-0.056337003,0.002285968,-0.001695661,RTL,LANDING
22:49:50,0.093000006,0.043237085,34.5,-0.324783698,339,1,1,1,1,0,10,-35.36326185,149.1652382,1264,-0.405766562,0.014478591,-20,238.5,0,0.167953216,1500,1500,1000,1500,-0.008865989,3.141592654,-0.349619374,0.005073875,0.0026622,0.006531407,RTL,LANDING
22:49:51,0.072250004,0.096616002,34.5,-0.335976951,339,1,1,1,1,0,10,-35.36326165,149.1652388,923,-0.712648913,0.039482102,-20,240.75,0,0.16737676,1500,1500,1000,1500,-0.009547086,3.141592654,-0.349743962,-0.284143701,-0.00266684,-0.004350422,RTL,LANDING
22:49:52,0.029000002,0.127767935,34.5,-0.325230286,339,1,1,1,1,0,10,-35.36326155,149.1652391,582,-0.533181265,-0.048201447,-20,242.5,0,0.168851756,1500,1500,1000,1500,-0.014042553,3.141592654,-0.350021988,-0.026127368,8.13E-06,0.002342848,RTL,LANDING
22:49:53,0.075500002,0.135658398,34.75,-0.330471724,339,1,1,1,1,0,10,-35.3632617,149.1652387,240.25,-0.174380817,-0.18186998,-20,244.5,0,0.171214491,1500,1500,1000,1500,0.004514711,3.141592654,-0.349876441,0.20582696,-0.000690427,-0.001857968,RTL,LANDING
22:49:54,0.0195,0.017486641,5.5,0.285139918,339,1,1,1,1,0,10,-35.36326175,149.1652387,189.5,-2.29926157,0.23456835,-20,244,0,-0.119090596,1500,1500,1000,1500,0.001003978,3.141592654,-0.350834683,0.000137139,0.001722231,0.000767795,RTL,LANDING
22:49:55,0,0.026325993,0,0.234769434,339,1,1,1,1,0,10,-35.36326173,149.1652389,256.75,-0.912786901,-0.320959177,-20,246.5,0,-0.526406631,1500,1500,1000,1500,0.000917429,3.141592654,-0.351084895,-0.000122407,0.001717014,0.000680047,RTL,LANDING
22:49:56,0,0.050102971,0,0.191147029,339,1,1,1,1,0,10,-35.36326175,149.165239,293,-0.221948047,-0.132549508,-20,252,0,-0.000300465,1500,1500,1000,1500,0.000744543,3.141592654,-0.351296872,-5.45E-05,0.001776598,0.000700994,RTL,LANDING
22:49:57,0,0.072856288,0,0.150795195,339,1,1,1,1,0,10,-35.36326188,149.1652391,275.5,-0.029602477,-0.017678898,-20,258,0,0.025492772,1500,1500,1000,1500,0.000627666,3.141592654,-0.351144433,-5.55E-05,0.001706708,0.000672748,RTL,LANDING
22:49:58,0,0.088808186,0,0.117380645,339,1,1,1,1,0,10,-35.36326205,149.1652391,247,-0.029602477,-0.017678898,-20,264,0,0.053963631,1500,1500,1000,1500,0.000592059,3.141592654,-0.35070999,-4.58E-05,0.001702876,0.000657188,RTL,LANDING
22:49:59,0,0.096648252,0,0.090090482,339,1,1,1,1,0,10,-35.3632621,149.1652391,231.75,-0.029602477,-0.017678898,-20,267.75,0,0.069233105,1500,1500,1000,1500,0.000645964,3.141592654,-0.350317925,1.11E-05,0.001617257,0.000692541,RTL,LANDING
22:50:00,0,0.098422036,0,0.067896927,339,1,1,1,1,0,10,-35.36326215,149.1652392,218,-0.029602477,-0.017678898,-20,269.5,0,0.083319545,1500,1500,1000,1500,0.000736186,3.141592654,-0.349952981,1.39E-05,0.001618972,0.000652533,RTL,LANDING
22:50:01,0,0.098011043,0,0.053608986,339,1,1,1,1,0,10,-35.3632622,149.1652392,206,-0.029602477,-0.017678898,-20,270,0,0.095442418,1500,1500,1000,1500,0.000826701,3.141592654,-0.349637588,7.54E-06,0.001500335,0.000713006,RTL,LANDING