time_stamp,roll,pitch,yaw,rollspeed,pitchspeed,yawspeed,lat,lon,relative_alt,airspeed,groundspeed,throttle,climb,heading,GPS_status,Gyro_status,Accel_status,Baro_status,PreArm_error,satellites_visible,nav_roll,nav_pitch,nav_bearing,target_bearing,wp_dist,alt_error,chan1_raw,chan2_raw,chan3_raw,chan4_raw,MODE,PHASE
23:18:38,-0.000468002,0.001558434,0.028188127,0.000264547,0.00029389,0.002332401,-35.3632621,149.1652374,0,0,0.025352758,0,0.015996766,1,1,1,1,0,0,10,-0.000129688,0.000175836,1,0,0,-0.021009672,1500,1500,1000,1500,STABILIZE,INITIALISATION
23:18:42,-0.000500424,0.000921636,0.025950163,0.000290746,0.000146396,0.002090623,-35.3632621,149.1652375,0,0,0.021795865,0,0.019411362,1,1,1,1,0,0,10,-0.000129687,0.000175836,1,0,0,-0.039142366,1500,1500,1000,1500,STABILIZE,INITIALISATION
23:18:44,-0.00062493,0.000902439,0.025155084,0.000148955,0.000218991,0.001684278,-35.3632621,149.1652375,0,0,0.022308466,0,0.009367252,1,1,1,1,0,0,10,-0.000129687,0.000175836,1,0,0,-0.031817418,1500,1500,1000,1500,STABILIZE,INITIALISATION
23:18:46,-0.000709417,0.00096961,0.024169079,0.00026656,0.000254944,0.001801957,-35.3632621,149.1652375,0,0,0.016888823,0,0.015586924,1,1,1,1,0,0,10,-0.000129688,0.000175837,1,0,0,-0.028913483,1500,1500,1000,1500,STABILIZE,INITIALISATION
23:18:50,-0.000598335,0.000974347,0.022826795,0.000319094,0.000270975,0.001624425,-35.3632622,149.1652375,0,0,0.016918569,0,0.021448777,1,1,1,1,0,0,10,-0.000129688,0.000175838,1,53,0,-0.020329752,1500,1500,1000,1500,AUTO,TAKEOFF
23:18:51,-0.000511099,0.00096987,0.022611199,0.000295988,0.000258669,0.001590309,-35.3632622,149.1652375,1.5,0,0.017516365,0,0.015752344,1,1,1,1,0,0,10,-0.000129689,0.000175838,1,163.5,0,0,1500,1500,1000,1500,AUTO,TAKEOFF
23:18:52,-0.00030842,0.001148481,0.022202568,0.000288842,0.000189832,0.001523424,-35.3632621,149.1652375,1.5,0,0.005762378,0,0.006961536,1,1,1,1,0,0,10,-0.000129689,0.000175839,1,164.5,0,0,1500,1500,1000,1500,AUTO,TAKEOFF
23:18:53,-0.000126502,0.001344047,0.021934743,0.000297175,0.000336904,0.00148502,-35.3632621,149.1652375,0,0,0.003530047,0,0.002773735,1,1,1,1,0,0,10,-0.000129689,0.000175839,1,162,0,0,1500,1500,1000,1500,AUTO,TAKEOFF
23:18:54,0.001180311,0.000981415,0.02151482,0.003271929,-0.002560921,0.001720843,-35.3632621,149.1652375,12,0.00025,0.003803043,34.5,0.102849462,1,1,1,1,0,0,10,-0.027147997,-0.000664295,1,161,0,0.221476359,1500,1500,1000,1500,AUTO,TAKEOFF
23:18:55,0.002521637,0.000653469,0.021469594,-0.003025257,0.003485857,0.00139867,-35.3632621,149.1652375,291.5,0.006,0.011440154,54.5,0.8521128,1,1,1,1,0,0,10,-0.132435322,0.118617184,1,165.5,0,0.386421442,1500,1500,1000,1500,AUTO,TAKEOFF
23:18:56,0.03961704,-0.004301042,0.021239465,0.043479001,-0.008849618,0.002958221,-35.36326195,149.165238,1946.75,0.102750005,0.174534311,78.75,1.466635346,1,1,1,1,0,0,10,-3.008666486,0.745081641,1,213,0,0.051721265,1500,1500,1000,1500,AUTO,TAKEOFF
23:18:57,0.052488169,0.001484313,-0.019747274,-0.073367166,0.059705782,-0.067975553,-35.3632615,149.1652404,3090,0.353500023,0.494435728,83,1.457390904,358.5,1,1,1,0,0,10,-10.48348665,2.383354068,0,248.5,0,-0.109591827,1500,1500,1000,1500,AUTO,TAKEOFF
23:18:58,-0.054719534,0.004140971,-0.076209031,-0.054890101,0.003851735,-0.04334855,-35.36326068,149.1652459,4988.5,0.275000015,0.220654713,78.5,1.477291614,355.25,1,1,1,0,0,10,-11.24612093,1.889459968,0,255.75,0,-0.288025353,1500,1500,1000,1500,AUTO,TAKEOFF
23:18:59,-0.067989171,0.005742317,-0.106309161,0.053349072,-0.000611514,-0.023770241,-35.3632606,149.1652456,6135.5,0.228000011,0.35356614,75.5,1.477266431,353.5,1,1,1,0,0,10,-6.951482773,2.088859439,0,254.5,0,-0.404048145,1500,1500,1000,1500,AUTO,TAKEOFF
23:19:00,0.012366903,0.013483295,-0.118176207,0.069755241,0.006893087,-0.000725301,-35.363262,149.165238,8053,0.639000043,0.607158288,78.75,1.501569003,353,1,1,1,0,0,10,3.15810439,-1.887842771,0,165.25,0,-0.526914358,1500,1500,1000,1500,AUTO,TAKEOFF
23:19:01,0.061381593,0.013103413,-0.113520619,0.038850014,-0.026142254,0.026897752,-35.36326375,149.1652343,9227.5,0.453500003,0.375121742,81,1.51808399,353,1,1,1,0,0,10,4.077615142,-5.766839743,0,62.5,0,-0.545700997,1500,1500,1000,1500,AUTO,TAKEOFF
23:19:02,0.022024984,-0.059783516,-0.03400009,-0.079296339,0.040461277,-0.010148271,-35.36326475,149.1652355,11157.75,0.357000019,0.445071265,82.5,1.471027613,357.5,1,1,1,0,0,10,-3.408808529,-1.810816914,-0.5,30,0,-0.539215699,1500,1500,1000,1500,AUTO,TAKEOFF
23:19:03,-0.037859755,0.002634375,-0.097188577,-0.030442724,0.074454701,-0.115398202,-35.36326205,149.1652379,12296.5,0.569500029,0.516888142,82.5,1.489969611,354,1,1,1,0,0,10,-3.975159049,4.82337141,-1,265.5,0,-0.514806509,1500,1500,1000,1500,AUTO,TAKEOFF
23:19:04,-0.006535707,0.03747995,-0.185705569,0.049273646,0.010578222,-0.031397434,-35.36325873,149.1652367,14251.75,0.281750012,0.243168231,81.25,1.524770051,349,1,1,1,0,0,10,2.279384688,5.639231682,-1,168.25,0,-0.526660442,1500,1500,1000,1500,AUTO,TAKEOFF
23:19:05,0.026703824,0.035142031,-0.1940329,0.02372133,-0.034260699,0.021249215,-35.363259,149.1652351,15431,0.223500006,0.235585995,81,1.520317852,348.5,1,1,1,0,0,10,2.970719695,2.917388678,-1,148,0,-0.540731192,1500,1500,1000,1500,AUTO,TAKEOFF
23:19:06,0.003874719,-0.006247848,-0.159784012,-0.022907723,0.001183338,-0.00974801,-35.3632612,149.1652357,17371,0.20175001,0.207194775,81,1.51037547,350.5,1,1,1,0,0,10,0.366458472,1.205062151,-1,124.75,0,-0.547726139,1500,1500,1000,1500,AUTO,TAKEOFF
23:19:07,-0.005780491,-0.004863475,-0.176561929,-0.000598052,0.003124503,-0.030401952,-35.36326185,149.1652364,18540,0.116000008,0.109026607,81,1.518696845,349.5,1,1,1,0,0,10,0.505128562,1.233368635,-1,115,0,-0.550422966,1500,1500,1000,1500,AUTO,TAKEOFF
23:19:08,0.001769862,0.000450512,-0.215657983,0.007095837,0.004617787,-0.028837748,-35.3632621,149.1652365,20490.75,0.024000001,0.020661135,80.25,1.524238169,347.25,1,1,1,0,0,10,1.672814071,1.371471435,-1,100.75,0,-0.564934984,1500,1500,1000,1500,AUTO,TAKEOFF
23:19:09,0.005590767,0.00285144,-0.235002212,0.003289704,0.002407575,-0.022609909,-35.3632621,149.1652364,21662,0.027500001,0.014704049,80,1.524782538,346,1,1,1,0,0,10,2.019462109,1.362180769,-1,99,0,-0.572780728,1500,1500,1000,1500,AUTO,TAKEOFF
23:19:10,0.005495761,0.003591681,-0.260294452,-0.001161541,0.000112806,-0.018710251,-35.3632621,149.1652363,23617.75,0.014250001,0.043782205,80,1.52513358,344.5,1,1,1,0,0,10,1.986999184,1.245973051,-1,100.25,0,-0.585183084,1500,1500,1000,1500,AUTO,TAKEOFF
23:19:11,0.000359022,0.003114325,-0.274261087,-0.051915289,-0.000191379,-0.018238724,-35.3632621,149.1652365,24789,0.027500001,0.051324297,80,1.521234632,344,1,1,1,0,0,10,1.893119633,1.176195323,-1,102,0,-0.59196654,1500,1500,1000,1500,AUTO,TAKEOFF
23:19:12,0.009677153,0.004428702,-0.27115164,0.013939264,-0.00025562,0.020848928,-35.3632623,149.1652364,26735,0.032000002,0.051047445,79,1.525838971,344,1,1,1,0,0,10,2.898999989,0.419602923,-1,90,0,-0.598397806,1500,1500,1000,1500,AUTO,TAKEOFF
23:19:13,0.010621921,0.00315153,-0.253075033,-0.008346885,-0.00038148,0.02462991,-35.3632624,149.1652365,27902.5,0.043500002,0.085795503,79,1.520883679,345,1,1,1,0,0,10,1.98069644,0.259091772,-1,83,0,-0.602684319,1500,1500,1000,1500,AUTO,TAKEOFF
23:19:14,0.000476243,0.002201345,-0.225518662,-0.005192272,-0.00081279,0.020922199,-35.3632624,149.1652375,29845.5,0.075750005,0.090527501,79,1.521950334,346.5,1,1,1,0,0,10,0.651136473,0.228195429,-1,168.25,0,-0.605150744,1500,1500,1000,1500,AUTO,TAKEOFF
23:19:15,-0.00145322,0.001437782,-0.210982159,0.002094945,-0.000119988,0.019157937,-35.3632624,149.165238,31019,0.050000003,0.05741825,79,1.524536431,347.5,1,1,1,0,0,10,0.301898494,0.15979141,-1,269,0,-0.610717744,1500,1500,1000,1500,AUTO,TAKEOFF
23:19:16,0.00059264,0.000538937,-0.190979108,0.00189342,0.000719356,0.015710676,-35.3632624,149.1652382,32957.5,0.007,0.014233962,79,1.526200444,348.5,1,1,1,0,0,10,0.193980619,0.049455722,-1,268.5,0,-0.615847155,1500,1500,1000,1500,AUTO,TAKEOFF
23:19:17,0.001601653,0.000520411,-0.180424437,0.002183648,0.000207828,0.012954849,-35.3632624,149.1652381,34124.5,0.012000001,0.003078024,79,1.526508212,349,1,1,1,0,0,10,0.182256393,0.031585199,-1,266,0,-0.619593501,1500,1500,1000,1500,AUTO,TAKEOFF
23:19:18,0.002059438,0.000665606,-0.165178113,0.000514521,0.000392498,0.011476684,-35.3632623,149.1652379,36079.25,0.022000001,0.003269249,79,1.526629657,350,1,1,1,0,0,10,0.160271682,0.029372274,-1,252.25,0,-0.62927793,1500,1500,1000,1500,AUTO,TAKEOFF
23:19:19,0.002435956,0.001142261,-0.157222576,0.002508167,0.002034834,0.010776355,-35.36326225,149.1652378,37245.5,0.024,0.002643596,79,1.526627004,350.5,1,1,1,0,0,10,0.171959631,0.053972829,-1,233.5,0,-0.632266819,1500,1500,1000,1500,AUTO,TAKEOFF
23:19:20,0.002904751,0.001218655,-0.146052212,0.000590146,0.000667892,0.009141198,-35.3632622,149.1652376,39192,0.018500001,0.0053438,78.25,1.526742786,351,1,1,1,0,0,10,0.189856179,0.053504399,-1,188.5,0,-0.63833493,1500,1500,1000,1500,AUTO,TAKEOFF
23:19:21,0.002648209,0.001467617,-0.139951468,-0.001595968,0.0014825,0.008204805,-35.3632621,149.1652375,40361.5,0.014500001,0.009748919,78,1.526370347,351.5,1,1,1,0,0,10,0.17658405,0.078118201,-1,172.5,0,-0.640406489,1500,1500,1000,1500,AUTO,TAKEOFF
23:19:22,0.002255947,0.001505053,-0.131405063,-0.000606576,-0.000329323,0.006612299,-35.3632621,149.1652375,42302.5,0.007,0.01435852,78,1.526481956,352,1,1,1,0,0,10,0.152073633,0.08379603,-1,165.25,0,-0.647657439,1500,1500,1000,1500,AUTO,TAKEOFF
23:19:23,0.002165421,0.001499165,-0.126539603,0.000899776,-0.000395724,0.007055725,-35.36326205,149.1652374,43470,0.004,0.016122454,78,1.526467323,352,1,1,1,0,0,10,0.141658574,0.089091118,-1,163,0,-0.651826143,1500,1500,1000,1500,AUTO,TAKEOFF
23:19:24,0.001907573,0.001310128,-0.118913233,0.000732754,-0.000482924,0.007152869,-35.363262,149.1652374,45413.5,0.0025,0.017848459,78,1.526310563,353,1,1,1,0,0,10,0.124504017,0.075171335,-1,161.5,0,-0.656318337,1500,1500,1000,1500,AUTO,TAKEOFF
23:19:25,0.002186274,0.000998839,-0.114689872,0.001692347,8.52E-05,0.007527376,-35.363262,149.1652374,46580.5,0.004,0.017714591,78,1.526358068,353,1,1,1,0,0,10,0.138443127,0.057180656,-1,158,0,-0.659680158,1500,1500,1000,1500,AUTO,TAKEOFF
23:19:26,0.002267519,0.001121698,-0.108167252,0.00175655,0.000841567,0.00722179,-35.363262,149.1652374,48526.25,0.00125,0.018365303,78,1.526289612,353,1,1,1,0,0,10,0.140930932,0.06494865,-1,154,0,-0.663549781,1500,1500,1000,1500,AUTO,TAKEOFF
23:19:27,0.002033912,0.001104058,-0.104610097,0.001468748,0.000581282,0.00713753,-35.363262,149.1652373,49694.5,0.001,0.018673395,78,1.52616775,353.5,1,1,1,0,0,10,0.128102496,0.06533524,-1,154,0,-0.665754378,1500,1500,1000,1500,AUTO,TAKEOFF
23:19:28,0.002111704,0.001042528,-0.0980707,0.001276783,-0.000305985,0.005704415,-35.363262,149.1652373,51635.75,0.002,0.018742991,78,1.526497751,354,1,1,1,0,0,10,0.145295348,0.035532879,-1,152.5,0,-0.673657194,1500,1500,1000,1500,AUTO,TAKEOFF
23:19:29,0.002039053,0.000793591,-0.094751813,0.000280481,0.001658786,0.005276305,-35.363262,149.1652373,52801.5,0.002,0.018335558,78,1.526058853,354,1,1,1,0,0,10,0.135489315,0.033339572,-1,152.5,0,-0.676132798,1500,1500,1000,1500,AUTO,TAKEOFF
23:19:30,0.001959613,0.001009819,-0.089983536,0.000129096,5.78E-05,0.003653051,-35.363262,149.1652373,54747,0,0.0175405,77,1.526379704,354,1,1,1,0,0,10,0.134944256,0.049907808,-1,153,0,-0.682182595,1500,1500,1000,1500,AUTO,TAKEOFF
23:19:31,0.002040316,0.001019827,-0.087056171,0.00016851,-0.000162242,0.005270892,-35.363262,149.1652373,55914,0,0.017731538,77,1.526185811,354.5,1,1,1,0,0,10,0.134996235,0.053731307,-1,153,0,-0.685791016,1500,1500,1000,1500,AUTO,TAKEOFF
23:19:32,0.001972336,0.001003097,-0.082982924,0.00043787,0.000426368,0.004484597,-35.363262,149.1652373,57859.75,0,0.017770269,77,1.525928885,355,1,1,1,0,0,10,0.130115911,0.05643075,-1,153.25,0,-0.689696044,1500,1500,1000,1500,AUTO,TAKEOFF
23:19:33,0.002025163,0.000880611,-0.08034952,0.001210201,0.001122635,0.005274557,-35.363262,149.1652373,59028.5,0,0.017806677,77,1.52574265,355,1,1,1,0,0,10,0.130115911,0.05643075,-1,153,0,-0.692282706,1500,1500,1000,1500,AUTO,TAKEOFF
23:19:34,0.001882558,0.001032803,-0.076765632,0.000117148,0.00069729,0.004063433,-35.363262,149.1652373,60933.66667,0,0.018032735,77,1.525638819,355,1,1,1,0,0,10,0.12659429,0.057720544,-1,153.3333333,0,-0.698006173,1500,1500,1000,1500,AUTO,TAKEOFF
23:19:35,0.001971526,0.000874533,-0.074701761,0.001291681,0.000294023,0.004616113,-35.363262,149.1652373,62101,0.000666667,0.017895294,77,1.525809209,355,1,1,1,0,0,10,0.132186532,0.052668045,-1,153,0,-0.701777319,1500,1500,1000,1500,AUTO,TAKEOFF
23:19:36,0.001907898,0.00103822,-0.071104266,-0.000378326,5.41E-05,0.00248191,-35.363262,149.1652373,64046,0.001,0.018297954,77,1.525912007,355,1,1,1,0,0,10,0.121751438,0.059516018,-1,153.3333333,0,-0.707858066,1500,1500,1000,1500,AUTO,TAKEOFF
23:19:37,0.001822248,0.000992177,-0.069289543,0.000589243,-0.00081923,0.002294152,-35.363262,149.1652373,65217.33333,0.001,0.018597823,77,1.525974711,355.6666667,1,1,1,0,0,10,0.120738717,0.057582099,-1,153.6666667,0,-0.712211887,1500,1500,1000,1500,AUTO,TAKEOFF
23:19:38,0.002055042,0.000809062,-0.066573881,0.000830956,0.000132834,0.002589743,-35.363262,149.1652373,67157,0.001333333,0.018309891,76.66666667,1.52604874,356,1,1,1,0,0,10,0.126566671,0.05478834,-1,153.3333333,0,-0.716824551,1500,1500,1000,1500,AUTO,TAKEOFF
23:19:39,0.001882815,0.001002973,-0.064977673,-0.000784929,4.86E-05,0.00232302,-35.363262,149.1652373,68323.66667,0.002,0.018386423,76,1.526047707,356,1,1,1,0,0,10,0.116541515,0.064211411,-1,154,0,-0.719804684,1500,1500,1000,1500,AUTO,TAKEOFF
23:19:40,0.001872332,0.000862008,-0.062564308,-0.000309579,-4.12E-05,0.002215791,-35.363262,149.1652373,70277,0.002,0.018706439,76,1.526507894,356,1,1,1,0,0,10,0.120876163,0.056752399,-1,153.6666667,0,-0.728128235,1500,1500,1000,1500,AUTO,TAKEOFF
23:19:41,0.001922598,0.000902394,-0.061318612,-8.99E-06,-0.00027517,0.001925148,-35.363262,149.1652373,71443.66667,0.002,0.018845841,76,1.5263261,356,1,1,1,0,0,10,0.125919099,0.057902245,-1,153,0,-0.731525064,1500,1500,1000,1500,AUTO,TAKEOFF
23:19:42,0.002634601,0.001005586,-0.05884093,-0.000527186,-0.000166371,0.001967361,-35.363262,149.1652373,73427.5,0.0025,0.020542857,76,1.526626527,356,1,1,1,0,0,10,0.163883153,0.063825536,-1,148,0,-0.736325666,1500,1500,1000,1500,AUTO,TAKEOFF
23:19:43,0.002521377,0.001024292,-0.057565963,0.002055387,0.000965912,0.003699003,-35.363262,149.1652373,74598.5,0.0065,0.023329156,76,1.526267707,356,1,1,1,0,0,10,0.144549049,0.06205038,-1,146,0,-0.73843503,1500,1500,1000,1500,AUTO,TAKEOFF
23:19:44,0.001570999,0.001067496,-0.055100992,-0.001438366,-0.00101029,0.002279803,-35.363262,149.1652372,76500.66667,0.008,0.02339505,76,1.526516318,356,1,1,1,0,0,10,0.120431542,0.043820464,-1,149.6666667,0,-0.746839186,1500,1500,1000,1500,AUTO,TAKEOFF
23:19:45,0.001458455,0.001144596,-0.054127298,-0.000117525,0.000552631,0.002131468,-35.363262,149.1652373,77667.66667,0.004,0.020576994,76,1.526469111,356,1,1,1,0,0,10,0.106071018,0.055762763,-1,154.6666667,0,-0.750631491,1500,1500,1000,1500,AUTO,TAKEOFF
23:19:46,0.001409787,0.001651449,-0.052280632,0.001246698,-2.53E-05,0.002017745,-35.36326193,149.1652373,79612.66667,0.005666667,0.02295639,76,1.526672045,356.6666667,1,1,1,0,0,10,0.089602465,0.08072636,-1,161,0,-0.756193022,1500,1500,1000,1500,AUTO,TAKEOFF
23:19:47,0.001333836,0.001156913,-0.051620105,-0.001736222,-0.000582528,0.001322837,-35.3632619,149.1652373,80779.33333,0.010333334,0.023795779,76,1.52671953,357,1,1,1,0,0,10,0.091219604,0.056871697,-1,161.6666667,0,-0.757989903,1500,1500,1000,1500,AUTO,TAKEOFF
23:19:48,0.001878037,7.09E-06,-0.050139009,0.00137672,0.000234786,0.001538037,-35.3632619,149.1652373,82724.66667,0.008666667,0.018740633,76,1.52675132,357,1,1,1,0,0,10,0.11905511,0.011194866,-1,155.6666667,0,-0.759654919,1500,1500,1000,1500,AUTO,TAKEOFF
23:19:49,0.002294603,0.000639778,-0.049437535,0.001303274,0.001587191,0.002757895,-35.36326193,149.1652373,83896,0.005333333,0.016988698,76,1.52662007,357,1,1,1,0,0,10,0.138376842,0.040714599,-1,151.3333333,0,-0.757880827,1500,1500,1000,1500,AUTO,TAKEOFF
23:19:50,0.002060586,0.000838391,-0.048113058,-0.000749865,0.000192426,0.002425182,-35.3632619,149.1652373,85836.66667,0.002333333,0.018778184,76,1.526164373,357,1,1,1,0,0,10,0.124942064,0.055669644,-1,151.3333333,0,-0.758626302,1500,1500,1000,1500,AUTO,TAKEOFF
23:19:51,0.002545275,0.001051025,-0.047463644,0.000999459,0.001008334,0.000914783,-35.3632619,149.1652373,87003.33333,0.002,0.020144495,76,1.526544809,357,1,1,1,0,0,10,0.155181204,0.065353612,-1,148,0,-0.758030593,1500,1500,1000,1500,AUTO,TAKEOFF
23:19:52,0.002331889,0.000929646,-0.046597078,-0.001724114,0.000185822,0.002062755,-35.3632619,149.1652372,88948,0.006666667,0.023719906,76,1.52632757,357,1,1,1,0,0,10,0.147999048,0.057652699,-1,145.6666667,0,-0.757060528,1500,1500,1000,1500,AUTO,TAKEOFF
23:19:53,0.00194227,0.000981803,-0.045658164,-0.000121718,0.000982888,0.001775999,-35.3632619,149.1652372,90115,0.009000001,0.023553715,76,1.526209672,357,1,1,1,0,0,10,0.122829966,0.065051941,-1,148.3333333,0,-0.756845673,1500,1500,1000,1500,AUTO,TAKEOFF
23:19:54,0.001332901,0.001132929,-0.045057733,8.31E-05,-0.000512102,0.000244167,-35.3632619,149.1652373,92059.66667,0.003666667,0.019737028,76,1.526508888,357,1,1,1,0,0,10,0.088105624,0.061856004,-1,156.3333333,0,-0.75543944,1500,1500,1000,1500,AUTO,TAKEOFF
23:19:55,0.001259018,0.00069766,-0.044308657,0.000181658,-0.000631379,0.001821255,-35.3632619,149.1652373,93230.66667,0.001666667,0.018572159,76,1.526493073,357,1,1,1,0,0,10,0.083510816,0.041649383,-1,158.6666667,0,-0.753421207,1500,1500,1000,1500,AUTO,TAKEOFF
23:19:56,0.00167665,0.000746711,-0.043558735,7.85E-05,-0.00053855,0.000873712,-35.3632619,149.1652373,95176.33333,0.005333334,0.016629114,76,1.526474357,357,1,1,1,0,0,10,0.101862155,0.051069729,-1,158,0,-0.753388643,1500,1500,1000,1500,AUTO,TAKEOFF
23:19:57,0.001791254,0.000795978,-0.043075003,0.000658676,0.000166557,0.001055783,-35.3632619,149.1652373,96344,0.006,0.016529488,76,1.526581645,357,1,1,1,0,0,10,0.110886708,0.058928296,-1,157,0,-0.753645817,1500,1500,1000,1500,AUTO,TAKEOFF
23:19:58,0.002175546,0.001386621,-0.042375411,0.000230745,0.000955436,0.000921251,-35.3632619,149.1652373,98289,0.004333333,0.018913778,76,1.526368936,357,1,1,1,0,0,10,0.128280863,0.082087971,-1,155,0,-0.752916674,1500,1500,1000,1500,AUTO,TAKEOFF
23:19:59,0.001849633,0.001676964,-0.041992502,-0.000236067,0.000185277,0.000718162,-35.3632619,149.1652373,99464.66667,0.003,0.022649675,76,1.526210984,357,1,1,1,0,0,10,0.116225888,0.104731207,-1,156.6666667,0,-0.755374352,1500,1500,1000,1500,AUTO,TAKEOFF
23:20:00,0.001590197,0.001230132,-0.040638006,0.000164439,0.000264306,0.001197226,-35.3632619,149.1652373,101401.3333,0.010000001,0.025773037,76,1.526219209,357,1,1,1,0,0,10,0.118593988,0.057694594,-1,156.6666667,0,-0.752063771,1500,1500,1000,1500,AUTO,TAKEOFF
23:20:01,0.001711976,0.000190157,-0.040305528,-0.000714369,-0.001817055,0.001003235,-35.3632619,149.1652373,102568.6667,0.010666667,0.024423332,76,1.526568015,357,1,1,1,0,0,10,0.119904064,0.003758768,-1,153.6666667,0,-0.751874983,1500,1500,1000,1500,AUTO,TAKEOFF
23:20:02,0.002590258,0.000331254,-0.039904468,0.000426999,0.000581584,0.00095308,-35.363262,149.1652373,104522,0.002333333,0.019598094,76,1.526445349,357,1,1,1,0,0,10,0.165145372,0.021737489,-1,144,0,-0.754078746,1500,1500,1000,1500,AUTO,TAKEOFF
23:20:03,0.002410582,0.000477473,-0.039530401,0.000492162,0.000670174,0.001328993,-35.363262,149.1652373,105689,0.008,0.020673031,76,1.526218971,357,1,1,1,0,0,10,0.15457585,0.030645911,-1,142.3333333,0,-0.753437479,1500,1500,1000,1500,AUTO,TAKEOFF
23:20:04,0.001421752,0.000972139,-0.039242094,-0.001720067,0.000428679,0.001508369,-35.363262,149.1652373,107637.6667,0.011000001,0.020322638,76,1.526189446,357,1,1,1,0,0,10,0.093130489,0.054358244,-1,149.3333333,0,-0.752434889,1500,1500,1000,1500,AUTO,TAKEOFF
23:20:05,0.001329397,0.00143727,-0.038877641,0.000610456,0.000719356,0.001968749,-35.363262,149.1652373,108805,0.006666667,0.018415269,76,1.526417971,357,1,1,1,0,0,10,0.082905961,0.070430202,-1,156.6666667,0,-0.750869135,1500,1500,1000,1500,AUTO,TAKEOFF
23:20:06,0.001376665,0.0006832,-0.038428767,-0.00045761,0.000509708,0.000993934,-35.363262,149.1652373,110746,0.003,0.017323578,76,1.526365519,357,1,1,1,0,0,10,0.084648974,0.042658816,-1,159.6666667,0,-0.75180012,1500,1500,1000,1500,AUTO,TAKEOFF
23:20:07,0.001681072,0.000867756,-0.038462584,0.000364069,0.001213658,0.000628094,-35.363262,149.1652373,111915.6667,0.005666667,0.015939553,76,1.526405374,357,1,1,1,0,0,10,0.107161132,0.059355653,-1,158.3333333,0,-0.750218093,1500,1500,1000,1500,AUTO,TAKEOFF
23:20:08,0.001782616,0.001735789,-0.038027506,0.000914141,-0.000318464,0.000949686,-35.36326193,149.1652373,113857.6667,0.006,0.020899098,76,1.526068807,357,1,1,1,0,0,10,0.114505825,0.103655783,-1,159.6666667,0,-0.750247379,1500,1500,1000,1500,AUTO,TAKEOFF
23:20:09,0.002006671,0.001292223,-0.037854871,0.000918256,-8.53E-05,0.002538324,-35.3632619,149.1652373,115025.3333,0.008666667,0.023981695,76,1.52605172,357,1,1,1,0,0,10,0.12617446,0.084111817,-1,157,0,-0.750354787,1500,1500,1000,1500,AUTO,TAKEOFF
23:20:10,0.001661921,0.000580279,-0.037464054,-0.000859266,-0.001756374,0.002032661,-35.3632619,149.1652373,116969.6667,0.008666667,0.024480237,76,1.526094238,357,1,1,1,0,0,10,0.100371631,0.045283802,-1,155,0,-0.749322911,1500,1500,1000,1500,AUTO,TAKEOFF
23:20:11,0.001703567,0.000182985,-0.037408697,0.001345958,0.001765645,0.001283482,-35.3632619,149.1652373,118137,0.004666667,0.020618871,76,1.525818507,357,1,1,1,0,0,10,0.102483153,0.024352562,-1,152.6666667,0,-0.748925765,1500,1500,1000,1500,AUTO,TAKEOFF
23:20:12,0.002130839,0.000840873,-0.037252064,0.001234689,0.000379235,0.000832285,-35.3632619,149.1652373,120082.6667,0.001333333,0.01813007,76,1.526366631,357,1,1,1,0,0,10,0.136295184,0.051862661,-1,150,0,-0.747213542,1500,1500,1000,1500,AUTO,TAKEOFF
23:20:13,0.002599534,0.000900121,-0.037192716,0.000313597,-6.73E-05,0.002323688,-35.3632619,149.1652373,121252.3333,0.002333333,0.020626938,76,1.526133219,357,1,1,1,0,0,10,0.160295417,0.050442283,-1,145.3333333,0,-0.745618482,1500,1500,1000,1500,AUTO,TAKEOFF
23:20:14,0.002002548,0.000920879,-0.036631214,-0.000673338,-0.000401907,0.000561544,-35.3632619,149.1652372,123193,0.008666667,0.023138677,76,1.525807301,357,1,1,1,0,0,10,0.123670213,0.067126662,-1,147,0,-0.746276041,1500,1500,1000,1500,AUTO,TAKEOFF
23:20:15,0.001365756,0.001083231,-0.036647386,-0.000163859,0.000574406,0.002401034,-35.3632619,149.1652372,124361,0.008333334,0.022159639,76,1.52555573,357,1,1,1,0,0,10,0.091239202,0.073942401,-1,151.6666667,0,-0.74486653,1500,1500,1000,1500,AUTO,TAKEOFF
23:20:16,0.00115871,0.00113173,-0.035941912,0.000977704,-7.78E-05,0.001747215,-35.3632619,149.1652373,126309.6667,0.002,0.01911367,76,1.525938988,357,1,1,1,0,0,10,0.092390227,0.041809701,-1,157.6666667,0,-0.742262363,1500,1500,1000,1500,AUTO,TAKEOFF
23:20:17,0.001494987,0.000637936,-0.035819244,0.001228425,0.000494567,0.001962089,-35.3632619,149.1652373,127480,0.004,0.017542426,76,1.526012858,357,1,1,1,0,0,10,0.111331721,0.027550347,-1,157.3333333,0,-0.740927716,1500,1500,1000,1500,AUTO,TAKEOFF
23:20:18,0.001794197,0.00079695,-0.035832843,-0.000186347,0.000212797,0.000323529,-35.3632619,149.1652373,129421,0.006,0.016838657,76,1.525913437,357,1,1,1,0,0,10,0.120799892,0.040201683,-1,156,0,-0.741914054,1500,1500,1000,1500,AUTO,TAKEOFF
23:20:19,0.001990381,0.000845743,-0.035603245,0.001108758,8.75E-05,0.001655478,-35.3632619,149.1652373,130588.6667,0.005666667,0.017416466,76,1.525889953,357,1,1,1,0,0,10,0.131189475,0.049025683,-1,154,0,-0.740576148,1500,1500,1000,1500,AUTO,TAKEOFF
23:20:20,0.001976614,0.000864496,-0.035613496,0.000624955,0.000466737,0.000945187,-35.3632619,149.1652373,132533,0.003,0.019468075,76,1.526074052,357,1,1,1,0,0,10,0.123515358,0.053312946,-1,152.6666667,0,-0.741113265,1500,1500,1000,1500,AUTO,TAKEOFF
23:20:21,0.001759715,0.0009385,-0.035686858,0.000383592,0.000476393,0.002012187,-35.3632619,149.1652373,133700,0.002666667,0.019410631,76,1.525969227,357,1,1,1,0,0,10,0.115194025,0.057062707,-1,153.6666667,0,-0.740804017,1500,1500,1000,1500,AUTO,TAKEOFF
23:20:22,0.001638227,0.00181539,-0.035408261,-0.00161537,-0.000362984,-0.000283849,-35.3632619,149.1652373,135648.3333,0.002,0.02197562,76,1.525617997,357,1,1,1,0,0,10,0.106756747,0.101333218,-1,157.3333333,0,-0.737724602,1500,1500,1000,1500,AUTO,TAKEOFF
23:20:23,0.001650135,0.001434929,-0.035145855,0.001607859,-0.00018048,0.00148345,-35.3632619,149.1652373,136818,0.007,0.023899009,76,1.525892735,357.3333333,1,1,1,0,0,10,0.108513656,0.091866943,-1,157.6666667,0,-0.737679025,1500,1500,1000,1500,AUTO,TAKEOFF
23:20:24,0.002437103,0.000601333,-0.035219011,-0.000295616,-0.001550939,0.000381569,-35.3632619,149.1652373,138760.6667,0.010666667,0.026047843,76,1.525656621,357,1,1,1,0,0,10,0.14781638,0.04654356,-1,149.3333333,0,-0.73654296,1500,1500,1000,1500,AUTO,TAKEOFF
23:20:25,0.002160731,0.000292482,-0.035148606,0.000952274,0.001260715,0.000345223,-35.3632619,149.1652372,139927.3333,0.010000001,0.024204943,76,1.525198539,357.3333333,1,1,1,0,0,10,0.127012312,0.02651998,-1,146,0,-0.736106753,1500,1500,1000,1500,AUTO,TAKEOFF
23:20:26,0.001105337,0.000420831,-0.035065184,-0.001414731,0.000362209,0.000574493,-35.363262,149.1652373,141871.6667,0.007666667,0.01864292,76,1.525322994,357.3333333,1,1,1,0,0,10,0.075989157,0.032243141,-1,152.6666667,0,-0.734619141,1500,1500,1000,1500,AUTO,TAKEOFF
23:20:27,0.00114453,0.00056591,-0.035070632,0.000401493,0.00096975,0.000469063,-35.363262,149.1652373,143039,0.005333334,0.014351872,76,1.52559642,357.6666667,1,1,1,0,0,10,0.076809523,0.037798256,-1,157,0,-0.734335919,1500,1500,1000,1500,AUTO,TAKEOFF
23:20:28,0.001707036,0.000869149,-0.035081855,-0.000174609,0.00021478,-0.000271875,-35.363262,149.1652373,144984,0.008,0.012859959,74.66666667,1.52640144,357.6666667,1,1,1,0,0,10,0.112954895,0.05537711,-1,156.6666667,0,-0.733805339,1500,1500,1000,1500,AUTO,TAKEOFF
23:20:29,0.001734676,0.001086424,-0.035015879,0.000358863,-2.52E-05,0.001608623,-35.363262,149.1652373,146159.3333,0.007,0.015344082,68,1.526215911,357.6666667,1,1,1,0,0,10,0.107979178,0.06511159,-1,157,0,-0.748414695,1500,1500,1000,1500,AUTO,TAKEOFF
23:20:30,-0.04876626,0.050741743,0.203269303,-0.031275344,-0.048754732,0.431434453,-35.36326237,149.1652367,148020.6667,0.169000008,0.28966669,47.66666667,1.268797517,11.33333333,1,1,1,0,0,10,3.847759167,-2.870155752,-1.666666667,99.33333333,0,-0.904072245,1500,1500,1000,1500,AUTO,TAKEOFF
23:20:31,0.004199788,-0.039010022,0.40540429,0.081419812,-0.090092607,0.112630634,-35.36326387,149.165234,148839.6667,0.462333361,0.394544244,42,0.873837709,22.66666667,1,1,1,0,0,10,9.903575261,-5.53959926,-2,61.66666667,0,-0.87913084,1500,1500,1000,1500,AUTO,TAKEOFF
23:20:32,0.032456852,-0.027597466,0.412679791,-0.028763978,0.045173187,-0.041926137,-35.3632638,149.1652327,149672.6667,0.176333343,0.248954053,38,0.477137993,23.33333333,1,1,1,0,0,10,6.40789938,-2.033176422,-1,70,0,-0.616031885,1500,1500,1000,1500,AUTO,TAKEOFF
23:20:33,0.018118371,0.002233277,0.375993768,0.075304193,0.026685635,-0.050328467,-35.36326257,149.1652347,149975.3333,0.354000022,0.359236757,36.66666667,0.314398199,21,1,1,1,0,0,10,3.268845558,-0.496540581,-1,87.33333333,0,-0.451943348,1500,1500,1000,1500,AUTO,TAKEOFF
23:20:34,-0.010014041,0.025528997,0.312005689,0.28728126,0.019752013,-0.104994087,-35.3632612,149.1652383,150170,0.226666669,0.183974527,34,-0.02437992,17.33333333,1,1,1,0,0,10,-0.460585664,0.631999155,-1,215.3333333,68.66666667,-0.19885091,1500,1500,1000,1500,AUTO,TAKEOFF
23:20:35,-0.038686054,0.035008218,0.281816612,-0.611099114,-0.012684036,-0.03268853,-35.36326137,149.1652386,150078.6667,0.115333337,0.178525803,35.33333333,-0.132629625,15.66666667,1,1,1,0,0,10,-1.543481827,1.04125464,-1,226,103,-0.079065754,1500,1500,1000,1500,AUTO,ON MISSION
23:20:36,-0.036104422,0.042450509,0.215171993,-0.401880562,0.029760377,-0.244093008,-35.36326447,149.1652344,149978,0.589000007,0.646872183,36,-0.004783395,11.66666667,1,1,1,0,0,10,-2.38650763,1.616840283,-4.333333333,226,102,0.021347655,1500,1500,1000,1500,AUTO,ON MISSION
23:20:37,-0.067356714,0.029154521,-0.248776411,0.388367444,-0.002214617,-0.848739485,-35.3632685,149.1652292,149964,0.96266669,1.025805632,37,0.006701983,345,1,1,1,0,0,10,-4.562523921,0.262490183,-30.66666667,226,101.6666667,0.035410155,1500,1500,1000,1500,AUTO,ON MISSION
23:20:38,-0.106586603,-0.087536886,-1.254636526,0.256218615,-0.050199762,-0.755679111,-35.3632807,149.1652141,149953.6667,1.852333426,2.037850658,38.66666667,0.006671194,287.6666667,1,1,1,0,0,10,-5.074377855,-6.591992537,-81,226,99.66666667,0.046126301,1500,1500,1000,1500,AUTO,ON MISSION
23:20:39,-0.051620667,-0.160956651,-1.808514555,-0.069620932,-0.011154092,-0.730858246,-35.36329253,149.1651997,149940.6667,2.65500021,2.850515763,40.66666667,-0.001050228,255.6666667,1,1,1,0,0,10,-0.93376414,-10.23689747,-112,226,97.66666667,0.058570962,1500,1500,1000,1500,AUTO,ON MISSION
23:20:40,0.031004501,-0.198964511,-2.222500165,0.018958698,-0.025449951,0.070168292,-35.36332033,149.1651648,149925.6667,3.916000128,4.207446973,44,-0.006419304,232,1,1,1,0,0,10,3.851745208,-11.59208552,-133.3333333,226,93,0.073834633,1500,1500,1000,1500,AUTO,ON MISSION
23:20:41,0.030777313,-0.220303809,-2.189334472,0.023855239,-0.004862124,0.009910965,-35.36334173,149.1651374,149909.6667,4.79333353,5.048690001,47.66666667,-0.024573226,234,1,1,1,0,0,10,4.006712596,-12.68285529,-134,226,90,0.089713539,1500,1500,1000,1500,AUTO,ON MISSION
23:20:42,0.049280117,-0.188888609,-2.205785513,0.002541759,0.030265699,-0.013090295,-35.36338523,149.1650812,149928.6667,5.987666925,6.12414217,48.66666667,0.048012013,233,1,1,1,0,0,10,4.493464788,-10.86323229,-134,226,82.66666667,0.070791014,1500,1500,1000,1500,AUTO,ON MISSION
23:20:43,0.052638711,-0.174133092,-2.213125388,0.003754848,0.007637875,-0.005452121,-35.36341447,149.1650432,149968.6667,6.393667062,6.487187068,47.66666667,0.047981101,233,1,1,1,0,0,10,4.429451625,-10.02361584,-134,226,78,0.030895181,1500,1500,1000,1500,AUTO,ON MISSION
23:20:44,0.058988966,-0.144166787,-2.223847866,0.016317815,0.03311343,-0.01022084,-35.3634658,149.1649765,150021,6.75266695,6.777872562,45,0.035548993,232,1,1,1,0,0,10,4.419956207,-8.156781514,-133,226,69.66666667,-0.02171224,1500,1500,1000,1500,AUTO,ON MISSION
23:20:45,0.069226133,-0.137705276,-2.231152058,-0.00880834,-0.032661832,-0.000921875,-35.3634973,149.164936,150053,6.753667037,6.747223377,43.33333333,0.009821597,232,1,1,1,0,0,10,4.859272003,-7.721871853,-133,226,64.66666667,-0.053271484,1500,1500,1000,1500,AUTO,ON MISSION
23:20:46,0.063442597,-0.145414347,-2.239202023,0.022066298,0.00619174,-0.0061239,-35.36354977,149.164868,150019.3333,6.832667033,6.83175532,45,-0.032834283,231,1,1,1,0,0,10,4.455095927,-8.018723965,-133,226,56,-0.019824218,1500,1500,1000,1500,AUTO,ON MISSION
23:20:47,0.067445738,-0.138647631,-2.244776408,0.008601122,-0.00477193,-0.009761535,-35.3635817,149.1648267,150014,6.869000276,6.865138054,44.33333333,-0.010622253,231,1,1,1,0,0,10,4.605477015,-7.646430651,-133,226,51,-0.014326172,1500,1500,1000,1500,AUTO,ON MISSION
23:20:48,0.067454668,-0.140155559,-2.252252738,0.031007854,-0.008862653,-0.005857055,-35.36363467,149.1647585,150021.3333,6.851333618,6.848779519,44.33333333,-0.019611651,230.3333333,1,1,1,0,0,10,4.556114038,-7.70980231,-133,226,42.33333333,-0.021744791,1500,1500,1000,1500,AUTO,ON MISSION
23:20:49,0.073598782,-0.137456526,-2.256449302,0.009051275,0.008869386,-0.003074005,-35.3636668,149.1647175,150026,6.845667044,6.846712271,44.33333333,-0.019460966,230,1,1,1,0,0,10,4.849946817,-7.520522912,-133,226,37.33333333,-0.02648763,1500,1500,1000,1500,AUTO,ON MISSION
23:20:50,0.077996125,-0.136557266,-2.263654391,0.007568106,0.02364487,-0.004251452,-35.36372,149.1646496,150032,6.853666941,6.819580555,44,-0.019981176,230,1,1,1,0,0,10,5.044220606,-7.440457344,-133,226,28.66666667,-0.032643229,1500,1500,1000,1500,AUTO,ON MISSION
23:20:51,0.078500574,-0.096085283,-2.26611503,0.096675053,0.066093856,-0.012887304,-35.36375157,149.1646089,150051,6.8033336,6.684767723,41,0.039744662,230,1,1,1,0,0,10,4.864785512,-5.172320525,-133,226,23.66666667,-0.051350909,1500,1500,1000,1500,AUTO,ON MISSION
23:20:52,0.083769788,-0.033520407,-2.269920349,0.35152786,0.038637171,-0.026741403,-35.3638009,149.1645452,150109.6667,6.119000276,5.883172671,36,-0.010395389,229,1,1,1,0,0,10,4.713329792,-1.659075141,-133,226,15.66666667,-0.110426431,1500,1500,1000,1500,AUTO,ON MISSION
23:20:53,0.07183452,-0.000167581,-2.271606286,-0.484638333,0.040222203,-0.000903863,-35.36382677,149.1645116,150099,5.406666915,5.186405182,34.66666667,-0.036756714,229,1,1,1,0,0,10,4.334907532,0.345136682,-133,226,11.33333333,-0.099274084,1500,1500,1000,1500,AUTO,ON MISSION
23:20:54,0.054647819,0.046126939,-2.274597486,-0.329613159,0.007398298,0.020341453,-35.3638615,149.1644659,150056.3333,4.051333507,3.739862045,34,-0.050074704,229,1,1,1,0,0,10,3.04031388,3.098486423,-133,225.3333333,6,-0.056777343,1500,1500,1000,1500,AUTO,ON MISSION
23:20:55,0.049257015,0.048987802,-2.27738293,0.27222985,0.022922558,-0.031916348,-35.36387697,149.1644458,150025.3333,3.104666869,2.897580703,34.66666667,-0.046013858,229,1,1,1,0,0,10,2.563377698,3.407988469,-133,225,3.333333333,-0.02570638,1500,1500,1000,1500,AUTO,ON MISSION
23:20:56,0.021926834,0.076218697,-2.281358004,-0.537743857,-0.00103684,0.003520073,-35.36389407,149.1644232,149997,1.800000032,1.556419492,35.33333333,-0.012290788,229,1,1,1,0,0,10,1.093430996,4.909883022,-133,219.6666667,0.333333333,0.00226888,1500,1500,1000,1500,AUTO,ON MISSION
23:20:57,0.02255663,0.058109599,-2.283571323,0.432982326,-0.027972436,-0.006647301,-35.3638995,149.1644159,149992.6667,1.001333396,0.868811031,36,-0.010170758,229,1,1,1,0,0,10,0.647144139,3.910039504,-133,154.6666667,0,0.006888021,1500,1500,1000,1500,AUTO,ON MISSION
23:20:58,0.012186191,0.033058075,-2.288447539,0.315408801,-0.018373699,-0.002862769,-35.3639034,149.1644113,149991.6667,0.271333342,0.192324969,36,0.003010444,228,1,1,1,0,0,10,0.313245386,2.434008996,-133,55,0,0.008020833,1500,1500,1000,1500,AUTO,ON MISSION
23:20:59,0.002326175,0.016175901,-2.29076306,-0.214820584,-0.026046626,-0.002989331,-35.36390393,149.1644111,149997,0.06966667,0.074743458,36,0.001748943,228,1,1,1,0,0,10,0.243360947,1.3765076,-133,51,0,0.002526042,1500,1500,1000,1500,AUTO,ON MISSION
23:21:00,0.006262026,-0.011220818,-2.295296907,-0.039166508,-0.011496696,0.00056483,-35.36390407,149.1644121,150000,0.096000006,0.079055245,36.33333333,-0.006008261,228,1,1,1,0,0,10,0.648709526,-0.323329161,-133,338.3333333,0,-0.004671224,1500,1500,1000,1500,RTL,RETURN TO ORIGIN
23:21:01,0.021690757,-0.000400179,-2.297256947,0.150296092,0.026919079,0.003254246,-35.36390433,149.1644125,150003,0.048000003,0.110488544,36.33333333,0.012139948,228,1,1,1,0,0,10,0.949204842,0.215712304,-133,329,0,-0.013932292,1500,1500,1000,1500,RTL,RETURN TO ORIGIN
23:21:02,0.004961928,0.020215805,-2.299444516,-0.123325065,0.042414599,-0.005459823,-35.36390427,149.1644121,150019,0.09633334,0.135991325,36,-0.010515738,228,1,1,1,0,0,10,0.158757783,1.264717678,-133,46,103,-0.019664713,1500,1500,1000,1500,RTL,RETURN TO ORIGIN
23:21:03,-0.001635438,0.044740099,-2.299916188,0.280602117,0.022131846,0.004696122,-35.36390333,149.1644124,150009.6667,0.217000018,0.290122057,36.66666667,-0.016289851,228,1,1,1,0,0,10,-0.245885298,2.574342092,-133,46,103,-0.010055338,1500,1500,1000,1500,RTL,RETURN TO ORIGIN
23:21:04,-0.01239219,0.074230167,-2.302560727,0.177331885,0.031455136,0.009562914,-35.36389893,149.1644169,150003.3333,0.69933337,0.836901784,37,-0.011351158,228,1,1,1,0,0,10,-0.8356812,4.328927835,-133,46,102.3333333,-0.003515625,1500,1500,1000,1500,RTL,RETURN TO ORIGIN
23:21:05,-0.011034198,0.101188312,-2.304296176,-0.06775522,0.040458312,-0.017361758,-35.36389403,149.164423,149995.6667,1.170000076,1.307530403,37.66666667,-0.017756426,227.3333333,1,1,1,0,0,10,-1.017507275,5.927548885,-133,46,101.6666667,0.003951823,1500,1500,1000,1500,RTL,RETURN TO ORIGIN
23:21:06,-0.032814498,0.156681751,-2.308010976,-0.07291913,0.032930926,-0.0099578,-35.36387967,149.1644405,149978,2.184333364,2.425798178,40,-0.023666558,227,1,1,1,0,0,10,-2.279604753,9.151487986,-133,46,99.33333333,0.021588541,1500,1500,1000,1500,RTL,RETURN TO ORIGIN
23:21:07,-0.042908726,0.166387205,-2.309004545,0.055704301,0.011384779,-0.004222145,-35.36386633,149.164457,149963,3.023000161,3.211985429,41.66666667,-0.021286491,227,1,1,1,0,0,10,-2.903952678,9.768784523,-133,46,97,0.036595051,1500,1500,1000,1500,RTL,RETURN TO ORIGIN
23:21:08,-0.050356602,0.19742696,-2.31098326,-0.031628974,0.027646862,-0.003338522,-35.363837,149.1644949,149936,4.239666939,4.479372978,46,-0.031645001,227,1,1,1,0,0,10,-3.335893949,11.65031751,-133,46,92.33333333,0.063297524,1500,1500,1000,1500,RTL,RETURN TO ORIGIN
23:21:09,-0.05575682,0.202708026,-2.312132517,-0.0167353,-0.014356577,-0.000841394,-35.36381457,149.1645241,149916.6667,5.101333618,5.257581552,48.33333333,-0.013500003,227,1,1,1,0,0,10,-3.637250821,11.87899208,-133,46,88.66666667,0.082893878,1500,1500,1000,1500,RTL,RETURN TO ORIGIN
23:21:10,-0.063061784,0.171244065,-2.310068051,-0.006756363,-0.014883244,-0.001696202,-35.36377003,149.1645821,149946,6.056000233,6.15187947,48,0.051345428,227,1,1,1,0,0,10,-3.960907141,10.23438231,-133,46,81.66666667,0.053749998,1500,1500,1000,1500,RTL,RETURN TO ORIGIN
23:21:11,-0.071099562,0.165038894,-2.310666482,-0.002903136,-0.026985466,-0.001688449,-35.36374083,149.1646201,149973,6.393000285,6.481057962,48,0.035550375,227,1,1,1,0,0,10,-4.360200723,9.772607168,-133,46,76.66666667,0.02657552,1500,1500,1000,1500,RTL,RETURN TO ORIGIN
23:21:12,-0.073727158,0.133832296,-2.310463111,0.007479945,-0.022181239,0.000918329,-35.3636896,149.1646865,150017.6667,6.678000132,6.711117586,45,0.041824538,227,1,1,1,0,0,10,-4.438882669,7.893847307,-133,46,68.66666667,-0.018144531,1500,1500,1000,1500,RTL,RETURN TO ORIGIN
23:21:13,-0.072443768,0.139057373,-2.311469158,-0.022059003,0.032555909,0.001707005,-35.36365863,149.1647267,150031.3333,6.663333734,6.710151196,44.66666667,-0.005775074,227,1,1,1,0,0,10,-4.311701139,8.126669725,-133,46,63.66666667,-0.032190755,1500,1500,1000,1500,RTL,RETURN TO ORIGIN
23:21:14,-0.074253244,0.146104068,-2.314092557,-0.025644127,-0.015707322,-0.001079106,-35.36360677,149.1647939,149996,6.782000383,6.832362334,46,-0.017648281,227,1,1,1,0,0,10,-4.423316161,8.397339503,-133,46,55,0.003434245,1500,1500,1000,1500,RTL,RETURN TO ORIGIN
23:21:15,-0.072815383,0.140763188,-2.313728412,0.021574224,-0.008608068,0.002175725,-35.36357497,149.1648349,149991,6.841000239,6.873293082,46,0.006610849,227,1,1,1,0,0,10,-4.318379561,8.090276718,-133,46,50,0.008590494,1500,1500,1000,1500,RTL,RETURN TO ORIGIN
23:21:16,-0.079873073,0.138751884,-2.315267483,0.015370129,-0.010665475,-0.00220992,-35.36352177,149.164903,150001.6667,6.876333714,6.871664047,45,0.010155809,227,1,1,1,0,0,10,-4.689026356,7.910526911,-133,46,41.33333333,-0.002138672,1500,1500,1000,1500,RTL,RETURN TO ORIGIN
23:21:17,-0.082507121,0.132506803,-2.315441926,0.015114318,0.002915481,-0.001591529,-35.36348973,149.164944,150006.3333,6.866000175,6.864606539,44.33333333,0.014542439,227,1,1,1,0,0,10,-4.869731267,7.552925905,-133,46,36.33333333,-0.006819662,1500,1500,1000,1500,RTL,RETURN TO ORIGIN
23:21:18,-0.07993346,0.127066789,-2.316188574,-0.000702893,-0.035359561,-0.002455142,-35.3634368,149.165012,150002,6.805000305,6.818678061,44,0.008155554,227,1,1,1,0,0,10,-4.701895396,7.177725951,-133,46,27.66666667,-0.002360026,1500,1500,1000,1500,RTL,RETURN TO ORIGIN
23:21:19,-0.07941893,0.083967743,-2.314188719,-0.064112465,-0.053978519,0.003067662,-35.36340557,149.1650524,150027.6667,6.662666957,6.627159119,40.66666667,0.069860275,227,1,1,1,0,0,10,-4.539212704,4.798777898,-133,46,22.66666667,-0.028297526,1500,1500,1000,1500,RTL,RETURN TO ORIGIN
23:21:20,-0.076938639,0.033889676,-2.312897762,0.038292503,-0.031144613,0.012995354,-35.36335753,149.1651146,150083.6667,5.916333516,5.799877326,36.66666667,0.014565006,227,1,1,1,0,0,10,-4.361227989,1.917661548,-133,46,14.66666667,-0.083889971,1500,1500,1000,1500,RTL,RETURN TO ORIGIN
23:21:21,-0.071943594,-0.001743845,-2.311581373,-0.407549568,-0.035593004,-0.030302145,-35.36333243,149.1651474,150077,5.207666874,5.101459662,35,-0.013930406,227,1,1,1,0,0,10,-3.903482119,-0.213886847,-132.3333333,46,11,-0.077701819,1500,1500,1000,1500,RTL,RETURN TO ORIGIN
23:21:22,-0.042819746,-0.044909945,-2.309990803,0.316878368,0.00966541,-0.003669612,-35.36329917,149.1651914,150038.6667,3.83433342,3.668531974,34.33333333,-0.028668084,227,1,1,1,0,0,10,-2.674054623,-2.850472927,-132,45,5,-0.039029948,1500,1500,1000,1500,RTL,RETURN TO ORIGIN
23:21:23,-0.045670369,-0.050373627,-2.311578512,-0.394067486,-0.023989255,0.000833687,-35.36328457,149.1652108,150009.3333,2.994666815,2.834276756,35,-0.029332453,227,1,1,1,0,0,10,-2.001899401,-3.323782126,-132,43.66666667,3,-0.00985026,1500,1500,1000,1500,RTL,RETURN TO ORIGIN
23:21:24,-0.019021928,-0.0742712,-2.311921358,-0.353714575,0.011454752,-0.011129765,-35.36326863,149.1652323,149984.3333,1.622000098,1.478371898,36,-0.002124175,227,1,1,1,0,0,10,-0.819696844,-4.702342669,-132,30.66666667,0.333333333,0.015110676,1500,1500,1000,1500,RTL,RETURN TO ORIGIN
23:21:25,-0.002618817,-0.05442464,-2.313027541,0.354252776,0.022530502,0.003544822,-35.36326377,149.165239,149981.6667,0.874333362,0.825964848,36,-3.21E-05,227,1,1,1,0,0,10,-0.191510027,-3.657310883,-132,199.6666667,0,0.017910156,1500,1500,1000,1500,RTL,RETURN TO ORIGIN
23:21:26,0.016769307,-0.031042244,-2.312811295,0.424922295,0.019226932,-0.000297735,-35.36326103,149.1652436,149985,0.217666676,0.20700491,37,0.003445054,227,1,1,1,0,0,10,0.862306913,-2.271667163,-132,255.3333333,0,0.014628906,1500,1500,1000,1500,RTL,RETURN TO ORIGIN
23:21:27,0.007915261,-0.012923854,-2.312586705,-0.330096083,0.029358456,-0.000618539,-35.36326087,149.165244,149990.6667,0.045333335,0.137555584,37,0.002642092,227,1,1,1,0,0,10,0.944262822,-1.143423796,-132,255,0,0.008945312,1500,1500,1000,1500,RTL,RETURN TO ORIGIN
23:21:28,0.002773238,0.000681069,-2.31248037,-0.357058778,-0.021932415,-0.000825359,-35.36326087,149.1652431,150002.6667,0.084333338,0.16736191,36.66666667,-0.001742751,227,1,1,1,0,0,10,0.511963139,-0.243641041,-132,252.6666667,0,-0.003128255,1500,1500,1000,1500,RTL,RETURN TO ORIGIN
23:21:29,0.011983773,-0.007297647,-2.312482357,0.319517285,-0.001836075,-0.003148284,-35.36326073,149.1652425,150005,0.08766667,0.157723303,36.66666667,-0.001289315,227,1,1,1,0,0,10,0.360766451,-0.54010881,-132,249,0,-0.005452474,1500,1500,1000,1500,RTL,RETURN TO ORIGIN
23:21:30,0.006063901,-0.002476842,-2.313165824,0.005753515,0.003997236,-0.001887947,-35.36326097,149.1652411,150007.6667,0.108000005,0.145266528,36,5.98E-05,227,1,1,1,0,0,10,0.351905574,-0.217187693,-132,247.3333333,0,-0.008268229,1500,1500,1000,1500,RTL,RETURN TO ORIGIN
23:21:31,0.007975013,-0.000502793,-2.313304265,0.375411577,0.004589471,-0.001883156,-35.36326123,149.1652403,150005.3333,0.107000003,0.138259724,36.66666667,-0.008724712,227,1,1,1,0,0,10,0.23030813,-0.08203614,-132,248,0,-0.005849609,1500,1500,1000,1500,RTL,RETURN TO ORIGIN
23:21:32,0.007679332,0.001242279,-2.314092,0.359613777,0.00018846,-0.000226188,-35.3632617,149.1652393,150003.3333,0.075000003,0.092778082,36.66666667,-0.002432663,227,1,1,1,0,0,10,0.256931196,0.036453772,-132,250.6666667,0,-0.004195963,1500,1500,1000,1500,RTL,RETURN TO ORIGIN
23:21:33,-0.004791737,0.001297912,-2.313974778,-0.612019817,0.001446261,0.000285289,-35.36326187,149.1652388,149989,0.059333336,0.073492534,34.66666667,-0.095495828,227,1,1,1,0,0,10,0.115669134,0.065323298,-132,253.6666667,0,-0.002913411,1500,1500,1000,1500,RTL,LANDING
23:21:34,0.00746586,0.000139342,-2.314104478,0.949455341,0.000652809,0.003651606,-35.36326213,149.1652384,149417.3333,0.032666667,0.057392328,31.33333333,-0.840058943,227,1,1,1,0,0,10,0.346494029,0.010257272,-132,266,0,0.134762367,1500,1500,1000,1500,RTL,LANDING
23:21:35,-0.001759726,0.001330492,-2.314631144,0.492534921,0.004859997,0.002248184,-35.36326223,149.1652383,148629,0.062000004,0.056671419,32.66666667,-1.160531004,227,1,1,1,0,0,10,0.43751356,0.085997603,-132,279,0,0.322760403,1500,1500,1000,1500,RTL,LANDING
23:21:36,-0.03180751,0.004875851,-2.314776262,-0.463684132,0.006135569,-0.003149269,-35.3632618,149.1652371,147217.3333,0.227000013,0.02765397,32.66666667,-1.033616324,227,1,1,1,0,0,10,-0.91481638,0.297076205,-132,145,0,0.484016915,1500,1500,1000,1500,RTL,LANDING
23:21:37,-0.045548439,0.004076963,-2.314645608,-0.913220306,-0.00259659,-0.001674495,-35.36326107,149.1652361,146436.6667,0.187000006,0.064860906,33,-1.00128901,227,1,1,1,0,0,10,-1.444763939,0.251410355,-132,134.6666667,0,0.499990225,1500,1500,1000,1500,RTL,LANDING
23:21:38,-0.031593407,0.002518811,-2.31506292,0.311333947,-0.000294587,0.003530572,-35.36326037,149.1652353,145172.6667,0.099000004,0.195525065,32.33333333,-0.993530929,227,1,1,1,0,0,10,-1.422004143,0.143936383,-132,135,0,0.489192694,1500,1500,1000,1500,RTL,LANDING
23:21:39,-0.024481251,0.001050773,-2.315475941,0.765648603,0.002209142,0.006550022,-35.36326013,149.1652351,144398.6667,0.057000003,0.240570421,33.33333333,-1.011696657,227,1,1,1,0,0,10,-1.478114088,0.062773176,-132,135.3333333,0,0.497968743,1500,1500,1000,1500,RTL,LANDING
23:21:40,-0.001668298,-0.00144375,-2.314380805,1.34592549,0.000228959,0.000869445,-35.36326007,149.1652351,143130,0.069000003,0.290157735,32.66666667,-1.006123463,227,1,1,1,0,0,10,-1.195993304,-0.102807465,-132,137.3333333,0,0.491679678,1500,1500,1000,1500,RTL,LANDING
23:21:41,0.008628093,-0.002981059,-2.315000772,1.28845338,-0.00266341,0.000460588,-35.3632604,149.1652355,142351,0.126000007,0.278086116,33,-1.003975232,227,1,1,1,0,0,10,-0.863161107,-0.189423109,-132,138.3333333,0,0.502047509,1500,1500,1000,1500,RTL,LANDING
23:21:42,0.023139776,-0.003424739,-2.31491216,1.002202928,0.001771633,0.002272144,-35.3632613,149.1652366,141075.3333,0.205333347,0.20705229,32.33333333,-0.98581183,227,1,1,1,0,0,10,0.084195654,-0.210307305,-132,140.6666667,0,0.506357412,1500,1500,1000,1500,RTL,LANDING
23:21:43,0.028920053,-0.002964147,-2.315025727,1.28102994,0.004219889,0.006177969,-35.3632619,149.1652373,140302,0.178000008,0.112674216,33,-0.987671872,227,1,1,1,0,0,10,0.288578565,-0.184582348,-132,163.6666667,0,0.514824212,1500,1500,1000,1500,RTL,LANDING
23:21:44,0.034118282,-0.002645984,-2.31485796,0.805811524,-0.001109999,0.001205243,-35.36326287,149.1652382,139030.3333,0.175666675,0.021627163,33,-1.007521808,227,1,1,1,0,0,10,0.629251222,-0.153247495,-132,318.3333333,0,0.507854799,1500,1500,1000,1500,RTL,LANDING
23:21:45,0.036492409,-0.00330896,-2.315071503,0.595722775,-0.002489211,0.001553951,-35.36326343,149.1652388,138257,0.200666676,0.080931449,32,-0.974802991,227,1,1,1,0,0,10,1.027780712,-0.188594773,-132,319,0,0.512220045,1500,1500,1000,1500,RTL,LANDING
23:21:46,0.050029454,-0.002832418,-2.316064596,0.544895614,0.002160291,-0.000541283,-35.36326453,149.16524,136999.3333,0.193666677,0.218383123,32,-0.982566973,227,1,1,1,0,0,10,1.906422337,-0.150497916,-132,318,0,0.498557915,1500,1500,1000,1500,RTL,LANDING
23:21:47,0.04739544,-0.001725338,-2.315076113,0.261219048,0.002450439,0.003916774,-35.363265,149.1652405,136237.6667,0.147666673,0.304424236,33,-1.032003323,227,1,1,1,0,0,10,1.939200004,-0.096573338,-132,318.6666667,0,0.49535806,1500,1500,1000,1500,RTL,LANDING
23:21:48,0.046762613,0.000199812,-2.315455357,0.189884391,0.005539747,-0.001394121,-35.3632655,149.1652409,134962.3333,0.043333335,0.400347114,32.33333333,-1.00473692,227,1,1,1,0,0,10,1.966530641,0.048233417,-132,319,0,0.495791008,1500,1500,1000,1500,RTL,LANDING
23:21:49,0.018117289,0.002649195,-2.315340201,-1.007813811,0.001717655,0.006234324,-35.3632652,149.1652406,134205,0.119333337,0.414643029,32,-0.98216784,227,1,1,1,0,0,10,1.399333556,0.174217726,-132,320,0,0.487871091,1500,1500,1000,1500,RTL,LANDING
23:21:50,-0.011297535,0.003528528,-2.316129843,-1.034540474,0.001896463,0.002608326,-35.36326427,149.1652394,132925.6667,0.220666677,0.341561397,33,-1.010883649,227,1,1,1,0,0,10,0.623433173,0.229873334,-132,322,0,0.489977201,1500,1500,1000,1500,RTL,LANDING
23:21:51,-0.015503783,0.003355031,-2.31530865,-0.392117406,0.000728589,0.009444392,-35.3632635,149.1652386,132153,0.239333342,0.273839424,32.33333333,-1.001674334,227,1,1,1,0,0,10,0.055262845,0.214752133,-132,324.3333333,0,0.496243477,1500,1500,1000,1500,RTL,LANDING
23:21:52,-0.013713947,0.00274553,-2.315078576,0.417083969,-0.001377574,0.006706294,-35.3632623,149.1652374,130875.3333,0.191666678,0.112989311,32.33333333,-0.993614276,227,1,1,1,0,0,10,-0.410371393,0.166049321,-132,171.3333333,0,0.499114563,1500,1500,1000,1500,RTL,LANDING
23:21:53,-0.01452649,0.002028836,-2.315868696,0.819980681,0.002114202,0.011990127,-35.36326177,149.1652368,130108.6667,0.178666671,0.034138133,33,-1.016369025,227,1,1,1,0,0,10,-0.675581276,0.122230972,-132,127,0,0.497910132,1500,1500,1000,1500,RTL,LANDING
23:21:54,-0.002923941,0.002719344,-2.315279802,1.305391669,0.001657965,0.000441919,-35.36326087,149.1652358,128850.6667,0.181666672,0.107361642,32.33333333,-1.004112522,227,1,1,1,0,0,10,-1.161369562,0.15035515,-132,133.6666667,0,0.48351562,1500,1500,1000,1500,RTL,LANDING
23:21:55,-0.009031324,0.002701265,-2.315991322,0.640907804,-0.001986453,0.001838909,-35.36326037,149.1652352,128088.6667,0.149000006,0.188349868,32,-1.017748972,227,1,1,1,0,0,10,-1.649557551,0.146207713,-132,134,0,0.480400374,1500,1500,1000,1500,RTL,LANDING
23:21:56,-0.021306592,-0.000215685,-2.315650543,-0.704175452,-0.00311587,-0.005206192,-35.36326,149.1652348,126815,0.035000002,0.296875695,33,-1.026827534,227,1,1,1,0,0,10,-1.42119499,-0.027389636,-132,135,0,0.479143868,1500,1500,1000,1500,RTL,LANDING
23:21:57,-0.021919344,-0.002270899,-2.315044959,-1.123547534,-0.000143395,-0.002477638,-35.3632602,149.1652352,126051.6667,0.093000007,0.305036038,32.33333333,-1.017165959,227,1,1,1,0,0,10,-1.005381028,-0.148464104,-132,136.3333333,0,0.477542301,1500,1500,1000,1500,RTL,LANDING
23:21:58,-0.024798455,-0.00304734,-2.315237522,-1.359692057,0.000665271,0.000307785,-35.3632609,149.1652361,124776.6667,0.171333343,0.23667109,32,-1.010632714,227,1,1,1,0,0,10,-0.343181943,-0.192287599,-132,138,0,0.475032538,1500,1500,1000,1500,RTL,LANDING
23:21:59,-0.012795189,-0.003460063,-2.314928532,-1.386748473,0.001609261,-0.002096244,-35.36326153,149.1652368,123993.6667,0.228333344,0.173152427,33.33333333,-1.018823346,227,1,1,1,0,0,10,0.089779774,-0.215617711,-132,139,0,0.491917302,1500,1500,1000,1500,RTL,LANDING
23:22:00,0.004107668,-0.005134408,-2.315119187,-0.881419043,-0.000799063,-0.000751948,-35.36326307,149.1652385,122735,0.320000013,0.033358674,32.33333333,-1.023136894,227,1,1,1,0,0,10,1.453377565,-0.310096274,-132,315,0,0.479316394,1500,1500,1000,1500,RTL,LANDING
23:22:01,0.013416166,-0.004062818,-2.315985123,-0.729861458,0.005119296,0.000230132,-35.363264,149.1652395,121960.6667,0.233666673,0.123069582,33,-1.012435019,227,1,1,1,0,0,10,1.956156731,-0.223890235,-132,316.6666667,0,0.486210922,1500,1500,1000,1500,RTL,LANDING
23:22:02,0.011120809,0.000922418,-2.315378904,-0.177671683,0.005297574,0.002875247,-35.36326477,149.1652401,120697.3333,0.049333335,0.294378569,32.33333333,-1.01411434,227,1,1,1,0,0,10,1.556582967,0.072317598,-132,320,0,0.476956367,1500,1500,1000,1500,RTL,LANDING
23:22:03,0.003192462,0.001874777,-2.315344731,-0.546905925,-4.90E-06,-0.001515568,-35.3632648,149.1652399,119925.3333,0.015000001,0.320728789,32.66666667,-1.019116322,227,1,1,1,0,0,10,1.362023711,0.125855538,-132,321.6666667,0,0.483789057,1500,1500,1000,1500,RTL,LANDING
23:22:04,0.018624772,0.002979729,-2.315810204,0.848029882,0.005090882,0.011280677,-35.3632645,149.1652396,118665,0.160333338,0.327015728,32.66666667,-1.027444005,227,1,1,1,0,0,10,1.08098952,0.213817636,-132,323.3333333,0,0.465517561,1500,1500,1000,1500,RTL,LANDING
23:22:05,0.010989963,0.004615565,-2.315963348,1.181494375,0.004595408,0.006659471,-35.36326373,149.1652387,117886,0.263000011,0.29210495,32.33333333,-1.002621929,227,1,1,1,0,0,10,-0.020087667,0.298041801,-132,327.3333333,0,0.476796865,1500,1500,1000,1500,RTL,LANDING
23:22:06,0.009007726,0.00238333,-2.315283616,1.39603432,-0.002241377,-0.003359483,-35.36326237,149.1652373,116618,0.194333345,0.099528107,32.66666667,-1.026267211,227,1,1,1,0,0,10,-0.518147022,0.15017507,-132,55,0,0.472441395,1500,1500,1000,1500,RTL,LANDING
23:22:07,0.007417293,0.002272169,-2.31551528,1.296597123,0.000683525,0.005158964,-35.36326177,149.1652367,115843.6667,0.162333339,0.029517831,32.66666667,-1.008014977,227,1,1,1,0,0,10,-0.802191854,0.131712735,-132,123.3333333,0,0.481699208,1500,1500,1000,1500,RTL,LANDING
23:22:08,-0.001687629,0.000222988,-2.315596422,-0.191296185,0.00018593,-0.005390227,-35.36326117,149.1652362,114570.3333,0.065000003,0.117288008,32.33333333,-1.028397282,227,1,1,1,0,0,10,-0.694322348,0.004377466,-132,132.6666667,0,0.480253905,1500,1500,1000,1500,RTL,LANDING
23:22:09,-0.011655697,0.000957069,-2.315254609,-0.64577209,0.003417478,-0.000304961,-35.36326107,149.165236,113800.3333,0.056333337,0.14443771,32,-0.998169263,227,1,1,1,0,0,10,-0.89653492,0.04643086,-132,133,0,0.485380848,1500,1500,1000,1500,RTL,LANDING
23:22:10,-0.027317359,-0.000353425,-2.315564235,-1.266701698,-0.002055302,0.000326148,-35.36326103,149.165236,112525.6667,0.060666668,0.169196288,32.33333333,-1.019342661,227,1,1,1,0,0,10,-0.68503052,-0.03503187,-132,133,0,0.482363274,1500,1500,1000,1500,RTL,LANDING
23:22:11,-0.023561006,-0.002930632,-2.315007846,-1.432376107,-0.002938387,-0.001433521,-35.36326133,149.1652364,111753.6667,0.176666672,0.159600874,33,-1.034408669,227,1,1,1,0,0,10,-0.164521828,-0.191081124,-132,134.3333333,0,0.488245438,1500,1500,1000,1500,RTL,LANDING
23:22:12,0.000494251,-0.004852884,-2.315392097,-1.002325853,0.001048458,0.001827088,-35.3632626,149.1652381,110488.6667,0.264666681,0.04336072,32.33333333,-1.008975426,227,1,1,1,0,0,10,1.169574022,-0.295460572,-132,311.3333333,0,0.478320301,1500,1500,1000,1500,RTL,LANDING
23:22:13,0.006518974,-0.003445746,-2.314853986,-0.694498777,0.005836283,-0.001264667,-35.36326343,149.1652389,109717,0.188333347,0.072580043,33,-1.027277589,227,1,1,1,0,0,10,1.640817523,-0.196758394,-132,316,0,0.481344382,1500,1500,1000,1500,RTL,LANDING
23:22:14,0.003757636,0.002182186,-2.315581322,-0.133501942,0.001605987,0.009730699,-35.36326393,149.1652392,108451.3333,0.067333337,0.213835165,32.33333333,-1.009193818,227,1,1,1,0,0,10,1.00534153,0.151860227,-132,321,0,0.475576162,1500,1500,1000,1500,RTL,LANDING
23:22:15,-0.001117635,0.004433666,-2.315632661,0.428064495,0.003784358,0.005187199,-35.36326363,149.1652387,107683.6667,0.158000007,0.216177613,32.33333333,-1.025133093,227,1,1,1,0,0,10,0.382236868,0.28862676,-132,326.3333333,0,0.478043606,1500,1500,1000,1500,RTL,LANDING
23:22:16,-0.003190501,0.00484222,-2.315616687,1.330695987,-0.000864221,0.008764246,-35.3632625,149.1652373,106406.3333,0.256333341,0.113202261,33,-1.030605594,227,1,1,1,0,0,10,-0.69894138,0.307724476,-132,164.3333333,0,0.48061196,1500,1500,1000,1500,RTL,LANDING
23:22:17,-0.008021818,0.00479342,-2.315249999,1.253839016,-0.000303065,0.005186328,-35.36326163,149.1652364,105638.6667,0.261666675,0.034444524,32.33333333,-0.992650032,227,1,1,1,0,0,10,-1.079762518,0.2979333,-132,120.3333333,0,0.483427723,1500,1500,1000,1500,RTL,LANDING
23:22:18,-0.014645513,0.003657777,-2.315186501,1.157272657,-0.0032156,0.000503552,-35.36326017,149.1652348,104369.6667,0.22300001,0.187092274,32.66666667,-1.022569994,227,1,1,1,0,0,10,-2.111161391,0.212001368,-132,132.6666667,0,0.477047513,1500,1500,1000,1500,RTL,LANDING
23:22:19,-0.014607715,0.00141423,-2.314683437,0.693250855,-0.002293143,-0.00155791,-35.36325967,149.1652343,103605.6667,0.096666671,0.30200095,32.66666667,-1.028536916,227,1,1,1,0,0,10,-2.057231267,0.069875494,-132,134.6666667,0,0.476142575,1500,1500,1000,1500,RTL,LANDING
23:22:20,-0.011808723,-0.003482372,-2.314421574,-0.345407809,-0.005169844,0.002455502,-35.36325973,149.1652348,102339,0.171666672,0.36854435,32.33333333,-1.024202506,227,1,1,1,0,0,10,-1.243351618,-0.235460152,-132,137.3333333,0,0.467750649,1500,1500,1000,1500,RTL,LANDING
23:22:21,-0.000809127,-0.005966621,-2.313916286,-0.675074677,-0.001943553,0.000627265,-35.3632605,149.1652358,101560.3333,0.302333345,0.322915177,32.33333333,-1.019390345,227,1,1,1,0,0,10,-0.326432906,-0.381373614,-132,140.6666667,0,0.477685531,1500,1500,1000,1500,RTL,LANDING
23:22:22,0.004862416,-0.007379574,-2.31372722,-1.388809244,0.000498045,0.003462332,-35.3632624,149.1652381,100285,0.359000017,0.122296515,32.33333333,-1.023200234,227,1,1,1,0,0,10,1.381732663,-0.441688945,-132,271,0,0.48183918,1500,1500,1000,1500,RTL,LANDING
23:22:23,0.014107659,-0.00399985,-2.314311107,-1.493816098,0.007434716,-0.002826765,-35.36326343,149.1652391,99506,0.230666677,0.050011039,33.33333333,-1.012222409,227,1,1,1,0,0,10,1.648889105,-0.226545915,-132,312,0,0.494596352,1500,1500,1000,1500,RTL,LANDING
23:22:24,0.003232864,0.000423705,-2.31477499,-1.103088021,0.001218999,-0.004395702,-35.36326427,149.1652396,98239,0.095333338,0.210024724,32,-0.988583108,227,1,1,1,0,0,10,1.374832431,0.034466987,-132,319,0,0.482750644,1500,1500,1000,1500,RTL,LANDING
23:22:25,0.002173835,-6.93E-05,-2.315047661,-1.00917087,0.004353724,-0.00659912,-35.3632645,149.1652398,97464.66667,0.074000001,0.25480928,33.33333333,-1.027409037,227,1,1,1,0,0,10,1.47788914,0.013028604,-132,320.3333333,0,0.489423821,1500,1500,1000,1500,RTL,LANDING
23:22:26,0.019483572,3.04E-05,-2.314820608,0.803246548,0.001654779,0.005087871,-35.3632645,149.1652398,96100,0.028666668,0.317012976,32,-0.986135801,227,1,1,1,0,0,10,1.229320844,0.018046996,-132,321,0,0.48167642,1500,1500,1000,1500,RTL,LANDING
23:22:27,0.027379898,0.000161691,-2.314722776,1.092569172,-0.000929989,0.00028801,-35.36326463,149.1652399,95332.66667,0.034333335,0.319198002,33,-1.016310692,227,1,1,1,0,0,10,1.521770795,0.023347296,-132,321,0,0.481832673,1500,1500,1000,1500,RTL,LANDING
23:22:28,0.011703837,0.001652696,-2.314772765,0.192784405,0.005177826,0.00686981,-35.3632646,149.1652398,94163,0.061000002,0.334703743,32.33333333,-1.009559492,227,1,1,1,0,0,10,1.385029515,0.11257492,-132,321.3333333,0,0.480117172,1500,1500,1000,1500,RTL,LANDING
23:22:29,0.012587352,0.003728314,-2.315482696,0.629848053,0.002071031,0.011340341,-35.36326437,149.1652394,93392.33333,0.141666668,0.32663691,32.33333333,-1.004080733,227,1,1,1,0,0,10,0.920068582,0.240362912,-132,323,0,0.485839834,1500,1500,1000,1500,RTL,LANDING
23:22:30,0.001293899,0.003672035,-2.314323982,-0.429441298,0.002253304,-0.010638017,-35.36326323,149.1652382,92014,0.198000004,0.192248707,32,-1.009348472,227,1,1,1,0,0,10,-0.113813876,0.237439622,-132,333.3333333,0,0.48431314,1500,1500,1000,1500,RTL,LANDING
23:22:31,-0.018356964,0.003328093,-2.314579566,-1.395921389,0.000549809,-0.007286145,-35.3632626,149.1652375,91239,0.186000009,0.108444502,32.33333333,-1.022317489,227,1,1,1,0,0,10,-0.360185345,0.199761003,-132,129.6666667,0,0.491181632,1500,1500,1000,1500,RTL,LANDING
23:22:32,-0.019172389,0.000630929,-2.314464728,-1.152745644,0.00013329,-0.004353697,-35.36326173,149.1652368,90062.66667,0.092333337,0.029236187,32.66666667,-0.997111102,227,1,1,1,0,0,10,-0.667518318,0.035366205,-132,128.3333333,0,0.493958324,1500,1500,1000,1500,RTL,LANDING
23:22:33,-0.013193119,-0.001232622,-2.314510266,-1.114462574,-0.003370029,0.000181463,-35.36326157,149.1652367,89290,0.030666668,0.067783323,32.66666667,-0.993839105,227,1,1,1,0,0,10,-0.458125532,-0.080745814,-132,136.6666667,0,0.500445952,1500,1500,1000,1500,RTL,LANDING
