time_stamp,MODE,PHASE,roll,pitch,yaw,rollspeed,pitchspeed,yawspeed,lat,lon,relative_alt,nav_roll,nav_pitch,nav_bearing,target_bearing,wp_dist,alt_error,airspeed,groundspeed,throttle,climb,heading,GPS_status,Gyro_status,Accel_status,Baro_status,PreArm_error,chan1_raw,chan2_raw,chan3_raw,chan4_raw,satellites_visible
17:15:08,STABILIZE,INITIALISATION,-0.001022772,0.000911863,0.02149141,5.48E-05,0.000437179,0.002004332,-35.3632621,149.1652375,0,-0.000375097,0.000155006,1,0,0,0.007229357,0,0.0160405,0,-0.015688363,1,1,1,1,1,0,1500,1500,1000,1500,10
17:15:09,STABILIZE,INITIALISATION,-0.000821171,0.000985805,0.020947557,0.000189772,0.000355249,0.001942223,-35.3632621,149.1652375,0,-0.000375098,0.000155006,1,0,0,0.014121912,0,0.014972567,0,-0.027680435,1,1,1,1,1,0,1500,1500,1000,1500,10
17:15:11,STABILIZE,INITIALISATION,-0.000844445,0.001228677,0.020022848,0.00010538,0.000315524,0.001708937,-35.3632621,149.1652375,0,-0.000375099,0.000155007,1,0,0,0.030742907,0,0.020063109,0,-0.026637788,1,1,1,1,1,0,1500,1500,1000,1500,10
17:15:12,STABILIZE,INITIALISATION,-0.000677583,0.001279581,0.019703466,0.000144196,0.000352089,0.001618425,-35.3632621,149.1652375,0,-0.0003751,0.000155007,1,0,0,0.036053102,0,0.016326331,0,-0.043399882,1,1,1,1,1,0,1500,1500,1000,1500,10
17:15:15,STABILIZE,INITIALISATION,-0.000851204,0.001121219,0.018479348,0.000195594,0.000235558,0.001625448,-35.3632622,149.1652375,0,-0.000375102,0.000155007,1,0,0,0.018907119,0,0.020355422,0,-0.010954531,1,1,1,1,1,0,1500,1500,1000,1500,10
17:15:18,STABILIZE,INITIALISATION,-0.000647653,0.001093767,0.017659172,0.000141265,0.000271152,0.001546168,-35.3632622,149.1652375,0,-0.000375103,0.000155008,1,0,0,0.017739007,0,0.018746506,0,-0.012504817,1,1,1,1,1,0,1500,1500,1000,1500,10
17:15:21,STABILIZE,INITIALISATION,-0.000804172,0.001063643,0.016654486,0.000199692,0.000241641,0.00147718,-35.3632622,149.1652375,0,-0.000375105,0.000155008,0,0,0,0.004232196,0,0.028679838,0,0.018195762,0,1,1,1,1,0,1500,1500,1000,1500,10
17:15:23,AUTO,TAKEOFF,-0.000876928,0.000860822,0.016141363,4.15E-05,0.00013868,0.001460695,-35.3632622,149.1652375,3,-0.000375105,0.000155008,0,93.66666667,0,-0.004458016,0,0.023180349,0,0.02064023,0,1,1,1,1,0,1500,1500,1000,1500,10
17:15:24,AUTO,TAKEOFF,-0.000916896,0.000840688,0.016085159,0.000205321,0.000292264,0.001355208,-35.3632622,149.1652375,7,-0.000375105,0.000155008,0,141,0,0,0,0.017809846,0,0.019176899,0,1,1,1,1,0,1500,1500,1000,1500,10
17:15:25,AUTO,TAKEOFF,-0.0005477,0.001080911,0.015710408,0.000108347,0.000281232,0.001352812,-35.3632622,149.1652375,0,-0.000375105,0.000155008,0,142.3333333,0,0,0,0.003524399,0,-0.001418958,0,1,1,1,1,0,1500,1500,1000,1500,10
17:15:26,AUTO,TAKEOFF,-0.000336848,0.001227548,0.015525046,0.000127187,0.000295754,0.001361644,-35.3632622,149.1652375,0,0.002655221,0.012473044,0,141,0,7.90E-05,0,0.004525472,0,-0.007429952,0,1,1,1,1,0,1500,1500,1000,1500,10
17:15:27,AUTO,TAKEOFF,0.172366146,0.186837205,0.039283063,0.314958684,0.347433565,0.038194003,-35.36325883,149.1652343,126.75,12.55239773,14.73380613,2.25,142.5,0,0.19839922,0.864000041,1.001903713,33.75,0.426828926,1.75,1,1,1,1,0,1500,1500,1000,1500,10
17:15:28,AUTO,TAKEOFF,0.345630527,0.369637549,0.061017513,0.081207953,-0.008348959,0.026502358,-35.3632545,149.1652295,563,17.42991829,17.88506889,3,139,1,0.167796358,0.999000072,0.679188311,45,1.032440901,3,1,1,1,1,0,1500,1500,1000,1500,10
17:15:29,AUTO,TAKEOFF,0.371708259,0.357573904,0.06634904,0.034777748,0.014732293,0.003378406,-35.36325305,149.1652269,2514.25,18.47038412,18.34465504,2.5,136.25,1,-0.196656033,0.122750006,0.153264293,67,1.614072263,3.25,1,1,1,1,0,1500,1500,1000,1500,10
17:15:30,AUTO,TAKEOFF,0.406547338,0.372249186,0.05647115,0.050993569,0.028560717,0.001510107,-35.3632539,149.1652277,3561,17.72812271,18.50619507,1,136,1,-0.272279054,0.259000003,0.325145513,85,1.616375208,3,1,1,1,1,0,1500,1500,1000,1500,10
17:15:31,AUTO,TAKEOFF,0.416033462,0.299871169,0.112304073,-0.096359654,-0.091996815,0.134094989,-35.36325785,149.1652334,5701.25,11.38920927,15.32932854,0.5,142.5,0,-0.137952877,0.557500027,0.538331382,92.25,1.49297291,6,1,1,1,1,0,1500,1500,1000,1500,10
17:15:32,AUTO,TAKEOFF,0.348551303,0.215815529,0.176567838,-0.177814528,-0.081804655,0.149854943,-35.3632591,149.1652359,6680,9.770314217,12.94205093,0,155,0,-0.076906733,0.399000019,0.240814984,87,1.613882065,10,1,1,1,1,0,1500,1500,1000,1500,10
17:15:33,AUTO,TAKEOFF,0.343294501,0.189204107,0.290359616,0.072367777,0.052292671,0.036376801,-35.36325753,149.1652327,9159.333333,16.04291217,13.24618181,0.333333333,140,0,-0.330410153,0.548333367,0.538220604,70.33333333,1.955986063,16,1,1,1,1,0,1500,1500,1000,1500,10
17:15:34,AUTO,TAKEOFF,0.395362869,0.214457706,0.319787204,0.076994233,0.05013008,0.017886523,-35.36325675,149.1652292,10399.5,21.08554649,15.35598755,1,129,0.5,-0.522165835,0.547000021,0.469676644,69.5,1.944192946,18,1,1,1,1,0,1500,1500,1000,1500,10
17:15:35,AUTO,TAKEOFF,0.479312591,0.157161038,0.338503107,0.034780707,-0.054785609,0.044257371,-35.36325865,149.1652249,13005.5,26.18116999,14.49772859,0.5,109.25,1,-0.742749929,0.276750017,0.249535296,71.75,1.721728265,19.25,1,1,1,1,0,1500,1500,1000,1500,10
17:15:36,AUTO,TAKEOFF,0.497449964,0.12147741,0.362241387,0.0213456,-0.018075852,0.06529472,-35.3632595,149.1652257,14086,24.83650398,15.48010349,1,106,1,-0.761418462,0.231000006,0.330986321,73,1.665654182,20,1,1,1,1,0,1500,1500,1000,1500,10
17:15:37,AUTO,TAKEOFF,0.463857509,0.148453742,0.395154409,-0.035291401,0.028718232,-0.003634526,-35.36325953,149.1652316,16373,21.29371214,17.46954679,2,120.75,0,-0.710084215,0.406250022,0.407825939,73.75,1.640362203,22,1,1,1,1,0,1500,1500,1000,1500,10
17:15:38,AUTO,TAKEOFF,0.446356177,0.161621273,0.397477657,-0.015947167,0.011426903,-0.013074457,-35.3632595,149.1652339,17426,20.81810951,17.57887077,2,133,0,-0.696434319,0.31400001,0.298085749,73,1.671235323,22,1,1,1,1,0,1500,1500,1000,1500,10
17:15:39,AUTO,TAKEOFF,0.422878951,0.18885975,0.363632493,-0.011709487,0.009001652,-0.03661517,-35.36326005,149.1652367,19794.25,19.7788372,17.86893177,2,161.5,0,-0.734388113,0.148250006,0.159333687,70.5,1.718275458,20.5,1,1,1,1,0,1500,1500,1000,1500,10
17:15:40,AUTO,TAKEOFF,0.4112041,0.202884793,0.343681425,-0.012188362,0.006545122,-0.036557786,-35.3632603,149.1652375,20890,19.27303123,18.00983238,2,175,0,-0.76747191,0.110000007,0.124320142,69,1.731859684,19,1,1,1,1,0,1500,1500,1000,1500,10
17:15:41,AUTO,TAKEOFF,0.345391132,0.241551612,0.215151062,-0.057318191,-0.030726457,-0.239642076,-35.36326053,149.1652383,23317.25,19.0720458,19.31815434,2.5,194,0,-0.857741073,0.056750002,0.074551941,63.75,1.736286968,11.75,1,1,1,1,0,1500,1500,1000,1500,10
17:15:42,AUTO,TAKEOFF,0.241141215,0.276621222,0.006663247,-0.14578253,-0.078256354,-0.415889025,-35.3632601,149.165238,24424,20.57027245,21.4105835,3,184,0,-0.901909173,0.151000008,0.230064586,58,1.755930305,0,1,1,1,1,0,1500,1500,1000,1500,10
17:15:43,AUTO,TAKEOFF,0.209789969,0.335638531,-0.130345488,0.068470475,0.060603781,0.034713765,-35.3632556,149.1652313,26868,21.98680019,20.93570614,3,143,0.5,-1.00692746,0.693000033,0.648792177,47.5,1.674974561,352,1,1,1,1,0,1500,1500,1000,1500,10
17:15:44,AUTO,TAKEOFF,0.255312055,0.364804655,-0.10268078,0.037300341,0.044642344,0.024192473,-35.3632535,149.165228,27914,21.92035103,21.01005745,3,138,1,-0.985678673,0.572000027,0.439849228,48,1.593932867,354,1,1,1,1,0,1500,1500,1000,1500,10
17:15:45,AUTO,TAKEOFF,0.293914229,0.401701696,-0.069504935,0.007407744,0.023281247,0.011484433,-35.36325203,149.1652263,30109.25,21.24842739,21.68884373,3.75,137.5,1,-0.849728987,0.127500004,0.158674882,52.5,1.585729539,355.5,1,1,1,1,0,1500,1500,1000,1500,10
17:15:46,AUTO,TAKEOFF,0.300453931,0.411398649,-0.058477618,0.000932618,0.017614827,0.009283363,-35.3632526,149.1652274,31122,20.9397316,21.98703766,4,139,1,-0.799553216,0.265000015,0.348551959,55,1.61707747,356,1,1,1,1,0,1500,1500,1000,1500,10
17:15:47,AUTO,TAKEOFF,0.356717035,0.42702011,-0.043498018,0.030433508,-1.82E-05,0.011666659,-35.36325628,149.1652333,33321,16.19220996,21.5062623,3.5,150.75,0.25,-0.661315292,0.62000002,0.687746659,71.5,1.503541708,357,1,1,1,1,0,1500,1500,1000,1500,10
17:15:48,AUTO,TAKEOFF,0.362872273,0.398905545,-0.025858441,-0.082468525,-0.121494032,0.119881518,-35.3632585,149.1652374,34251,10.26978016,19.91403961,3,177,0,-0.529323697,0.764000058,0.801780999,80,1.424303889,358,1,1,1,1,0,1500,1500,1000,1500,10
17:15:49,AUTO,TAKEOFF,0.250127926,0.326948486,0.054140896,-0.038330904,-0.017149398,0.064310548,-35.36326203,149.1652435,36403,8.752050281,17.83467627,3,265.5,0,-0.341757804,0.32800002,0.28149182,73,1.693701535,2.5,1,1,1,1,0,1500,1500,1000,1500,10
17:15:50,AUTO,TAKEOFF,0.254572183,0.303736597,0.096509323,0.010852022,-0.020253167,0.084113903,-35.3632633,149.1652428,37501,11.7911272,15.91862488,2,282,0,-0.372231424,0.305000007,0.34579578,69,1.789862156,5,1,1,1,1,0,1500,1500,1000,1500,10
17:15:51,AUTO,TAKEOFF,0.312280402,0.233874068,0.211060271,0.042691071,-0.062751149,0.079381255,-35.36326548,149.1652364,40059.5,19.61768627,11.82428503,1.25,105.25,0,-0.588902578,0.498750038,0.463139519,62.5,1.861836314,11.5,1,1,1,1,0,1500,1500,1000,1500,10
17:15:52,AUTO,TAKEOFF,0.348174155,0.173251063,0.214506999,0.038188353,-0.090046741,-0.068535529,-35.363266,149.1652333,41241,22.36822701,11.44416332,1,44,0,-0.706276834,0.443000019,0.342330545,60,1.8616364,12,1,1,1,1,0,1500,1500,1000,1500,10
17:15:53,AUTO,TAKEOFF,0.265142232,0.234600581,-0.08508992,0.014274493,0.041878156,-0.068465538,-35.36326268,149.1652288,43775.5,25.44526148,16.12682533,3,86.75,0,-0.909538537,0.547000028,0.564425185,50,1.751413554,354.5,1,1,1,1,0,1500,1500,1000,1500,10
17:15:54,AUTO,TAKEOFF,0.298743606,0.266201884,-0.074956633,0.064770341,0.05538854,0.03362659,-35.3632599,149.1652263,44867,25.54528809,16.26929092,3,105,1,-0.938525379,0.639000058,0.564847767,49,1.672929525,355,1,1,1,1,0,1500,1500,1000,1500,10
17:15:55,AUTO,TAKEOFF,0.364692882,0.313967124,-0.035770558,0.017506345,0.033589978,0.007665187,-35.36325603,149.1652241,47138,25.04981041,17.06768894,4,119.5,1,-0.871999502,0.229250014,0.194295481,52.5,1.599195808,357.5,1,1,1,1,0,1500,1500,1000,1500,10
17:15:56,AUTO,TAKEOFF,0.375844002,0.329582036,-0.023969762,0.008067904,0.025517685,0.010323559,-35.3632556,149.1652251,48156,24.72590828,17.55166435,4,123,1,-0.828144491,0.224000007,0.291374981,55,1.606493592,358,1,1,1,1,0,1500,1500,1000,1500,10
17:15:57,AUTO,TAKEOFF,0.415676877,0.341485158,-0.002394007,0.042061992,0.013126879,0.005685522,-35.36325718,149.1652313,50392.25,19.58798885,17.40054321,4,135.75,0.25,-0.721798077,0.559750021,0.610545352,66.5,1.545113951,269.25,1,1,1,1,0,1500,1500,1000,1500,10
17:15:58,AUTO,TAKEOFF,0.436329454,0.338168561,0.007023414,-0.038865656,-0.058351297,0.064242125,-35.3632584,149.1652356,51356,13.55919361,17.13801765,4,157,0,-0.621601522,0.715000033,0.7716223,76,1.456975102,0,1,1,1,1,0,1500,1500,1000,1500,10
17:15:59,AUTO,TAKEOFF,0.270702772,0.309850141,0.037299363,-0.061732775,-0.000866521,0.028401747,-35.36326025,149.1652438,53487.5,8.982286692,17.28613758,4,246,0,-0.415446766,0.333500013,0.249827269,71.25,1.66929841,1.5,1,1,1,1,0,1500,1500,1000,1500,10
17:16:00,AUTO,TAKEOFF,0.254832685,0.304449141,0.058756106,-0.01329411,0.001283024,0.046037268,-35.363261,149.165244,54576,11.06734753,16.55179214,4,254,0,-0.441362292,0.156000003,0.194531158,68,1.776441336,3,1,1,1,1,0,1500,1500,1000,1500,10
17:16:01,AUTO,TAKEOFF,0.285363302,0.281176284,0.144235462,-0.004064472,-0.000144379,0.074292477,-35.3632623,149.1652394,57126.5,16.31191158,14.88457346,3,288,0,-0.652775869,0.387250021,0.356343172,64.5,1.845922559,7.5,1,1,1,1,0,1500,1500,1000,1500,10
17:16:02,AUTO,TAKEOFF,0.284903467,0.267072409,0.191050217,-0.045319162,-0.004853892,0.084388204,-35.3632627,149.1652367,58309,19.26072693,14.47162914,3,67,0,-0.76853025,0.389000028,0.371174663,61,1.851329088,10,1,1,1,1,0,1500,1500,1000,1500,10
17:16:03,AUTO,TAKEOFF,0.231809597,0.265554566,-0.021133395,0.046305657,0.030333549,-0.070477189,-35.36326103,149.1652298,60828.25,25.10023165,16.73863745,4,100.5,0,-0.955975324,0.602250025,0.613163143,49.75,1.72761637,268.5,1,1,1,1,0,1500,1500,1000,1500,10
17:16:04,AUTO,TAKEOFF,0.277033538,0.292778611,-0.015466496,0.074705839,0.049021948,0.030761328,-35.3632587,149.1652264,61905,24.96448517,17.1916275,4,112,1,-0.970332026,0.665000021,0.596219599,48,1.64830327,359,1,1,1,1,0,1500,1500,1000,1500,10
17:16:05,AUTO,TAKEOFF,0.338632256,0.345203407,0.020433758,0.012076036,0.03742093,0.006580324,-35.36325433,149.1652242,64157.25,23.65309525,19.00066423,5.25,126,1,-0.878670633,0.283750016,0.251361419,51.5,1.587709665,0.75,1,1,1,1,0,1500,1500,1000,1500,10
17:16:06,AUTO,TAKEOFF,0.346084088,0.363032013,0.03150817,-0.001005524,0.028457833,0.006463933,-35.3632535,149.1652252,65169,23.01736069,19.78686714,6,131,1,-0.828588843,0.242000014,0.285087734,54,1.602753282,1,1,1,1,1,0,1500,1500,1000,1500,10
17:16:07,AUTO,TAKEOFF,0.380914122,0.384246804,0.051572,0.042227047,0.017318834,0.004742826,-35.36325503,149.1652306,67423.5,19.947083,19.8083539,6,141.5,0.5,-0.741835922,0.473750032,0.533949301,64,1.571276426,2.5,1,1,1,1,0,1500,1500,1000,1500,10
17:16:08,AUTO,TAKEOFF,0.409253359,0.391780943,0.057170141,0.041229136,0.009688709,0.001958516,-35.3632567,149.1652339,68406,15.74619484,18.67810822,5,151,0,-0.658593714,0.620000005,0.681660771,74,1.488558531,3,1,1,1,1,0,1500,1500,1000,1500,10
17:16:09,AUTO,TAKEOFF,0.318417773,0.30859635,0.126057776,-0.085701005,-0.001074217,0.046149075,-35.3632603,149.1652417,70488.75,9.261605024,17.69455671,5,236.5,0,-0.410324693,0.462500032,0.363318596,74.5,1.598525912,6.75,1,1,1,1,0,1500,1500,1000,1500,10
17:16:10,AUTO,TAKEOFF,0.293879956,0.295439959,0.155645669,-0.011364397,-0.012815392,0.05947781,-35.3632614,149.1652426,71538,11.43430805,16.55275154,5,255,0,-0.397011697,0.178000003,0.192923456,71,1.731102824,8,1,1,1,1,0,1500,1500,1000,1500,10
17:16:11,AUTO,TAKEOFF,0.337143391,0.236831974,0.260107681,0.015823136,-0.022203031,0.100410255,-35.36326325,149.1652378,74056.5,18.75362635,13.34411216,4,169.25,0,-0.578123778,0.44575002,0.436852932,64.25,1.845653445,14.5,1,1,1,1,0,1500,1500,1000,1500,10
17:16:12,AUTO,TAKEOFF,0.360117882,0.194612667,0.313666254,0.049145117,-0.0885759,0.082233049,-35.363264,149.1652348,75234,22.29084396,12.17614079,4,56,0,-0.693637669,0.467000008,0.436312705,62,1.859054804,17,1,1,1,1,0,1500,1500,1000,1500,10
17:16:13,AUTO,TAKEOFF,0.290686615,0.20077502,0.017495902,-0.041411191,-0.005332945,-0.206064316,-35.36326228,149.1652292,77790.75,25.93408823,15.32255268,5,89.75,0,-0.909291968,0.494250029,0.559849791,51.25,1.76878193,180.5,1,1,1,1,0,1500,1500,1000,1500,10
17:16:14,AUTO,TAKEOFF,0.287387788,0.234779462,-0.026972014,0.072258398,0.054446809,0.03647013,-35.3632595,149.1652259,78900,25.9447422,15.60655212,5,107,1,-0.952587843,0.778000057,0.778538108,48,1.69207561,358,1,1,1,1,0,1500,1500,1000,1500,10
17:16:15,AUTO,TAKEOFF,0.372722626,0.283404939,0.015426263,0.032018504,0.033981245,0.006062286,-35.36325353,149.1652195,81187.75,25.69373417,16.04215908,5.25,120.25,1.25,-0.909479961,0.499750018,0.388968196,49.75,1.598271042,0.5,1,1,1,1,0,1500,1500,1000,1500,10
17:16:16,AUTO,TAKEOFF,0.390081257,0.299605966,0.025777485,0.010258963,0.026444681,0.00649237,-35.3632519,149.1652184,82203,25.46177673,16.42424011,6,123,2,-0.862119138,0.255000025,0.177417859,52,1.592955351,1,1,1,1,1,0,1500,1500,1000,1500,10
17:16:17,AUTO,TAKEOFF,0.404128328,0.324404553,0.045693362,0.014188423,0.021147055,0.00618576,-35.3632511,149.1652204,84469.75,24.83863544,17.38447714,6,128.25,1.5,-0.791542962,0.233750012,0.279023863,56.5,1.636337817,2,1,1,1,1,0,1500,1500,1000,1500,10
17:16:18,AUTO,TAKEOFF,0.424951404,0.336059302,0.054981038,0.047035918,0.026671663,0.003656235,-35.3632515,149.1652223,85512,24.41668129,17.99067688,6,130,1,-0.771162093,0.346000016,0.395011485,60,1.61827755,3,1,1,1,1,0,1500,1500,1000,1500,10
17:16:19,AUTO,TAKEOFF,0.473158628,0.365612201,0.064209118,-0.033020853,0.031977466,-0.023493118,-35.36325385,149.1652307,87637.75,17.66628885,21.02225208,8,147,0.75,-0.554597147,0.729250029,0.795995325,82.75,1.399592251,3,1,1,1,1,0,1500,1500,1000,1500,10
17:16:20,AUTO,TAKEOFF,0.40532887,0.386124223,0.054767706,-0.175794601,-0.022819605,-0.010767384,-35.3632552,149.1652361,88507,12.12580776,21.22813988,8,169,0,-0.360068351,0.855000019,0.831505001,89,1.331802964,3,1,1,1,1,0,1500,1500,1000,1500,10
17:16:21,AUTO,TAKEOFF,0.294461071,0.351334356,0.078016724,-0.044391232,-0.006985168,0.041669508,-35.3632588,149.1652418,90607.25,12.63521409,18.91700125,7,223.75,0,-0.207878407,0.331500016,0.290099338,73,1.647628635,4,1,1,1,1,0,1500,1500,1000,1500,10
17:16:22,AUTO,TAKEOFF,0.250232816,0.340310514,0.10633105,-0.203505859,-0.007932778,0.050414551,-35.3632602,149.1652413,91673,14.94075871,17.95287514,7,233,0,-0.361406237,0.294,0.320250809,62,1.705839634,6,1,1,1,1,0,1500,1500,1000,1500,10
17:16:23,AUTO,TAKEOFF,0.24066551,0.292396434,0.071112869,0.12628285,-0.017677516,-0.003812641,-35.3632598,149.1652292,93737.75,25.88225174,15.53546643,6,111.25,0.25,-0.780898437,1.08433338,1.105283817,36.33333333,1.183318337,3.333333333,1,1,1,1,0,1500,1500,1000,1500,10
17:16:24,AUTO,TAKEOFF,0.314178079,0.289559573,0.072623253,0.117952533,0.011977095,0.01003611,-35.3632574,149.1652221,94361,26.02295303,15.47144413,6,111,1,-0.795761704,1.140500069,1.082265615,30,0.831205606,4,1,1,1,1,0,1500,1500,1000,1500,10
17:16:25,AUTO,TAKEOFF,0.369724773,0.314708613,0.089523772,-0.292355862,0.027252153,0.00579952,-35.36324878,149.1652119,95014.5,25.02179241,17.10202122,7,122,2.25,-0.496623531,0.930500045,0.884086028,28.25,0.232804853,4.75,1,1,1,1,0,1500,1500,1000,1500,10
17:16:26,AUTO,TAKEOFF,0.393175185,0.328150243,0.097236551,1.133323789,0.024363449,-0.004581577,-35.3632445,149.1652088,95133,24.47672272,17.90630531,7,127,3,-0.329736322,0.852000058,0.794882238,28,0.139021531,5,1,1,1,1,0,1500,1500,1000,1500,10
17:16:27,AUTO,TAKEOFF,0.447069816,0.223427832,0.152351996,-1.144517601,0.109183002,0.052199306,-35.36323445,149.1652043,95080.75,27.42741346,12.27092433,10.25,331,91.75,-0.082329099,0.963000044,1.011016473,28.5,-0.121077532,8,1,1,1,1,0,1500,1500,1000,1500,10
17:16:28,AUTO,TAKEOFF,0.432954758,0.285775393,0.169284791,0.118672289,0.083461374,-0.040585194,-35.3632289,149.1652035,95014,26.09669304,15.307127,11,331,91,-0.01984375,0.967000067,0.91587317,28,-0.041710444,9,1,1,1,1,0,1500,1500,1000,1500,10
17:16:29,AUTO,TAKEOFF,0.187629122,0.486927249,-0.431535736,-0.137394059,-0.018059155,-0.406919608,-35.36322,149.1652004,94909.75,12.75487614,27.24338388,-20,331,90,0.031958007,0.695333342,0.615062098,28.33333333,-0.061138645,337,1,1,1,1,0,1500,1500,1000,1500,10
17:16:30,AUTO,TAKEOFF,0.136977419,0.500180185,-0.524024963,-1.064864635,-0.01154304,0.087694459,-35.363217,149.1651982,94850,10.84162426,28.14208031,-26,331,90,0.042832032,0.629500002,0.563036531,28,-0.105103906,328.5,1,1,1,1,0,1500,1500,1000,1500,10
17:16:31,AUTO,TAKEOFF,0.246710949,0.148443266,-0.518565789,1.100656793,-0.338686138,-0.026211983,-35.3632088,149.1651919,94635,13.70786953,11.61306715,-27.33333333,331,88.66666667,0.07701497,1.121666729,1.373667876,25.66666667,-0.205470214,330,1,1,1,1,0,1500,1500,1000,1500,10
17:16:32,AUTO,TAKEOFF,0.290426224,-0.059879806,-0.54318738,1.182931781,-0.2924833,0.035779018,-35.36319995,149.1651858,94477.5,15.34764051,-0.450413585,-28.5,331,87.5,0.104843747,2.122500062,2.334400892,26.5,-0.282096013,328.5,1,1,1,1,0,1500,1500,1000,1500,10
17:16:33,AUTO,TAKEOFF,0.341712937,-0.348517999,-0.59229362,0.057017928,-0.116721311,0.01565566,-35.36315868,149.1651576,93906.25,19.08358574,-20.08861494,-31.75,331,82.25,0.282241195,4.342250168,4.560450673,39,-0.441896066,325.5,1,1,1,1,0,1500,1500,1000,1500,10
17:16:34,AUTO,TAKEOFF,0.35225752,-0.397458404,-0.599841297,0.038287442,-0.014563698,0.007007555,-35.3631348,149.165142,93607,19.56128693,-22.96266747,-33,331,79,0.393574208,5.096000195,5.225572109,48,-0.445951551,325,1,1,1,1,0,1500,1500,1000,1500,10
17:16:35,AUTO,TAKEOFF,0.336311832,-0.406750105,-0.594539851,-0.027042111,-0.01987552,0.010479893,-35.36307333,149.1651033,93090,18.76954222,-23.82984638,-32.75,331,71.5,0.463034652,5.786250114,5.816409826,55.75,-0.282791547,325.25,1,1,1,1,0,1500,1500,1000,1500,10
17:16:36,AUTO,TAKEOFF,0.310684174,-0.426211029,-0.589517713,-0.056179661,-0.035859458,0.022834508,-35.363044,149.165085,92901,17.29088402,-24.89371681,-32,331,68,0.439804673,5.904000282,5.926987648,58,-0.286991894,326,1,1,1,1,0,1500,1500,1000,1500,10
17:16:37,AUTO,TAKEOFF,0.244726587,-0.441811733,-0.548676044,-0.030603082,-0.000310389,0.02595946,-35.36297883,149.1650418,92481,13.98421669,-26.8061614,-32,331,59.5,0.383039542,6.042750359,6.04751122,60.25,-0.285370722,328,1,1,1,1,0,1500,1500,1000,1500,10
17:16:38,AUTO,TAKEOFF,0.227881476,-0.443599433,-0.538276851,-0.014069354,0.005257489,0.00635665,-35.3629493,149.1650212,92290,13.22294044,-27.1741333,-32,331,56,0.355742186,6.068000317,6.072553635,60,-0.298703969,329,1,1,1,1,0,1500,1500,1000,1500,10
17:16:39,AUTO,TAKEOFF,0.249653514,-0.439229429,-0.589964986,0.000780504,-0.005412385,-0.060770054,-35.3628903,149.164979,91902.66667,14.38364347,-26.60153453,-32,331,48.33333333,0.29738606,6.092333635,6.093930244,60.33333333,-0.322478553,326,1,1,1,1,0,1500,1500,1000,1500,10
17:16:40,AUTO,TAKEOFF,0.267718315,-0.430730641,-0.634628892,-0.008673353,0.000869557,-0.066795461,-35.36286065,149.1649578,91695.5,15.31260347,-26.10727787,-32,331,44.5,0.27560547,6.106000185,6.103290319,60,-0.339112371,323.5,1,1,1,1,0,1500,1500,1000,1500,10
17:16:41,AUTO,TAKEOFF,0.287616144,-0.413772583,-0.686381876,0.008488597,-0.000774731,0.002701117,-35.36279483,149.1649122,91205.33333,15.86666171,-25.7931385,-32,331,36,0.25339517,6.122666836,6.103410721,60,-0.367068966,320,1,1,1,1,0,1500,1500,1000,1500,10
17:16:42,AUTO,TAKEOFF,0.287824184,-0.414556161,-0.686502218,-0.006610069,0.00347608,-0.006746569,-35.3627647,149.164892,90968.5,15.37777758,-26.07611179,-32,332,32,0.252119124,6.125000238,6.102865458,61,-0.384136453,320,1,1,1,1,0,1500,1500,1000,1500,10
17:16:43,AUTO,TAKEOFF,0.283541987,-0.398963273,-0.702856421,0.011614934,0.015142591,0.027105306,-35.362698,149.1648484,90443.33333,14.3164142,-25.67739423,-32,332,23.66666667,0.247145176,6.13100036,6.084808191,60.66666667,-0.356977214,319.3333333,1,1,1,1,0,1500,1500,1000,1500,10
17:16:44,AUTO,TAKEOFF,0.273021877,-0.395572796,-0.64523524,0.025005624,0.037032476,0.144937165,-35.36266735,149.1648288,90230.5,13.24621916,-22.91863632,-31,331.5,20,0.219716795,6.106000185,6.059624195,58,-0.309646264,322.5,1,1,1,1,0,1500,1500,1000,1500,10
17:16:45,AUTO,TAKEOFF,0.186411392,-0.20705105,-0.506139472,-0.033290562,0.19190146,-0.027909378,-35.36259668,149.1647854,89935.25,8.820629756,-11.13437335,-29.33333333,330.3333333,11.66666667,0.010139974,5.697000345,5.51565965,37.66666667,-0.113281911,330.3333333,1,1,1,1,0,1500,1500,1000,1500,10
17:16:46,AUTO,TAKEOFF,0.175481528,-0.051904553,-0.500603512,0.014268834,0.219124131,-0.024759211,-35.3625659,149.1647658,89850,8.856769562,-3.571929336,-29,329.6666667,8,-0.147161451,5.051000118,4.806185881,24.33333333,-0.141086188,331,1,1,1,1,0,1500,1500,1000,1500,10
17:16:47,AUTO,TAKEOFF,0.201820627,0.189577277,-0.471681605,1.179801424,0.240824719,-0.029652783,-35.36252963,149.1647408,89533.33333,11.1828715,10.83417479,-27,328.6666667,2.666666667,-0.141464842,3.645333449,3.393970092,20,-0.362229397,332.3333333,1,1,1,1,0,1500,1500,1000,1500,10
17:16:48,AUTO,TAKEOFF,0.25331749,0.330454826,-0.408444628,1.452361226,0.252293214,0.066789135,-35.3625145,149.1647306,89319.5,14.54910326,18.60367393,-23.5,325,0.5,-0.060976561,2.874500155,2.585030913,20.5,-0.321742728,336,1,1,1,1,0,1500,1500,1000,1500,10
17:16:49,AUTO,ON MISSION,0.522344033,0.020185033,0.082895895,0.357505391,0.213752657,0.794374466,-35.36249183,149.1647214,88854.66667,29.33665339,2.224560596,5,173,1.333333333,0.123199868,1.704333425,1.794022083,27.66666667,-0.293970486,124.3333333,1,1,1,1,0,1500,1500,1000,1500,10
17:16:50,AUTO,ON MISSION,0.466402456,0.151753478,0.7082946,-1.691443682,0.8018713,0.710919976,-35.3624821,149.1647218,88678.5,27.39786816,8.515901327,37,111,127,0.151645504,1.672500074,1.41277945,26,-0.244719356,40,1,1,1,1,0,1500,1500,1000,1500,10
17:16:51,AUTO,ON MISSION,0.441064517,-0.215970075,1.634581049,0.100211104,-0.629418631,0.746796588,-35.36247683,149.1647055,88193,25.31521924,-11.31645685,90.66666667,111,129,0.270328775,1.838333408,1.897917946,27.33333333,-0.371956656,93.33333333,1,1,1,1,0,1500,1500,1000,1500,10
17:16:52,AUTO,ON MISSION,0.215984762,-0.489812687,1.9102332,-1.157235503,-0.023040744,0.169215951,-35.36247825,149.1646953,87949,15.37239361,-25.85606003,104,111,130,0.341411129,1.421000063,1.238534331,28,-0.386919335,109,1,1,1,1,0,1500,1500,1000,1500,10
17:16:53,AUTO,ON MISSION,0.170418218,-0.494084547,1.906433423,-0.132661998,-0.006730706,-0.005769918,-35.36247937,149.1646852,87392.33333,11.2337122,-27.99754524,107.3333333,111,130.6666667,0.535843074,0.402333349,0.453711172,28,-0.370984415,109,1,1,1,1,0,1500,1500,1000,1500,10
17:16:54,AUTO,ON MISSION,0.184680363,-0.494740814,1.90644002,1.177487453,0.0008956,0.006112628,-35.3624788,149.1646827,87107.33333,10.8721358,-28.13175329,108,111,131,0.638522128,0.281333347,0.360255222,28.33333333,-0.361905108,109,1,1,1,1,0,1500,1500,1000,1500,10
17:16:55,AUTO,ON MISSION,0.177905604,-0.492999146,1.902179996,-0.89108031,-4.24E-05,0.000407658,-35.3624773,149.1646801,86691.66667,10.94506995,-28.10583941,107.3333333,111,131,0.779108067,0.208666677,0.30136171,28,-0.300127943,108.3333333,1,1,1,1,0,1500,1500,1000,1500,10
17:16:56,AUTO,ON MISSION,0.178629989,-0.493045191,1.901786367,0.173157781,-0.001425767,-0.005301861,-35.3624764,149.1646788,86479,10.97562726,-28.09484673,107.3333333,111,131,0.844313125,0.189333344,0.280226648,28.33333333,-0.278974195,108,1,1,1,1,0,1500,1500,1000,1500,10
17:16:57,AUTO,ON MISSION,0.181963652,-0.490965505,1.898673217,-0.715436488,0.006603095,-0.003052063,-35.36247483,149.1646773,86168.33333,11.2506539,-27.99350103,107,111,131,0.934811175,0.181666677,0.25978225,28.66666667,-0.242767006,108,1,1,1,1,0,1500,1500,1000,1500,10
17:16:58,AUTO,ON MISSION,0.195023562,-0.48888127,1.897357424,0.494041915,0.00164217,-0.006904049,-35.3624737,149.1646766,86004.66667,11.62383016,-27.85065778,107,111,131,0.979830702,0.200666681,0.246167183,28.66666667,-0.229691024,108,1,1,1,1,0,1500,1500,1000,1500,10
17:16:59,AUTO,ON MISSION,0.204998066,-0.481527686,1.891735554,-0.800403953,0.007202949,-0.006890614,-35.36247163,149.164676,85771.33333,12.59933535,-27.45037651,107,111,132,1.034882744,0.186666677,0.233975391,29,-0.201648191,108,1,1,1,1,0,1500,1500,1000,1500,10
17:17:00,AUTO,ON MISSION,0.229827801,-0.477410465,1.889433384,0.775922527,0.001839512,-0.003632057,-35.36247033,149.1646757,85642.66667,13.15816275,-27.20367114,107,111,132,1.065071583,0.187000006,0.232479528,29,-0.201949249,108,1,1,1,1,0,1500,1500,1000,1500,10
17:17:01,AUTO,ON MISSION,0.23754857,-0.469947755,1.885204434,-0.060837915,0.005167875,-0.009543165,-35.36246817,149.1646753,85456.66667,14.04363918,-26.78277588,107,111,132,1.098694642,0.183333337,0.232402727,29,-0.177714835,107.6666667,1,1,1,1,0,1500,1500,1000,1500,10
17:17:02,AUTO,ON MISSION,0.258402844,-0.465675126,1.883818348,0.326304466,0.013923839,-0.004386626,-35.3624668,149.1646751,85346.66667,14.51498032,-26.54372787,107,111,132,1.122252584,0.193666672,0.253469388,29.33333333,-0.188083693,107,1,1,1,1,0,1500,1500,1000,1500,10
17:17:03,AUTO,ON MISSION,0.262389153,-0.460089137,1.881130854,0.415069103,0.000702609,-0.006971841,-35.36246453,149.1646747,85179.33333,15.14048163,-26.21046257,107,111,132,1.153902968,0.213666677,0.241701384,29,-0.163764904,107,1,1,1,1,0,1500,1500,1000,1500,10
17:17:04,AUTO,ON MISSION,0.268246224,-0.456225425,1.879445473,-0.219225675,0.009010319,-0.001651817,-35.3624631,149.1646744,85082,15.47334671,-26.02479744,107,111,132,1.172093074,0.235333343,0.2612001,29.33333333,-0.169009209,107,1,1,1,1,0,1500,1500,1000,1500,10
17:17:05,AUTO,ON MISSION,0.279899905,-0.454781016,1.878411651,0.631464601,0.006196066,0.005515634,-35.36246043,149.1646736,84926.33333,15.6384503,-25.93070221,107,112,132,1.20085605,0.28033334,0.247454301,29,-0.153328146,107,1,1,1,1,0,1500,1500,1000,1500,10
17:17:06,AUTO,ON MISSION,0.2616404,-0.452608734,1.878135284,-0.822287619,0.000771626,-0.00541621,-35.3624587,149.164673,84832,15.82937813,-25.81995392,107,112,132,1.220240871,0.298333337,0.256816526,28.66666667,-0.152136619,107,1,1,1,1,0,1500,1500,1000,1500,10
17:17:07,AUTO,ON MISSION,0.270957649,-0.448179613,1.876234015,-0.631987299,0.001545895,-0.004263917,-35.36245543,149.1646715,84674,16.30924288,-25.53215472,107,112,133,1.24521482,0.258000011,0.296861142,29.33333333,-0.147105858,107,1,1,1,1,0,1500,1500,1000,1500,10
17:17:08,AUTO,ON MISSION,0.28972201,-0.448197603,1.874689579,0.863863707,-0.004402602,-0.000151553,-35.36245425,149.1646705,84605,16.33644104,-25.51575661,107,112,133,1.254057586,0.236000016,0.31167163,29,-0.144082829,107,1,1,1,1,0,1500,1500,1000,1500,10
17:17:09,AUTO,ON MISSION,0.268298467,-0.452104837,1.874302705,-0.561034963,-0.009391139,5.33E-05,-35.36245277,149.1646672,84463,15.95022615,-25.74783643,107,112,133,1.273043593,0.287333349,0.348851601,29,-0.132212996,107,1,1,1,1,0,1500,1500,1000,1500,10
17:17:10,AUTO,ON MISSION,0.274270177,-0.459128847,1.87641271,0.462070823,-0.002601649,0.008868723,-35.36245253,149.1646648,84380,15.27687359,-26.13362885,107,112,133,1.283473293,0.308000008,0.359302342,29,-0.133147662,107,1,1,1,1,0,1500,1500,1000,1500,10
17:17:11,AUTO,ON MISSION,0.247808903,-0.469512006,1.8789891,0.556149951,-0.005821797,0.006471848,-35.36245237,149.1646606,84249,14.08008385,-26.76454862,107,112,134,1.295338551,0.307666689,0.364385813,29,-0.126715352,107,1,1,1,1,0,1500,1500,1000,1500,10
17:17:12,AUTO,ON MISSION,0.226251518,-0.473947982,1.88074557,-0.706459756,0.000572753,0.001537734,-35.3624521,149.164658,84168,13.4985021,-27.04616992,107,112,134,1.304820935,0.31766668,0.378932516,29.33333333,-0.131363899,107,1,1,1,1,0,1500,1500,1000,1500,10
17:17:13,AUTO,ON MISSION,0.22908328,-0.478873203,1.88237385,0.146016051,-0.00073766,0.002283753,-35.3624514,149.1646535,84040,12.83750979,-27.34741783,107,112,134,1.313649019,0.334666689,0.391793917,29,-0.118584573,107,1,1,1,1,0,1500,1500,1000,1500,10
17:17:14,AUTO,ON MISSION,0.207076038,-0.481479913,1.883282224,-0.360984057,-0.00705064,0.003813417,-35.36245097,149.1646507,83963.66667,12.48771858,-27.49878057,107,112,135,1.317718069,0.349333346,0.404591103,29,-0.128279917,107,1,1,1,1,0,1500,1500,1000,1500,10
17:17:15,AUTO,ON MISSION,0.203455006,-0.483754536,1.884289344,-0.066697399,-0.003591967,-0.00213763,-35.3624499,149.1646456,83827.33333,12.12651221,-27.65040588,107,112,135,1.324915369,0.360000024,0.417102158,28.66666667,-0.118535752,107,1,1,1,1,0,1500,1500,1000,1500,10
17:17:16,AUTO,ON MISSION,0.220982455,-0.484698743,1.884797275,0.675715223,0.004979168,0.001881544,-35.36244915,149.1646432,83766,11.9794426,-27.71011829,107,112,135,1.325996101,0.370500028,0.432317391,29,-0.128128126,107,1,1,1,1,0,1500,1500,1000,1500,10
17:17:17,AUTO,ON MISSION,0.209871103,-0.483112226,1.883357088,0.417239527,0.000275626,0.002248325,-35.36244707,149.1646381,83623.66667,12.16892179,-27.6327184,107,112,136,1.336318334,0.391666681,0.44351247,29,-0.120952355,107,1,1,1,1,0,1500,1500,1000,1500,10
17:17:18,AUTO,ON MISSION,0.227581069,-0.481470153,1.882764935,0.583835587,0.009547774,-0.001274146,-35.36244585,149.1646358,83560,12.34082985,-27.56128693,107,112,136,1.339833915,0.413000032,0.457961783,29,-0.121551566,107,1,1,1,1,0,1500,1500,1000,1500,10
17:17:19,AUTO,ON MISSION,0.221162349,-0.477869332,1.881746531,0.333703419,0.000539027,-0.002951099,-35.3624425,149.1646309,83423.33333,12.80386702,-27.3623263,107,112,137,1.344085256,0.446333349,0.457159817,28.33333333,-0.106464644,107,1,1,1,1,0,1500,1500,1000,1500,10
17:17:20,AUTO,ON MISSION,0.240289114,-0.474825561,1.881220818,0.480722517,0.018447649,0.002740806,-35.36244055,149.1646288,83363.5,13.18543243,-27.19115639,107,112,137,1.343823195,0.482500017,0.481967986,28.5,-0.128125049,107,1,1,1,1,0,1500,1500,1000,1500,10
17:17:21,AUTO,ON MISSION,0.247725929,-0.466071735,1.876803239,0.538796887,-0.001261629,-0.007239283,-35.36243557,149.1646246,83220,14.21606827,-26.69643402,107,112,137.3333333,1.354228536,0.506333351,0.476753165,28.33333333,-0.103149007,107,1,1,1,1,0,1500,1500,1000,1500,10
17:17:22,AUTO,ON MISSION,0.265687093,-0.461986542,1.875691772,0.105072111,0.018018174,-0.002215482,-35.36243315,149.1646228,83160,14.67165375,-26.46226788,107,112,138,1.353276372,0.510500014,0.499211803,29,-0.115552228,107,1,1,1,1,0,1500,1500,1000,1500,10
17:17:23,AUTO,ON MISSION,0.259378393,-0.456680586,1.874323646,0.215924064,-0.003514232,-0.005959777,-35.36242767,149.1646188,83023,15.27397029,-26.13609187,107,112,138,1.357978463,0.548333367,0.478554855,29,-0.113568063,107,1,1,1,1,0,1500,1500,1000,1500,10
17:17:24,AUTO,ON MISSION,0.279142097,-0.453826636,1.874017835,1.137847126,0.000449712,-0.000908494,-35.36242495,149.1646171,82964.5,15.57586622,-25.96631908,107,112,138.5,1.355903268,0.57100001,0.4780453,29,-0.112331875,107,1,1,1,1,0,1500,1500,1000,1500,10
17:17:25,AUTO,ON MISSION,0.273428629,-0.444146186,1.87077558,-0.523633182,-0.004909722,-0.003256108,-35.3624188,149.1646134,82843,16.50400543,-25.40964444,106.6666667,112.6666667,139,1.344316363,0.550000012,0.501617183,28.33333333,-0.118563781,107,1,1,1,1,0,1500,1500,1000,1500,10
17:17:26,AUTO,ON MISSION,0.302937254,-0.440225303,1.869388163,1.05450654,0.007791877,-0.007545381,-35.3624161,149.1646114,82784.5,16.88432312,-25.16909409,106,113,139,1.342724562,0.503000006,0.518604845,28.5,-0.118411459,107,1,1,1,1,0,1500,1500,1000,1500,10
17:17:27,AUTO,ON MISSION,0.295614928,-0.439788332,1.868235985,0.087963114,-0.008863484,0.001200767,-35.36241167,149.1646061,82642.66667,16.98077393,-25.10761197,106,113,140,1.351588488,0.458333363,0.538859804,29,-0.111951093,107,1,1,1,1,0,1500,1500,1000,1500,10
17:17:28,AUTO,ON MISSION,0.304417267,-0.443039715,1.868735373,0.619347468,0.000608774,-5.11E-05,-35.36241035,149.1646034,82580.5,16.67582893,-25.30332947,106,113,140,1.352944314,0.458000019,0.543411642,29,-0.125842847,107,1,1,1,1,0,1500,1500,1000,1500,10
17:17:29,AUTO,ON MISSION,0.277242392,-0.451910784,1.870758017,0.734800011,-0.00964156,0.011058052,-35.3624081,149.164597,82452,15.83418496,-25.8160998,107,113,141,1.349199216,0.464666684,0.515432696,28.66666667,-0.112192892,107,1,1,1,1,0,1500,1500,1000,1500,10
17:17:30,AUTO,ON MISSION,0.278894752,-0.456017673,1.870981812,0.212827444,-0.001455412,0.005074016,-35.3624071,149.164594,82389.5,15.35961103,-26.08756542,107,113,141,1.350966752,0.466500014,0.509911209,29,-0.105847929,107,1,1,1,1,0,1500,1500,1000,1500,10
17:17:31,AUTO,ON MISSION,0.254184932,-0.465139727,1.874021928,0.791315983,-0.007035236,0.008346525,-35.3624053,149.1645874,82256.33333,14.4308068,-26.58777746,107,113,142,1.351409475,0.460333357,0.489912122,28.66666667,-0.113789057,107,1,1,1,1,0,1500,1500,1000,1500,10
17:17:32,AUTO,ON MISSION,0.248372801,-0.467797548,1.874787867,-0.403165456,-0.000312708,0.006658419,-35.36240445,149.1645844,82194.5,14.08142614,-26.76434517,107,113,142,1.352236271,0.458500013,0.48628512,29,-0.106638417,107,1,1,1,1,0,1500,1500,1000,1500,10
17:17:33,AUTO,ON MISSION,0.238907024,-0.474814216,1.877438664,0.94591707,-0.002208349,0.016712988,-35.3624032,149.1645778,82063,13.26836491,-27.15309334,107,113,143,1.351764282,0.447666685,0.4656186,29,-0.115449699,107,1,1,1,1,0,1500,1500,1000,1500,10
17:17:34,AUTO,ON MISSION,0.233053058,-0.477427438,1.879196227,0.177295282,0.005772871,-0.00015029,-35.3624027,149.1645747,81999,12.90388966,-27.31826782,107,113,143,1.355034173,0.444500029,0.457306936,30,-0.114875183,107,1,1,1,1,0,1500,1500,1000,1500,10
17:17:35,AUTO,ON MISSION,0.225245019,-0.481115361,1.879834811,0.948607266,-0.000376649,0.007374995,-35.36240157,149.1645685,81864,12.37716866,-27.54563141,107,113,143.6666667,1.357737581,0.414333353,0.428847243,29.33333333,-0.118661451,107,1,1,1,1,0,1500,1500,1000,1500,10
17:17:36,AUTO,ON MISSION,0.20823402,-0.482017726,1.88004905,-0.772675395,0.005384781,8.78E-05,-35.36240095,149.1645658,81805,12.20817375,-27.61668301,107,113,144,1.356362283,0.395500019,0.405844331,29,-0.097980767,107,1,1,1,1,0,1500,1500,1000,1500,10
17:17:37,AUTO,ON MISSION,0.2227075,-0.480672032,1.880370816,0.298405617,0.007226171,-0.001099937,-35.3623989,149.1645606,81671,12.34628359,-27.55924416,107,113,144,1.357078433,0.37833334,0.38106365,29,-0.107338935,107,1,1,1,1,0,1500,1500,1000,1500,10
17:17:38,AUTO,ON MISSION,0.20605956,-0.479347274,1.879660666,-1.015564829,0.000602809,-0.006832045,-35.36239775,149.1645585,81609.5,12.5212841,-27.48507595,107,113,145,1.358378887,0.372500017,0.372184947,29,-0.115206774,107,1,1,1,1,0,1500,1500,1000,1500,10
17:17:39,AUTO,ON MISSION,0.22524258,-0.477151791,1.879011591,-0.211407488,0.007129847,0.001630773,-35.36239477,149.1645545,81475,12.76577918,-27.37929789,107,113,145,1.360122005,0.384333352,0.337412288,29,-0.1093761,107,1,1,1,1,0,1500,1500,1000,1500,10
17:17:40,AUTO,ON MISSION,0.215921812,-0.474775746,1.877752423,-0.523665942,0.001567364,-0.009209548,-35.3623931,149.1645531,81416.5,13.07040071,-27.24359798,107,113,145,1.358078599,0.41050002,0.317186743,28.5,-0.106930923,107,1,1,1,1,0,1500,1500,1000,1500,10
17:17:41,AUTO,ON MISSION,0.231336161,-0.468399336,1.876092354,-0.819207132,0.010636781,-0.007773832,-35.36238843,149.1645508,81291.33333,13.82869498,-26.88764763,107,113,146,1.350649397,0.447666695,0.298950414,28.66666667,-0.116567562,107,1,1,1,1,0,1500,1500,1000,1500,10
17:17:42,AUTO,ON MISSION,0.249174997,-0.464736804,1.874805272,0.624010354,-0.005173761,-0.008870903,-35.3623861,149.1645501,81232,14.26580715,-26.67189693,107,113,146,1.349572718,0.446000025,0.277036458,28.5,-0.108653657,107,1,1,1,1,0,1500,1500,1000,1500,10
17:17:43,AUTO,ON MISSION,0.255678435,-0.456806213,1.871902665,-0.295565099,-0.002694831,-0.00135309,-35.36238083,149.1645488,81096.33333,15.17846107,-26.1891257,107,113,146,1.352779905,0.412666688,0.266246041,28.66666667,-0.10653573,107,1,1,1,1,0,1500,1500,1000,1500,10
17:17:44,AUTO,ON MISSION,0.285045639,-0.452694491,1.870817006,1.042779803,0.007812666,-0.012061934,-35.36237855,149.1645483,81033,15.61836338,-25.94155407,107,113,146,1.356047332,0.372000009,0.273514301,29,-0.118728377,107,1,1,1,1,0,1500,1500,1000,1500,10
17:17:45,AUTO,ON MISSION,0.276019563,-0.449617267,1.869437734,0.370090167,-0.003009009,0.003631199,-35.36237417,149.1645473,80898.66667,15.94878356,-25.74913851,107,113,147,1.357177695,0.318000019,0.248537386,29,-0.111261641,107,1,1,1,1,0,1500,1500,1000,1500,10
17:17:46,AUTO,ON MISSION,0.290426537,-0.448886186,1.869304359,0.699072838,0.003519902,0.00243032,-35.3623724,149.1645467,80836.5,16.00221062,-25.71757984,107,113,147,1.35915035,0.293500006,0.250869058,29,-0.115371291,107,1,1,1,1,0,1500,1500,1000,1500,10
17:17:47,AUTO,ON MISSION,0.287615716,-0.449598829,1.868722637,0.745433311,-0.00254245,0.005905531,-35.3623692,149.1645454,80703,15.95485242,-25.74554316,107,114,147,1.359768867,0.226666679,0.223097568,29,-0.109570071,107,1,1,1,1,0,1500,1500,1000,1500,10
17:17:48,AUTO,ON MISSION,0.269765034,-0.452068865,1.869512796,-0.843104213,0.004113134,0.007999205,-35.3623681,149.1645446,80640.5,15.72686577,-25.87932301,107,114,147,1.361677229,0.207500003,0.215538673,29,-0.104406293,107,1,1,1,1,0,1500,1500,1000,1500,10
17:17:49,AUTO,ON MISSION,0.261270836,-0.459670583,1.870911996,-0.188258847,-0.001460299,0.002345908,-35.3623662,149.1645427,80507,14.95626767,-26.31022962,107,114,147,1.362521092,0.198333343,0.178913032,29,-0.098662545,107,1,1,1,1,0,1500,1500,1000,1500,10
17:17:50,AUTO,ON MISSION,0.248276621,-0.46279563,1.872106433,0.033726841,-0.014933799,0.00139766,-35.36236545,149.1645419,80448.5,14.62258863,-26.48800087,107,114,147,1.360783637,0.206000008,0.17547974,29,-0.103837609,107,1,1,1,1,0,1500,1500,1000,1500,10
17:17:51,AUTO,ON MISSION,0.235798026,-0.467211088,1.873850226,-0.682669893,-0.002530098,0.001725876,-35.3623638,149.1645398,80310.33333,14.15291659,-26.72915077,107,114,148,1.366469701,0.184666673,0.18546855,29.33333333,-0.107549638,107,1,1,1,1,0,1500,1500,1000,1500,10
17:17:52,AUTO,ON MISSION,0.25824599,-0.467967719,1.873571455,1.069078386,-0.002942601,-0.004507115,-35.3623632,149.1645388,80251,14.05498648,-26.7780571,107,114,148,1.364951134,0.170000009,0.189590633,29.5,-0.104343209,107,1,1,1,1,0,1500,1500,1000,1500,10
17:17:53,AUTO,ON MISSION,0.234076396,-0.470880648,1.874357462,0.048162772,-0.006451166,0.005272163,-35.36236303,149.1645361,80112.66667,13.75528177,-26.92455864,107,114,148,1.371005853,0.233333344,0.197095404,29.66666667,-0.108362839,107,1,1,1,1,0,1500,1500,1000,1500,10
17:17:54,AUTO,ON MISSION,0.248944342,-0.471211627,1.874577105,0.540012799,0.003737577,0.002437398,-35.3623633,149.1645347,80049.5,13.68023109,-26.96070004,107,114,148,1.37367183,0.270500004,0.185362332,29.5,-0.094044778,107,1,1,1,1,0,1500,1500,1000,1500,10
17:17:55,AUTO,ON MISSION,0.240373567,-0.474317431,1.875943184,0.473175546,0.001886539,0.003824307,-35.36236513,149.1645314,79922.33333,13.28187625,-27.14760208,107,113.3333333,148,1.368137995,0.30733335,0.172052458,30,-0.093997461,107,1,1,1,1,0,1500,1500,1000,1500,10
17:17:56,AUTO,ON MISSION,0.22118824,-0.475834444,1.87615937,-0.633201912,-0.000918002,0.00027443,-35.36236615,149.16453,79867,13.09013796,-27.23514938,107,113,148,1.363122523,0.30050002,0.166240387,29.5,-0.099460702,107,1,1,1,1,0,1500,1500,1000,1500,10
17:17:57,AUTO,ON MISSION,0.222975974,-0.474690408,1.876287659,-0.532908726,0.003436429,-0.002943959,-35.3623681,149.164527,79736.66667,13.17749437,-27.1955471,107,113,149,1.360195279,0.250333339,0.172634443,30,-0.1089171,107,1,1,1,1,0,1500,1500,1000,1500,10
17:17:58,AUTO,ON MISSION,0.243224956,-0.474795491,1.87612325,0.961229205,0.002158414,0.001464861,-35.36236885,149.1645258,79678,13.17102766,-27.19830894,107,113,149,1.359128416,0.24000001,0.180865437,30,-0.112953711,107,1,1,1,1,0,1500,1500,1000,1500,10
17:17:59,AUTO,ON MISSION,0.23565047,-0.473903894,1.875876983,0.490642801,0.000822114,0.00328076,-35.3623702,149.1645232,79546.33333,13.24452114,-27.16495069,107,113,149,1.357875943,0.15700001,0.191250061,29.66666667,-0.102971477,107,1,1,1,1,0,1500,1500,1000,1500,10
17:18:00,AUTO,ON MISSION,0.24093008,-0.472764507,1.875916123,-0.134502709,0.008966663,0.006632046,-35.3623705,149.1645223,79486,13.32223511,-27.12897587,107,113,149,1.357199728,0.118000004,0.216639288,29.5,-0.109937154,107,1,1,1,1,0,1500,1500,1000,1500,10
17:18:01,AUTO,ON MISSION,0.244071841,-0.4705953,1.875187039,0.24452732,0.008568719,0.005574448,-35.36237007,149.164521,79359.66667,13.55405108,-27.02054214,107,113,149,1.351482709,0.170333341,0.228444989,29.33333333,-0.110536501,107,1,1,1,1,0,1500,1500,1000,1500,10
17:18:02,AUTO,ON MISSION,0.226397216,-0.469197065,1.875070035,-0.964848459,0.001455521,-0.002872918,-35.3623693,149.1645207,79296.5,13.7370348,-26.93323326,107,113,149,1.353979468,0.222500011,0.235402577,29,-0.110843692,107,1,1,1,1,0,1500,1500,1000,1500,10
17:18:03,AUTO,ON MISSION,0.244796182,-0.465149184,1.873839935,-0.609258701,0.006376006,-0.001249605,-35.3623665,149.1645203,79156.66667,14.22242451,-26.69388707,107,113,149,1.361292283,0.285333355,0.259522816,29,-0.099406699,107,1,1,1,1,0,1500,1500,1000,1500,10
17:18:04,AUTO,ON MISSION,0.245640807,-0.463079646,1.872705996,-0.1366359,-0.002549421,-0.009211337,-35.3623649,149.1645202,79093.5,14.47437668,-26.56583118,107,113,149,1.363828123,0.309000015,0.258504108,29.5,-0.117804032,107,1,1,1,1,0,1500,1500,1000,1500,10
17:18:05,AUTO,ON MISSION,0.248777946,-0.460442692,1.872245828,-0.851637165,0.003719839,-0.0002113,-35.36236107,149.1645201,78962.66667,14.80132929,-26.39434179,107,113.3333333,149,1.361897747,0.335666676,0.279314985,29.33333333,-0.1130083,107,1,1,1,1,0,1500,1500,1000,1500,10
17:18:06,AUTO,ON MISSION,0.254632957,-0.460405603,1.872346759,0.234924555,-0.008675586,0.002139151,-35.36235925,149.16452,78901.5,14.84028244,-26.37350464,107,114,150,1.362722099,0.343500018,0.25773491,29,-0.099999346,107,1,1,1,1,0,1500,1500,1000,1500,10
17:18:07,AUTO,ON MISSION,0.24757805,-0.461296181,1.872677724,-0.493191252,-0.00127508,0.002355027,-35.36235513,149.1645193,78775.66667,14.78901736,-26.40084648,107,114,150,1.356324871,0.347666681,0.267812918,29,-0.105716792,107,1,1,1,1,0,1500,1500,1000,1500,10
17:18:08,AUTO,ON MISSION,0.268892467,-0.462221622,1.872410715,1.06997025,-0.003890526,-0.000866848,-35.36235335,149.1645188,78717.5,14.68893528,-26.45386219,107,114,150,1.354096651,0.343500018,0.266736984,29,-0.110808417,107,1,1,1,1,0,1500,1500,1000,1500,10
17:18:09,AUTO,ON MISSION,0.249688253,-0.464149028,1.872907758,0.106058707,-0.008938378,0.003230508,-35.36234957,149.1645168,78580,14.52714475,-26.53837204,107,114,150,1.35820965,0.315333347,0.292450279,29,-0.112196617,107,1,1,1,1,0,1500,1500,1000,1500,10
17:18:10,AUTO,ON MISSION,0.26387623,-0.465113193,1.873264611,0.654359907,0.000155711,0.00342272,-35.3623481,149.1645155,78521,14.37819815,-26.61508083,107,114,150,1.356843233,0.303000018,0.305536732,29,-0.103370093,107,1,1,1,1,0,1500,1500,1000,1500,10
17:18:11,AUTO,ON MISSION,0.250777329,-0.469132433,1.874342561,0.631680752,-0.003747637,0.003544584,-35.3623456,149.1645118,78392,13.95216274,-26.82864634,107,114,151,1.353536765,0.321666678,0.342834175,29,-0.10828196,107,1,1,1,1,0,1500,1500,1000,1500,10
17:18:12,AUTO,ON MISSION,0.238812834,-0.470840484,1.875234842,-0.586647034,0.001760788,0.003331761,-35.36234475,149.1645097,78327,13.73876476,-26.93252373,107,114,151,1.357924819,0.345000014,0.368177474,29,-0.115652908,107,1,1,1,1,0,1500,1500,1000,1500,10
17:18:13,AUTO,ON MISSION,0.234540989,-0.477043221,1.877000531,0.565885261,0.00111056,0.002850371,-35.3623435,149.1645044,78190.66667,12.97603099,-27.28611247,107,114,151.6666667,1.361652017,0.367333343,0.379928599,29,-0.09800304,107,1,1,1,1,0,1500,1500,1000,1500,10
17:18:14,AUTO,ON MISSION,0.207218356,-0.478869081,1.87779063,-1.061733365,-0.003701851,-0.002918918,-35.362343,149.1645019,78136,12.71582174,-27.40097332,107,114,152,1.356184006,0.377500013,0.395356059,28.5,-0.102256432,107,1,1,1,1,0,1500,1500,1000,1500,10
17:18:15,AUTO,ON MISSION,0.21973447,-0.480830322,1.878828526,-0.136176094,0.001251085,-0.002904391,-35.36234157,149.1644961,78001,12.40876293,-27.53269577,107,114,152,1.357781529,0.401666681,0.415677051,29,-0.098794433,107,1,1,1,1,0,1500,1500,1000,1500,10
17:18:16,AUTO,ON MISSION,0.205364838,-0.480100989,1.878609896,-0.527361669,-0.001386876,0.005232833,-35.3623408,149.1644935,77944,12.47730446,-27.50367641,107,114,153,1.354775369,0.412000015,0.432038054,29,-0.115113858,107,1,1,1,1,0,1500,1500,1000,1500,10
17:18:17,AUTO,ON MISSION,0.215777511,-0.479137321,1.878714164,-0.606727004,0.006793228,-0.005248121,-35.3623388,149.1644875,77805,12.6049544,-27.44909668,107,114,153,1.361000935,0.424000015,0.438184182,29,-0.099467593,107,1,1,1,1,0,1500,1500,1000,1500,10
17:18:18,AUTO,ON MISSION,0.222480066,-0.477743745,1.878277063,0.54548119,-0.001497922,0.008814397,-35.36233775,149.1644848,77745,12.78464508,-27.37084579,107,114,153,1.360065877,0.433000013,0.448255897,29,-0.112243768,107,1,1,1,1,0,1500,1500,1000,1500,10
17:18:19,AUTO,ON MISSION,0.223754495,-0.473291447,1.876538674,-0.392474413,-0.000657101,-0.003438196,-35.3623347,149.1644793,77614,13.30831401,-27.13505681,107,114,154,1.358917594,0.448666692,0.45178622,28.33333333,-0.097960415,107,1,1,1,1,0,1500,1500,1000,1500,10
17:18:20,AUTO,ON MISSION,0.249226443,-0.469383866,1.875461578,1.097704977,-0.005257471,-0.000706762,-35.36233305,149.1644769,77553.5,13.76122189,-26.92113781,107,114,154,1.359438419,0.463500023,0.466745883,28.5,-0.112914722,107,1,1,1,1,0,1500,1500,1000,1500,10
17:18:21,AUTO,ON MISSION,0.244860252,-0.461377949,1.872677803,-0.757803577,-0.002422283,-0.004592809,-35.3623288,149.1644718,77417,14.68486532,-26.45507177,107,114,155,1.362674117,0.470666687,0.493312051,28.66666667,-0.10386495,107,1,1,1,1,0,1500,1500,1000,1500,10
17:18:22,AUTO,ON MISSION,0.270128533,-0.45890604,1.871685326,0.982378721,-0.002859401,0.004295716,-35.36232685,149.1644695,77359,14.97908258,-26.29870129,107,114,155,1.360661566,0.461000025,0.491421804,28.5,-0.099822246,107,1,1,1,1,0,1500,1500,1000,1500,10
17:18:23,AUTO,ON MISSION,0.266123027,-0.451880415,1.870022058,-0.296221515,-0.001316438,-6.38E-06,-35.3623226,149.1644647,77225.66667,15.69337368,-25.89850553,107,114,156,1.361152291,0.460333347,0.515962104,28.33333333,-0.104728294,107,1,1,1,1,0,1500,1500,1000,1500,10
17:18:24,AUTO,ON MISSION,0.29116565,-0.44982034,1.869638681,0.897742718,0.00627823,-0.001036809,-35.36232065,149.1644624,77165.5,15.87930202,-25.79043102,107,114,156,1.360776365,0.458000034,0.530036151,28.5,-0.103841167,107,1,1,1,1,0,1500,1500,1000,1500,10
17:18:25,AUTO,ON MISSION,0.279585332,-0.449947129,1.869201779,0.395688713,-0.007477068,0.00471736,-35.3623166,149.1644575,77027,15.93734169,-25.75608826,107,114,157,1.366743128,0.457333356,0.517148654,28.66666667,-0.102821651,107,1,1,1,1,0,1500,1500,1000,1500,10
17:18:26,AUTO,ON MISSION,0.289660811,-0.44992584,1.869971335,0.285861194,0.01422833,0.007344314,-35.3623148,149.1644553,76968,15.91732931,-25.76803017,107,114,157,1.365246534,0.460000023,0.525130123,29,-0.110480983,107,1,1,1,1,0,1500,1500,1000,1500,10
17:18:27,AUTO,ON MISSION,0.261003653,-0.45640709,1.871429801,0.338552962,-0.009368772,0.013640418,-35.36231067,149.1644503,76837.66667,15.30065727,-26.12170664,107,114,157.6666667,1.363095721,0.510666708,0.484982371,29,-0.109667843,107,1,1,1,1,0,1500,1500,1000,1500,10
17:18:28,AUTO,ON MISSION,0.277377307,-0.457670882,1.871409655,0.762852266,0.004768503,0.00478998,-35.3623086,149.164448,76779.5,15.13971043,-26.21123791,107,114,158,1.360908151,0.514500022,0.48015362,28.5,-0.09688551,107,1,1,1,1,0,1500,1500,1000,1500,10
17:18:29,AUTO,ON MISSION,0.251923248,-0.463810146,1.872623165,0.441130747,-0.013595856,0.008834543,-35.3623041,149.1644429,76651,14.51113288,-26.54603386,107,115,158.3333333,1.356267889,0.516000032,0.471548855,28.33333333,-0.110177008,107,1,1,1,1,0,1500,1500,1000,1500,10
17:18:30,AUTO,ON MISSION,0.259137884,-0.465465933,1.873765826,0.457054209,0.005424217,7.20E-05,-35.3623021,149.1644404,76589.5,14.28639269,-26.66186905,107,115,159,1.3569116,0.512000024,0.475816101,28.5,-0.105955645,107,1,1,1,1,0,1500,1500,1000,1500,10
17:18:31,AUTO,ON MISSION,0.224475866,-0.472034971,1.875857313,-0.516619608,-0.006894279,0.002447664,-35.36229813,149.1644347,76454.66667,13.59442107,-27.00109355,107,115,159.3333333,1.359624028,0.489000032,0.478076388,29.33333333,-0.110650445,107,1,1,1,1,0,1500,1500,1000,1500,10
17:18:32,AUTO,ON MISSION,0.240320578,-0.474704728,1.876475573,0.933888346,-0.005580428,0.001357014,-35.3622965,149.1644321,76399,13.27410984,-27.15097713,107,115,160,1.355029285,0.480000034,0.475549161,29,-0.106562898,107,1,1,1,1,0,1500,1500,1000,1500,10
17:18:33,AUTO,ON MISSION,0.211119761,-0.476861974,1.87750562,-0.803082993,-0.00013307,-0.005536018,-35.3622932,149.1644262,76269,12.95021884,-27.29733467,107,115,160,1.352086544,0.470666687,0.482529451,29.33333333,-0.122593502,107,1,1,1,1,0,1500,1500,1000,1500,10
17:18:34,AUTO,ON MISSION,0.221992694,-0.479069829,1.877757668,0.724805161,-0.005068137,0.011933998,-35.36229185,149.1644234,76206,12.7269187,-27.39595985,107,115,161,1.354855955,0.451500013,0.476613849,29,-0.120490953,107,1,1,1,1,0,1500,1500,1000,1500,10
17:18:35,AUTO,ON MISSION,0.213319764,-0.478911142,1.878423174,-0.290271928,-0.003137517,0.000773228,-35.36228957,149.1644174,76077.33333,12.71005026,-27.40351168,107,115,161,1.350382447,0.427666684,0.444364915,28.33333333,-0.105533672,107,1,1,1,1,0,1500,1500,1000,1500,10
17:18:36,AUTO,ON MISSION,0.238347523,-0.477864668,1.87769413,1.209240019,0.000154281,-0.00582371,-35.36228875,149.1644148,76016,12.81061792,-27.3596859,107,115,161.5,1.351384223,0.423000008,0.442635834,29,-0.125512291,107,1,1,1,1,0,1500,1500,1000,1500,10
17:18:37,AUTO,ON MISSION,0.221537958,-0.475648721,1.876773516,-0.12632218,0.001107278,0.002327077,-35.3622871,149.164409,75876.66667,13.028162,-27.26277479,107,115,162,1.358108679,0.387000014,0.397963593,29,-0.106467163,107,1,1,1,1,0,1500,1500,1000,1500,10
17:18:38,AUTO,ON MISSION,0.244550422,-0.473536685,1.876234114,0.929730654,-0.001082211,-0.002179795,-35.3622864,149.1644065,75816,13.28182745,-27.14739418,107,115,162,1.358027339,0.379500017,0.387599841,29,-0.105749842,107,1,1,1,1,0,1500,1500,1000,1500,10
17:18:39,AUTO,ON MISSION,0.236874163,-0.469844699,1.874648372,0.045583692,0.001225677,-0.000405906,-35.36228497,149.1644015,75681.33333,13.73665524,-26.9332784,107,115,163,1.36019206,0.331333349,0.360455086,29,-0.110917042,107,1,1,1,1,0,1500,1500,1000,1500,10
17:18:40,AUTO,ON MISSION,0.253239349,-0.468254477,1.874342203,0.340736646,0.009131508,-0.00092452,-35.36228425,149.1643995,75624,13.89210367,-26.85819817,107,115,163,1.357275367,0.30750002,0.348298341,29,-0.104351055,107,1,1,1,1,0,1500,1500,1000,1500,10
17:18:41,AUTO,ON MISSION,0.256998087,-0.464544108,1.873300711,0.64887165,0.000780589,-0.000254318,-35.3622823,149.1643958,75489.66667,14.28865751,-26.66081301,107,115,163,1.358715773,0.301666677,0.315077275,29,-0.098245579,107,1,1,1,1,0,1500,1500,1000,1500,10
17:18:42,AUTO,ON MISSION,0.243016444,-0.463218793,1.87337476,-0.885268152,0.01015896,-0.001758619,-35.36228115,149.1643945,75431,14.44787216,-26.57915211,107,115,163.5,1.356877387,0.30050002,0.311648041,29,-0.097959261,107,1,1,1,1,0,1500,1500,1000,1500,10
17:18:43,AUTO,ON MISSION,0.272660981,-0.459498624,1.872266293,0.796408931,0.00385575,-0.005089753,-35.362278,149.1643923,75288,14.83638795,-26.37546221,107,115,164,1.367540638,0.313666672,0.291740646,29,-0.107355657,107,1,1,1,1,0,1500,1500,1000,1500,10
17:18:44,AUTO,ON MISSION,0.251220127,-0.458388726,1.871882399,-0.899259786,0.005761811,-0.002302474,-35.36227607,149.1643914,75214.33333,14.97972775,-26.29841169,107,115,164,1.36892573,0.320333352,0.284229885,29,-0.105318946,107,1,1,1,1,0,1500,1500,1000,1500,10
17:18:45,AUTO,ON MISSION,0.277560453,-0.455001712,1.870318095,0.776562919,0.001863128,1.71E-05,-35.36227273,149.1643903,75093.33333,15.35779063,-26.0900472,107,115,164,1.36931479,0.29033335,0.277024269,29.33333333,-0.102931224,107,1,1,1,1,0,1500,1500,1000,1500,10
17:18:46,AUTO,ON MISSION,0.258299877,-0.454829951,1.869936903,-0.752512803,0.003609646,-0.00477947,-35.3622709,149.1643897,75024.33333,15.39262644,-26.07071304,107,115,164,1.365808884,0.253000011,0.272202343,29.33333333,-0.102990714,107,1,1,1,1,0,1500,1500,1000,1500,10
17:18:47,AUTO,ON MISSION,0.275774082,-0.456747005,1.870238781,0.486905341,0.00205151,0.002586539,-35.36226833,149.1643885,74898,15.20500692,-26.17513657,107,115,165,1.371635715,0.205333347,0.253493046,29.33333333,-0.100788298,107,1,1,1,1,0,1500,1500,1000,1500,10
17:18:48,AUTO,ON MISSION,0.252062693,-0.459295571,1.870624185,-0.808363309,-0.0058387,-0.000314636,-35.36226717,149.1643877,74824.66667,14.97469362,-26.30037308,107,115,165,1.372089783,0.184333339,0.235911032,29.66666667,-0.096696702,107,1,1,1,1,0,1500,1500,1000,1500,10
17:18:49,AUTO,ON MISSION,0.25009423,-0.465058784,1.872405648,-0.433185051,-0.001969265,0.003095342,-35.36226563,149.1643862,74707.66667,14.34369659,-26.63195229,107,115,165,1.368263324,0.175000002,0.204699,29,-0.099493526,107,1,1,1,1,0,1500,1500,1000,1500,10
17:18:50,AUTO,ON MISSION,0.24432903,-0.469069411,1.873618364,0.545627241,-0.007725786,0.00498664,-35.36226487,149.1643852,74635,13.91667747,-26.84576416,107,115,165,1.368779262,0.164666673,0.180806031,29,-0.102343077,107,1,1,1,1,0,1500,1500,1000,1500,10
17:18:51,AUTO,ON MISSION,0.222078368,-0.474782368,1.875986218,-0.511967132,-0.005326637,0.002754505,-35.36226383,149.1643835,74511.33333,13.21725909,-27.17676735,107,115,165,1.371857087,0.154666672,0.171677843,29,-0.099166582,107,1,1,1,1,0,1500,1500,1000,1500,10
17:18:52,AUTO,ON MISSION,0.2327438,-0.478383015,1.877184073,0.449663599,-0.004847853,0.00184856,-35.36226333,149.1643823,74440.33333,12.74216525,-27.38893064,107,115,165,1.369897445,0.161333342,0.171008383,29,-0.100021722,107,1,1,1,1,0,1500,1500,1000,1500,10
17:18:53,AUTO,ON MISSION,0.207518165,-0.48373882,1.880485813,0.185526172,-0.009747455,0.003774316,-35.3622624,149.1643805,74319.66667,12.02844493,-27.68957456,107,115,165.6666667,1.370198528,0.178333342,0.189096813,29.33333333,-0.102840034,107,1,1,1,1,0,1500,1500,1000,1500,10
17:18:54,AUTO,ON MISSION,0.206905459,-0.485325466,1.881542325,-0.010524356,0.003653907,0.002664758,-35.36226163,149.1643796,74248.66667,11.76048787,-27.79761696,107,115,166,1.369062503,0.191666673,0.185298274,29.33333333,-0.097909828,107,1,1,1,1,0,1500,1500,1000,1500,10
17:18:55,AUTO,ON MISSION,0.207115144,-0.48566101,1.881278475,0.69888865,-0.000577089,-0.00315962,-35.36226007,149.1643781,74128,11.68948015,-27.82555962,107,115,166,1.368649046,0.203333348,0.192500969,29,-0.093531462,107,1,1,1,1,0,1500,1500,1000,1500,10
17:18:56,AUTO,ON MISSION,0.199987556,-0.484657039,1.881201863,-0.630513387,0.003360629,0.00026418,-35.3622589,149.1643774,74062,11.80642573,-27.77948888,107,115,166,1.362329086,0.194000006,0.181923027,29,-0.094580688,107,1,1,1,1,0,1500,1500,1000,1500,10
17:18:57,AUTO,ON MISSION,0.218782087,-0.482575089,1.880422791,0.354230881,0.007325312,0.003505322,-35.36225687,149.1643762,73946.33333,12.08428256,-27.66749064,107,115,166,1.357475559,0.225000014,0.171133056,29,-0.096153043,107,1,1,1,1,0,1500,1500,1000,1500,10
17:18:58,AUTO,ON MISSION,0.207939133,-0.479745785,1.879152656,-0.251187166,-0.000663277,-0.007423209,-35.36225537,149.1643755,73877,12.47411092,-27.50473658,107,115,166,1.354729772,0.245666673,0.161525776,29,-0.093205315,107,1,1,1,1,0,1500,1500,1000,1500,10
17:18:59,AUTO,ON MISSION,0.225786187,-0.472614422,1.876203001,-0.072388053,-0.000428484,-0.002279428,-35.3622527,149.1643746,73761.5,13.38668251,-27.0987606,107,115,166.5,1.352687955,0.210500017,0.15696004,29,-0.095895056,107,1,1,1,1,0,1500,1500,1000,1500,10
17:19:00,AUTO,ON MISSION,0.251482675,-0.468822608,1.875188907,0.599449145,0.007576771,-0.002676336,-35.3622514,149.1643741,73702,13.84708945,-26.87947718,107,115,167,1.352259119,0.196666678,0.169386432,29,-0.096644657,107,1,1,1,1,0,1500,1500,1000,1500,10
17:19:01,AUTO,ON MISSION,0.248013039,-0.462207446,1.872415702,-0.026293617,-0.001578539,0.004556029,-35.3622488,149.164373,73573,14.61314774,-26.49282519,107,116,167,1.347293258,0.186333338,0.188104848,29.33333333,-0.098949792,107,1,1,1,1,0,1500,1500,1000,1500,10
17:19:02,AUTO,ON MISSION,0.274420659,-0.458186964,1.871420145,0.595949475,0.005691236,0.000451096,-35.3622474,149.1643725,73505.33333,15.01513386,-26.27898026,107,116,167,1.343782544,0.193666672,0.206693421,29.33333333,-0.082001676,107,1,1,1,1,0,1500,1500,1000,1500,10
17:19:03,AUTO,ON MISSION,0.279430737,-0.452880621,1.869464278,0.664885361,0.004871605,-0.001587345,-35.36224507,149.1643717,73407.33333,15.60602061,-25.94898033,107,116,167,1.323110302,0.181666672,0.235640888,29.33333333,-0.090008033,107,1,1,1,1,0,1500,1500,1000,1500,10
17:19:04,AUTO,ON MISSION,0.276211421,-0.450791846,1.869057735,-0.487650767,0.006454971,0.005953552,-35.36224377,149.1643711,73339.66667,15.77162139,-25.85364024,107,116,167,1.319886088,0.186000004,0.259582708,29.66666667,-0.089392431,107,1,1,1,1,0,1500,1500,1000,1500,10
17:19:05,AUTO,ON MISSION,0.290186832,-0.448903124,1.868775407,0.712855528,0.004643876,0.004832518,-35.36224167,149.16437,73235.33333,15.99401188,-25.72265943,107,116,167,1.307197253,0.196333344,0.2702413,29.33333333,-0.083747712,107,1,1,1,1,0,1500,1500,1000,1500,10
17:19:06,AUTO,ON MISSION,0.268681099,-0.449611525,1.868570129,-0.762051105,-0.001449899,0.000385984,-35.3622404,149.1643692,73174.66667,15.9375426,-25.75628153,107,116,167.6666667,1.297692021,0.19600001,0.277955373,29.33333333,-0.082856653,107,1,1,1,1,0,1500,1500,1000,1500,10
