time_stamp,roll,pitch,yaw,rollspeed,pitchspeed,yawspeed,lat,lon,relative_alt,nav_roll,nav_pitch,nav_bearing,target_bearing,wp_dist,alt_error,chan1_raw,chan2_raw,chan3_raw,chan4_raw,MODE,satellites_visible,airspeed,groundspeed,throttle,climb,heading,GPS_status,Gyro_status,Accel_status,Baro_status,PreArm_error
22:52:09,-0.0011249160743318498,0.001033809210639447,0.026627976447343826,0.0001905373064801097,0.0002540129644330591,0.002152034197933972,-35.3632622,149.1652375,0.0,-0.000193417290574871,0.0001852773712016642,1.0,0.0,0.0,0.0024068516213446856,1500.0,1500.0,1000.0,1500.0,STABILIZE,10.0,0.0,0.01988491229712963,0.0,-0.0008793540473561734,1.0,1.0,1.0,1.0,1.0,0.0
22:52:14,-0.0011883060215041041,0.0009751462688048681,0.024870445330937702,0.00022490644672264656,0.000259915580196927,0.0018266702924544613,-35.3632621,149.1652374,0.0,-0.0001934181054821238,0.00018527830252423882,1.0,0.0,0.0,0.004181004129350185,1500.0,1500.0,1000.0,1500.0,STABILIZE,10.0,0.0,0.016956400126218796,0.0,0.001978611573576927,1.0,1.0,1.0,1.0,1.0,0.0
22:52:16,-0.001111905478561918,0.0009898726517955463,0.02421511212984721,0.00028590107103809714,0.00020886889736478528,0.0017016615796213348,-35.3632622,149.1652374,0.0,-0.00019341875546767065,0.00018527886034765592,1.0,0.0,0.0,-0.00025928914449953783,1500.0,1500.0,1000.0,1500.0,STABILIZE,10.0,0.0,0.018741427920758724,0.0,0.004926977097056806,1.0,1.0,1.0,1.0,1.0,0.0
22:52:20,-0.0007083278323989362,0.000967346306424588,0.023068352602422237,0.00020433677127584815,0.00011092430213466287,0.0016167848370969296,-35.3632622,149.1652375,0.0,-0.00019342025188961998,0.0001852802852226887,1.0,0.0,0.0,-0.016590360086411238,1500.0,1500.0,1000.0,1500.0,STABILIZE,10.0,0.0,0.02527884083489577,0.0,0.006569690226266782,1.0,1.0,1.0,1.0,1.0,0.0
22:52:22,-0.000653123264783062,0.0009941813768818974,0.022380816284567118,0.00023941861581988633,0.00023094807693269104,0.0015349595341831446,-35.36326215,149.1652375,6.75,-0.00019342112500453368,0.00018528097280068323,1.0,121.0,0.0,0.0,1500.0,1500.0,1000.0,1500.0,AUTO,10.0,0.0,0.01942102168686688,0.0,-0.0033472958602942526,1.0,1.0,1.0,1.0,1.0,0.0
22:52:23,-0.0006274298648349941,0.0011041484540328383,0.022166662849485874,0.00024516257690265775,0.00022031113621778786,0.0013773617101833224,-35.3632621,149.1652375,6.0,-0.00019342129962751642,0.00018528119835536927,1.0,121.0,0.0,0.0,1500.0,1500.0,1000.0,1500.0,AUTO,10.0,0.0,0.002909198694396764,0.0,-0.00247396482154727,1.0,1.0,1.0,1.0,1.0,0.0
22:52:24,-0.00023089430578693282,0.0014134501689113677,0.021797257009893656,0.0003354956133989617,0.0002982266596518457,0.0013810023956466466,-35.3632621,149.16523745,6.0,0.02376067039949703,0.0062313075504789595,1.0,122.0,0.0,0.006662820058409125,1500.0,1500.0,1000.0,1500.0,AUTO,10.0,0.0,0.0052716025384142995,2.75,-0.0006852458991488675,1.0,1.0,1.0,1.0,1.0,0.0
22:52:25,-6.344284884107765e-06,0.0016359671135433018,0.021562254056334496,0.00031196523923426867,0.0003015237452927977,0.0014141417923383415,-35.3632621,149.1652374,6.0,0.038415899500250816,-0.0012975360732525587,1.0,121.0,0.0,0.11477385833859444,1500.0,1500.0,1000.0,1500.0,AUTO,10.0,0.0,0.003417786443606019,22.5,0.00024977600696729496,1.0,1.0,1.0,1.0,1.0,0.0
22:52:26,0.004077426448930055,0.0008716629508853657,0.021392888855189085,0.009944744408130646,0.0008979928970802575,0.0018915939435828477,-35.3632621,149.1652375,563.0,-0.18843910470604897,0.14541845209896564,1.0,127.75,0.0,0.3334326595067978,1500.0,1500.0,1000.0,1500.0,AUTO,10.0,0.01100000028964132,0.011054224101826549,57.5,1.0646023750305176,1.0,1.0,1.0,1.0,1.0,0.0
22:52:27,0.026837806217372417,-0.0016062144131865352,0.021121121011674404,0.04592021927237511,-0.007490272866562009,0.002374940784648061,-35.36326205,149.1652376,1550.0,-1.2235555052757263,0.373730331659317,1.0,149.5,0.0,0.13587943464517593,1500.0,1500.0,1000.0,1500.0,AUTO,10.0,0.043000003322958946,0.07663832791149616,72.5,1.4625800848007202,1.0,1.0,1.0,1.0,1.0,0.0
22:52:28,0.022993702441453934,0.011239099549129605,-0.036165387253277004,-0.08552751410752535,0.0269658766919747,-0.0689881332218647,-35.363261325,149.165241525,3448.5,-12.165567636489868,2.485559642314911,0.0,248.25,0.0,-0.12895576283335686,1500.0,1500.0,1000.0,1500.0,AUTO,10.0,0.45525001734495163,0.49798984080553055,82.75,1.4667207300662994,357.5,1.0,1.0,1.0,1.0,0.0
22:52:29,-0.036226723343133926,0.016256877221167088,-0.08180180191993713,-0.0359325110912323,-0.01986554078757763,-0.040562285110354424,-35.3632609,149.16524525,4593.5,-11.858698844909668,2.5963311195373535,0.0,256.0,0.0,-0.2339683473110199,1500.0,1500.0,1000.0,1500.0,AUTO,10.0,0.4065000116825104,0.33079493045806885,79.5,1.4960216283798218,355.0,1.0,1.0,1.0,1.0,0.0
22:52:30,-0.05231705028563738,-0.009931558510288596,-0.08915012329816818,0.055553519167006016,0.003904912533471361,-0.0013395349305937998,-35.36326115,149.16524455,6517.25,-5.386691153049469,1.4947410225868225,0.0,257.0,0.0,-0.42610228806734085,1500.0,1500.0,1000.0,1500.0,AUTO,10.0,0.33600001223385334,0.42653193324804306,74.5,1.494942158460617,354.0,1.0,1.0,1.0,1.0,0.0
22:52:31,-0.005954427062533796,-0.002692697657039389,-0.09018617123365402,0.06650898605585098,0.015123902354389429,0.0029265175107866526,-35.363261249999994,149.1652401,7672.0,1.0382116623222828,1.6337379217147827,0.0,235.5,0.0,-0.5258285403251648,1500.0,1500.0,1000.0,1500.0,AUTO,10.0,0.6110000312328339,0.6126300990581512,74.5,1.5085338950157166,354.0,1.0,1.0,1.0,1.0,0.0
22:52:32,0.06318267155438662,0.00846515188459307,-0.08456634171307087,0.00490564078791067,-0.004444463353138417,0.0077843404142186046,-35.363261800000004,149.16523415,9632.0,2.473574358969927,0.15914753451943398,0.0,98.75,0.0,-0.633371889591217,1500.0,1500.0,1000.0,1500.0,AUTO,10.0,0.26275001280009747,0.20634663477540016,74.25,1.526275873184204,355.0,1.0,1.0,1.0,1.0,0.0
22:52:33,0.021760463248938322,-0.0010728492343332618,-0.08176112547516823,-0.09183641523122787,-0.01314848242327571,-0.003311094595119357,-35.36326235,149.16523460000002,10793.5,-2.066169321537018,-0.42348623275756836,0.0,88.5,0.0,-0.6759533584117889,1500.0,1500.0,1000.0,1500.0,AUTO,10.0,0.20750001072883606,0.275347039103508,74.0,1.4890797138214111,355.0,1.0,1.0,1.0,1.0,0.0
22:52:34,-0.01835974515415728,-0.004171206790488213,-0.11001306585967541,0.009323050733655691,0.00492470947210677,-0.027013141196221113,-35.363262425,149.165236975,12719.5,-1.4003659412264824,0.49585480988025665,0.0,84.75,0.0,-0.7236855775117874,1500.0,1500.0,1000.0,1500.0,AUTO,10.0,0.10525000654160976,0.08132299967110157,73.0,1.5226448774337769,353.25,1.0,1.0,1.0,1.0,0.0
22:52:35,-0.0050751452799886465,0.00021161846234463155,-0.13089944422245026,0.02109502162784338,0.00825660233385861,-0.024814621545374393,-35.36326215,149.1652369,13891.0,0.42233987152576447,1.0527380108833313,0.0,105.0,0.0,-0.7399713099002838,1500.0,1500.0,1000.0,1500.0,AUTO,10.0,0.09300000593066216,0.08829531073570251,73.0,1.5287436246871948,352.0,1.0,1.0,1.0,1.0,0.0
22:52:36,0.010450787376612425,0.006369643961079419,-0.1535790003836155,0.003191170166246593,0.0023638241545995697,-0.013785125920549035,-35.363261725,149.165235725,15843.25,1.7349894046783447,1.3283996284008026,0.0,110.0,0.0,-0.7557623237371445,1500.0,1500.0,1000.0,1500.0,AUTO,10.0,0.07825000211596489,0.03603582922369242,73.0,1.5291979312896729,350.75,1.0,1.0,1.0,1.0,0.0
22:52:37,0.009528637398034334,0.006322689587250352,-0.16282706707715988,-0.0033922967850230634,-0.00023567277821712196,-0.011611701920628548,-35.3632616,149.1652355,17013.5,1.732615053653717,1.2894100546836853,0.0,110.0,0.0,-0.7589562833309174,1500.0,1500.0,1000.0,1500.0,AUTO,10.0,0.01700000069104135,0.03179029002785683,73.0,1.5284333229064941,350.0,1.0,1.0,1.0,1.0,0.0
22:52:38,0.004250329628121108,0.004023754445370287,-0.1801820620894432,-0.002608956659969408,-0.00024622354976600036,-0.017169016413390636,-35.363261625,149.16523575,18965.5,1.5622460842132568,1.1800186336040497,0.0,111.25,0.0,-0.7591491490602493,1500.0,1500.0,1000.0,1500.0,AUTO,10.0,0.03675000183284283,0.06883425824344158,73.0,1.5306861102581024,349.25,1.0,1.0,1.0,1.0,0.0
22:52:39,0.0025947855319827795,0.0035426371032372117,-0.19361332803964615,-3.059476148337126e-05,0.0008328476687893271,-0.018968433141708374,-35.3632617,149.16523604999998,20137.0,1.5783520936965942,1.1851178407669067,0.0,112.5,0.0,-0.7593353092670441,1500.0,1500.0,1000.0,1500.0,AUTO,10.0,0.03750000149011612,0.06509533151984215,73.0,1.5323157906532288,348.5,1.0,1.0,1.0,1.0,0.0
22:52:40,0.0022149913129396737,0.003080344060435891,-0.21823209151625633,0.0005117277905810624,0.00010541855590417981,-0.020301703363656998,-35.363261725,149.1652364,22083.5,1.6768476366996765,1.1713828146457672,0.0,115.0,0.0,-0.758929431438446,1500.0,1500.0,1000.0,1500.0,AUTO,10.0,0.025500000920146704,0.05091355461627245,73.0,1.534109741449356,347.0,1.0,1.0,1.0,1.0,0.0
22:52:41,0.0023083314299583435,0.0030590191017836332,-0.23322223871946335,0.0024661757051944733,0.0013698905240744352,-0.021273059770464897,-35.3632618,149.1652365,23256.5,1.7399652004241943,1.1470885276794434,0.0,115.0,0.0,-0.7580443918704987,1500.0,1500.0,1000.0,1500.0,AUTO,10.0,0.0205000014975667,0.04507674649357796,73.0,1.5349449515342712,346.0,1.0,1.0,1.0,1.0,0.0
22:52:42,-0.003460904350504279,0.0034095989540219307,-0.2543831467628479,0.002860831838916056,0.0027300353831378743,-0.006778382987249643,-35.363261875,149.16523665,25203.0,2.01286980509758,0.9807749688625336,0.0,113.5,0.0,-0.7548803687095642,1500.0,1500.0,1000.0,1500.0,AUTO,10.0,0.01825000112876296,0.040640417486429214,73.5,1.5312286913394928,345.0,1.0,1.0,1.0,1.0,0.0
22:52:43,0.005287669715471566,0.004141298122704029,-0.24903864413499832,0.028489776886999607,-0.001278233714401722,0.020705057308077812,-35.36326205,149.16523654999997,26371.5,2.9383623600006104,0.37974683940410614,0.0,101.5,0.0,-0.7517663538455963,1500.0,1500.0,1000.0,1500.0,AUTO,10.0,0.04800000227987766,0.055999597534537315,73.0,1.5364567041397095,345.0,1.0,1.0,1.0,1.0,0.0
22:52:44,0.008117197663523257,0.001539671327918768,-0.2186262458562851,-0.006721223529893905,0.0010424737556604668,0.022538183722645044,-35.363262375,149.16523675,28320.25,1.6028506755828857,0.12427004240453243,0.0,85.75,0.0,-0.7440075576305389,1500.0,1500.0,1000.0,1500.0,AUTO,10.0,0.04975000210106373,0.08030850812792778,74.0,1.5296436250209808,346.75,1.0,1.0,1.0,1.0,0.0
22:52:45,0.002765062206890434,0.0018280267249792814,-0.20252931863069534,-0.00579542201012373,0.0009735484782140702,0.021665788255631924,-35.36326235,149.1652372,29485.0,0.8560367226600647,0.167562797665596,0.0,83.0,0.0,-0.7362048327922821,1500.0,1500.0,1000.0,1500.0,AUTO,10.0,0.07200000435113907,0.08808184042572975,74.0,1.5296044945716858,348.0,1.0,1.0,1.0,1.0,0.0
22:52:46,-0.00093493313761428,0.0013597453362308443,-0.17952541634440422,0.0009807756141526625,0.00027665565721690655,0.017608714289963245,-35.3632623,149.16523792499999,31429.5,0.271103922277689,0.12774592265486717,0.0,218.75,0.0,-0.7280773818492889,1500.0,1500.0,1000.0,1500.0,AUTO,10.0,0.039000002201646566,0.04461540747433901,74.0,1.532501995563507,349.25,1.0,1.0,1.0,1.0,0.0
22:52:47,-0.00015539918695139932,0.0014803046942688525,-0.16730694472789764,0.0006795449880883098,0.0014184704632498324,0.014202410820871592,-35.3632623,149.1652381,32596.5,0.19631724059581757,0.10989538580179214,0.0,248.0,0.0,-0.7233825623989105,1500.0,1500.0,1000.0,1500.0,AUTO,10.0,0.014500000514090061,0.018108060583472252,74.0,1.5333297848701477,350.0,1.0,1.0,1.0,1.0,0.0
22:52:48,0.0016358935681637377,0.001135465587140061,-0.15048502013087273,-0.0004590000753523782,-0.0005291948764352128,0.012693424709141254,-35.363262275000004,149.165238,34543.25,0.1799701489508152,0.06312560010701418,0.0,206.75,0.0,-0.7167968451976776,1500.0,1500.0,1000.0,1500.0,AUTO,10.0,0.014750000555068254,0.005316008580848575,74.0,1.5332035720348358,351.0,1.0,1.0,1.0,1.0,0.0
22:52:49,0.0017994990339502692,0.0009220606298185885,-0.1415562480688095,0.001618309412151575,5.723373033106327e-05,0.011129269376397133,-35.3632622,149.1652379,35716.5,0.15404754877090454,0.050657154992222786,0.0,176.0,0.0,-0.7141552567481995,1500.0,1500.0,1000.0,1500.0,AUTO,10.0,0.018500001169741154,0.004140924429520965,74.5,1.5329748392105103,351.0,1.0,1.0,1.0,1.0,0.0
22:52:50,0.002312256663572043,0.0014121835702098906,-0.1288592554628849,0.0010870448895730078,5.035060166846961e-05,0.009287543362006545,-35.363262175,149.16523770000003,37652.0,0.16505584120750427,0.06933065690100193,0.0,143.75,0.0,-0.703030988574028,1500.0,1500.0,1000.0,1500.0,AUTO,10.0,0.02125000162050128,0.005758000886999071,75.0,1.5327136814594269,352.0,1.0,1.0,1.0,1.0,0.0
22:52:51,0.002846817602403462,0.00157210323959589,-0.1221371628344059,-0.00020468543516471982,0.00011402781819924712,0.009033123031258583,-35.3632621,149.1652376,38819.0,0.18876713514328003,0.07661786302924156,0.0,134.0,0.0,-0.6987194716930389,1500.0,1500.0,1000.0,1500.0,AUTO,10.0,0.018000001087784767,0.007879905169829726,75.0,1.5323277711868286,352.5,1.0,1.0,1.0,1.0,0.0
22:52:52,0.0025402609608136117,0.001288229919737205,-0.11235424131155014,0.0006590135744772851,-0.00022148367133922875,0.008774752030149102,-35.3632621,149.16523742500002,40771.25,0.16362585127353668,0.07136255254348119,0.0,128.0,0.0,-0.694006343682607,1500.0,1500.0,1000.0,1500.0,AUTO,10.0,0.009666667319834232,0.012860647092262903,75.0,1.5321510632832844,353.0,1.0,1.0,1.0,1.0,0.0
22:52:53,0.002383521990850568,0.001305467914789915,-0.10726828500628471,0.0002654273994266987,0.00242133263964206,0.006290724268183112,-35.3632621,149.1652374,41938.5,0.1555406947930654,0.07294033467769623,0.0,126.0,0.0,-0.6889721552530924,1500.0,1500.0,1000.0,1500.0,AUTO,10.0,0.007000000216066837,0.014293828358252844,75.0,1.531806230545044,353.0,1.0,1.0,1.0,1.0,0.0
22:52:54,0.002236070344224572,0.0014180173457134515,-0.09947430714964867,-0.00021866308816242963,6.167561514303088e-05,0.007103724172338843,-35.363262025,149.165237325,43884.5,0.15185509249567986,0.0723410826176405,0.0,126.0,0.0,-0.6794262528419495,1500.0,1500.0,1000.0,1500.0,AUTO,10.0,0.0032500000670552254,0.0180635629221797,75.0,1.531973510980606,354.0,1.0,1.0,1.0,1.0,0.0
22:52:55,0.00214059604331851,0.001110172423068434,-0.09480416774749756,0.0013321228325366974,0.0006980719044804573,0.0063596421387046576,-35.363262,149.1652373,45052.0,0.14059816300868988,0.061986902728676796,0.0,126.0,0.0,-0.672675758600235,1500.0,1500.0,1000.0,1500.0,AUTO,10.0,0.003000000026077032,0.018655790016055107,75.5,1.53169584274292,354.0,1.0,1.0,1.0,1.0,0.0
22:52:56,0.002775030443444848,0.0012561318289954215,-0.08795553632080555,0.0004029211704619229,0.0001885506499093026,0.005701359128579497,-35.363262,149.165237225,46992.5,0.176413431763649,0.06716958060860634,0.0,122.75,0.0,-0.6667333841323853,1500.0,1500.0,1000.0,1500.0,AUTO,10.0,0.001500000071246177,0.01917833834886551,76.0,1.5317071080207825,354.5,1.0,1.0,1.0,1.0,0.0
22:52:57,0.0025901314802467823,0.0011831377050839365,-0.08410868793725967,-0.0007097202469594777,0.0003159616608172655,0.008070325711742043,-35.363262,149.1652372,48158.5,0.16607040911912918,0.06242219917476177,0.0,122.0,0.0,-0.6614574790000916,1500.0,1500.0,1000.0,1500.0,AUTO,10.0,0.004500000271946192,0.021420380100607872,76.0,1.531237781047821,355.0,1.0,1.0,1.0,1.0,0.0
22:52:58,0.0018924059113487601,0.0013350896479096264,-0.07774700410664082,2.806875272653997e-05,0.0009632845321903005,0.006854203529655933,-35.363262,149.1652372,50103.25,0.12744794227182865,0.0720556378364563,0.0,123.5,0.0,-0.6536254584789276,1500.0,1500.0,1000.0,1500.0,AUTO,10.0,0.006750000175088644,0.02147173462435603,76.0,1.5310744047164917,355.0,1.0,1.0,1.0,1.0,0.0
22:52:59,0.00117013807175681,0.0011485706199891865,-0.0738336592912674,0.0010723461746238172,9.140302427113056e-05,0.004838908789679408,-35.363262,149.1652372,51270.0,0.10396150127053261,0.05145890265703201,0.0,125.0,0.0,-0.6489794850349426,1500.0,1500.0,1000.0,1500.0,AUTO,10.0,0.004500000271946192,0.019635135307908058,76.0,1.5313100814819336,355.0,1.0,1.0,1.0,1.0,0.0
22:53:00,0.0018872918638711174,0.0009481242353407046,-0.06910386184851329,-0.000588774176624914,0.000846096120464305,0.004193510627374053,-35.363262,149.1652372,53020.333333333336,0.1312524676322937,0.039962792148192726,0.0,124.33333333333333,0.0,-0.6405045390129089,1500.0,1500.0,1000.0,1500.0,AUTO,10.0,0.0033333334140479565,0.016888856887817383,76.0,1.5311544338862102,355.6666666666667,1.0,1.0,1.0,1.0,0.0
22:53:01,0.0020278573501855135,0.0009639502968639135,-0.06617792199055354,-0.00026756162211919826,0.0002625433262437582,0.004650183177242677,-35.363262,149.1652372,54190.0,0.13692203164100647,0.041674330830574036,0.0,124.0,0.0,-0.6344059308369955,1500.0,1500.0,1000.0,1500.0,AUTO,10.0,0.004000000189989805,0.016472941264510155,76.33333333333333,1.5308514038721721,356.0,1.0,1.0,1.0,1.0,0.0
22:53:02,0.0020212334347888827,0.0010376334830652922,-0.06119540985673666,0.0008742145146243274,0.0007346210768446326,0.004975558142177761,-35.363262,149.1652372,56324.25,0.13402141630649567,0.05308236430088679,0.0,125.0,0.0,-0.6281754374504089,1500.0,1500.0,1000.0,1500.0,AUTO,10.0,0.004000000189989805,0.01713653343419234,77.0,1.5305797259012859,356.0,1.0,1.0,1.0,1.0,0.0
22:53:03,0.002077118493616581,0.0009484844340477139,-0.05851638317108154,0.0011235927231609821,0.000570085016079247,0.004899279912933707,-35.363262,149.1652372,57490.5,0.13391638298829397,0.0530754029750824,0.0,124.66666666666667,0.0,-0.6229475736618042,1500.0,1500.0,1000.0,1500.0,AUTO,10.0,0.004000000189989805,0.017341796929637592,77.0,1.5302213827768962,356.0,1.0,1.0,1.0,1.0,0.0
22:53:04,0.0027524279430508614,0.0010509319690754637,-0.05466395989060402,-1.964473631232977e-05,0.0005086244200356305,0.004536533146165311,-35.363262,149.1652372,59435.75,0.17081833258271217,0.05589903146028519,0.0,122.0,0.0,-0.6148925572633743,1500.0,1500.0,1000.0,1500.0,AUTO,10.0,0.0023333334053556123,0.019921847929557163,77.0,1.5303312540054321,356.0,1.0,1.0,1.0,1.0,0.0
22:53:05,0.002368793706409633,0.0011272960109636188,-0.05235736630856991,-0.0013129268190823495,0.0005854229093529284,0.0036786345299333334,-35.363262,149.1652372,60601.0,0.150110624730587,0.059801243245601654,0.0,122.0,0.0,-0.6086816489696503,1500.0,1500.0,1000.0,1500.0,AUTO,10.0,0.004000000189989805,0.022090410192807514,77.0,1.5297850370407104,356.3333333333333,1.0,1.0,1.0,1.0,0.0
22:53:06,0.0021250680438242853,0.001161997060989961,-0.048918088898062706,0.001148043549619615,0.0006629844865528867,0.003653056512121111,-35.363262,149.1652372,62352.333333333336,0.13957107067108154,0.071603924036026,0.0,123.0,0.0,-0.6012532512346903,1500.0,1500.0,1000.0,1500.0,AUTO,10.0,0.006000000052154064,0.02173564024269581,77.0,1.5300219058990479,357.0,1.0,1.0,1.0,1.0,0.0
22:53:07,0.001999276748392731,0.0012230431311763823,-0.047001419588923454,0.0009411578648723662,0.0012553348205983639,0.0030359410447999835,-35.363262,149.1652372,63522.0,0.12803610414266586,0.06905837853749593,0.0,124.0,0.0,-0.595288077990214,1500.0,1500.0,1000.0,1500.0,AUTO,10.0,0.006000000052154064,0.021648911759257317,77.33333333333333,1.5299144983291626,357.0,1.0,1.0,1.0,1.0,0.0
22:53:08,0.001446848774018387,0.0010864357852066557,-0.044187008092800774,0.00130120482450972,0.0006816528427104155,0.002751276750738422,-35.363262,149.1652372,65466.0,0.09570728490749995,0.06716857850551605,0.0,127.0,0.0,-0.5870149532953898,1500.0,1500.0,1000.0,1500.0,AUTO,10.0,0.0023333334053556123,0.018305587271849316,78.0,1.530269980430603,357.0,1.0,1.0,1.0,1.0,0.0
22:53:09,0.0017042584950104356,0.0009568100019047657,-0.042624531934658684,0.0006094775162637234,0.00011911227678259213,0.0029309175442904234,-35.363262,149.1652372,66633.0,0.111823836962382,0.06017801289757093,0.0,126.33333333333333,0.0,-0.5827896992365519,1500.0,1500.0,1000.0,1500.0,AUTO,10.0,0.0026666667157163224,0.01731228083372116,78.0,1.530469576517741,357.0,1.0,1.0,1.0,1.0,0.0
22:53:10,0.0019235619402024895,0.0008670796232763678,-0.03962341416627169,-0.00021926790941506624,0.0004679719568230212,0.001934624437126331,-35.363262,149.1652372,68577.66666666667,0.11894446611404419,0.0558040477335453,0.0,125.33333333333333,0.0,-0.5751367211341858,1500.0,1500.0,1000.0,1500.0,AUTO,10.0,0.004000000189989805,0.017562178894877434,78.0,1.5301258166631062,357.0,1.0,1.0,1.0,1.0,0.0
22:53:11,0.0018122682231478393,0.0009363621356897056,-0.0381157323718071,0.001450088428100571,0.002006392925977707,0.0030601818580180407,-35.363262,149.1652372,69750.33333333333,0.1160266821583112,0.06101825833320618,0.0,126.0,0.0,-0.5727425018946329,1500.0,1500.0,1000.0,1500.0,AUTO,10.0,0.00433333357796073,0.017167041078209877,78.0,1.52996822198232,357.0,1.0,1.0,1.0,1.0,0.0
22:53:12,0.001997905899770558,0.0010386950064760943,-0.03598035747806231,0.0005214586853981018,0.0004935004205132524,0.0030744205384204784,-35.363262,149.1652372,71689.66666666667,0.11844281852245331,0.05556792393326759,0.0,125.66666666666667,0.0,-0.5632112423578898,1500.0,1500.0,1000.0,1500.0,AUTO,10.0,0.004000000189989805,0.01861000123123328,78.0,1.530043323834737,357.0,1.0,1.0,1.0,1.0,0.0
22:53:13,0.0024697872965286174,0.0015189246041700244,-0.0347886768480142,-1.3519621764620146e-05,0.001770054882702728,0.0022568800292598703,-35.363262,149.1652372,72856.66666666667,0.15385573108990988,0.0861942432820797,0.0,125.66666666666667,0.0,-0.5587711532910665,1500.0,1500.0,1000.0,1500.0,AUTO,10.0,0.002333333366550505,0.019453376531600952,78.0,1.529789129892985,357.6666666666667,1.0,1.0,1.0,1.0,0.0
22:53:14,0.0021751283202320337,0.0016452529622862737,-0.03266145785649618,0.0001868248994772633,-3.736470049868027e-05,0.002775423461571336,-35.36326193333333,149.1652372,74809.0,0.12843778481086096,0.09335774431626002,0.0,128.0,0.0,-0.5530924201011658,1500.0,1500.0,1000.0,1500.0,AUTO,10.0,0.009000000543892384,0.027062547703584034,79.0,1.529758373896281,358.0,1.0,1.0,1.0,1.0,0.0
22:53:15,0.001587388338521123,0.0013846171010906498,-0.031125200912356377,-0.0004139616309354703,-0.0007551564291740457,0.0021203624977109334,-35.3632619,149.1652372,75975.0,0.11837469786405563,0.06740093976259232,0.0,127.66666666666667,0.0,-0.5476497213045756,1500.0,1500.0,1000.0,1500.0,AUTO,10.0,0.012000000104308128,0.027387615914146107,79.0,1.5294917821884155,358.0,1.0,1.0,1.0,1.0,0.0
22:53:16,0.001276218060714503,0.00031151468768560636,-0.02919013115266959,0.0005260082543827593,0.0016841864756618936,0.002935727902998527,-35.36326193333333,149.1652372,77920.33333333333,0.09372986108064651,0.01486850343644619,0.0,124.0,0.0,-0.5407405495643616,1500.0,1500.0,1000.0,1500.0,AUTO,10.0,0.006333333595345418,0.02119843785961469,79.0,1.5297436714172363,358.0,1.0,1.0,1.0,1.0,0.0
22:53:17,0.0013447919627651572,0.0005210777162574232,-0.02829998234907786,0.001397335863051315,-0.00012274742281685272,0.002600199542939663,-35.363262,149.1652372,79089.66666666667,0.09718696524699529,0.020633115122715633,0.0,123.66666666666667,0.0,-0.5347867608070374,1500.0,1500.0,1000.0,1500.0,AUTO,10.0,0.0006666666983316342,0.016958819702267647,79.0,1.5302022298177083,358.0,1.0,1.0,1.0,1.0,0.0
22:53:18,0.0018897754683469732,0.0005013447759362558,-0.026518280307451885,3.327347803860903e-05,0.0006959689587044219,0.0007445504500841101,-35.363262,149.1652372,81032.66666666667,0.11973528812328975,0.03013706145187219,0.0,122.0,0.0,-0.5293847521146139,1500.0,1500.0,1000.0,1500.0,AUTO,10.0,0.007000000216066837,0.013420976387957731,79.0,1.5302465359369914,358.0,1.0,1.0,1.0,1.0,0.0
22:53:19,0.0019096916075795889,0.0008533510845154524,-0.02564536655942599,0.0008027612930163741,0.0021639440286283693,0.002676449599675834,-35.363262,149.1652372,82200.0,0.12229353437821071,0.05161175628503164,0.0,123.33333333333333,0.0,-0.5250716010729471,1500.0,1500.0,1000.0,1500.0,AUTO,10.0,0.009000000543892384,0.013627896706263224,79.0,1.5296714703241985,358.0,1.0,1.0,1.0,1.0,0.0
22:53:20,0.0017934843587378662,0.0013743529949958126,-0.024711792046825092,-0.0007480854401364923,-0.00016546453116461635,0.0013543687139948208,-35.363262,149.1652372,84145.0,0.12169466664393742,0.06970832993586858,0.0,126.33333333333333,0.0,-0.5177831848462423,1500.0,1500.0,1000.0,1500.0,AUTO,10.0,0.006000000207374494,0.017307075982292492,79.33333333333333,1.5297040144602458,358.0,1.0,1.0,1.0,1.0,0.0
22:53:21,0.001784603848742942,0.0009157045084672669,-0.023895782728989918,-0.00044563598930835724,0.000812340605383118,0.002597387336815397,-35.363262,149.1652372,85312.0,0.11894794801870982,0.05481449762980143,0.0,126.33333333333333,0.0,-0.5134635170300802,1500.0,1500.0,1000.0,1500.0,AUTO,10.0,0.004000000189989805,0.018447096770008404,80.0,1.5295204718907673,358.0,1.0,1.0,1.0,1.0,0.0
22:53:22,0.002123734060054024,0.0019352870682875316,-0.022596564143896103,0.0023960694282626114,0.0013184754449563723,0.002638324396684766,-35.36326193333333,149.1652372,87255.66666666667,0.12928265581528345,0.11332331597805023,0.0,130.0,0.0,-0.5048111875851949,1500.0,1500.0,1000.0,1500.0,AUTO,10.0,0.0033333334140479565,0.021846502398451168,80.0,1.5291554133097331,358.0,1.0,1.0,1.0,1.0,0.0
22:53:23,0.0024234491866081953,0.0014633784691492717,-0.022008481125036877,0.0010903060125807922,0.00031816350140919286,0.001913300637776653,-35.3632619,149.1652372,88426.33333333333,0.1429426521062851,0.09241941819588344,0.0,128.66666666666666,0.0,-0.49838865796724957,1500.0,1500.0,1000.0,1500.0,AUTO,10.0,0.007000000216066837,0.02588656110068162,80.0,1.5292802651723225,358.0,1.0,1.0,1.0,1.0,0.0
22:53:24,0.0019500808169444401,0.0008671248700314512,-0.020980780323346455,0.0004413067363202572,-0.0009903576768313844,0.0012377413998668392,-35.3632619,149.1652372,90367.33333333333,0.11342232674360275,0.05690448979536692,0.0,126.0,0.0,-0.49267902970314026,1500.0,1500.0,1000.0,1500.0,AUTO,10.0,0.01100000087171793,0.026977171500523884,80.0,1.528971513112386,358.0,1.0,1.0,1.0,1.0,0.0
22:53:25,0.001655376438672344,0.00022275642065020898,-0.02045900747179985,-0.0003552030539140105,9.750116926928361e-05,0.0015367675029362242,-35.3632619,149.1652372,91534.66666666667,0.10238670061031978,0.02947700023651123,0.0,123.33333333333333,0.0,-0.4887565076351166,1500.0,1500.0,1000.0,1500.0,AUTO,10.0,0.008333333767950535,0.023087430124481518,80.0,1.5288628737131755,358.0,1.0,1.0,1.0,1.0,0.0
22:53:26,0.0011871542083099484,0.0009170371922664344,-0.01972959687312444,-0.0005501217286412915,8.467495596657197e-05,0.0013032372614058356,-35.3632619,149.1652372,93479.0,0.08606597036123276,0.05553840100765228,0.0,125.66666666666667,0.0,-0.48053709665934247,1500.0,1500.0,1000.0,1500.0,AUTO,10.0,0.0016666667070239782,0.016752154876788456,80.0,1.5289035240809123,358.0,1.0,1.0,1.0,1.0,0.0
22:53:27,0.0015641591744497418,0.000835942744743079,-0.019161544740200043,0.0005012317754638692,-0.00017744679159174362,0.0007842911096910635,-35.3632619,149.1652372,94646.0,0.10726692030827205,0.05645998443166415,0.0,126.0,0.0,-0.47648435831069946,1500.0,1500.0,1000.0,1500.0,AUTO,10.0,0.0023333334053556123,0.015777630110581715,81.0,1.52900234858195,358.0,1.0,1.0,1.0,1.0,0.0
22:53:28,0.0017541281413286924,0.000935182033572346,-0.018410182868440945,4.059867933392525e-05,0.0012957351670290034,0.001373169672054549,-35.3632619,149.1652372,96594.0,0.11082894851764043,0.0642173836628596,0.0,126.0,0.0,-0.4681510229905446,1500.0,1500.0,1000.0,1500.0,AUTO,10.0,0.003000000026077032,0.01659480296075344,81.0,1.528717319170634,358.0,1.0,1.0,1.0,1.0,0.0
22:53:29,0.0016459464095532894,0.0009217392071150243,-0.017994629840056103,0.0006775505607947707,-0.00022007552130768696,0.0018664103699848056,-35.3632619,149.1652372,97762.0,0.10395057996114095,0.06193491816520691,0.0,126.0,0.0,-0.4630240797996521,1500.0,1500.0,1000.0,1500.0,AUTO,10.0,0.003000000026077032,0.017275480553507805,81.0,1.5287118355433147,358.0,1.0,1.0,1.0,1.0,0.0
22:53:30,0.0018133722090472777,0.0008984816765102247,-0.0173489215473334,0.0005639525673662623,-8.069073858981331e-05,0.0014068989742857714,-35.3632619,149.1652372,99708.0,0.11077381670475006,0.05231905976931254,0.0,126.0,0.0,-0.4561002552509308,1500.0,1500.0,1000.0,1500.0,AUTO,10.0,0.004000000189989805,0.017844855164488155,81.0,1.5289173126220703,359.0,1.0,1.0,1.0,1.0,0.0
22:53:31,0.0015557931425670783,0.001037805088950942,-0.016842199489474297,-0.0007601494823272029,0.0007714659829313556,0.00172915398919334,-35.3632619,149.1652372,100874.33333333333,0.10909811158974965,0.04770495370030403,0.0,126.0,0.0,-0.45121092597643536,1500.0,1500.0,1000.0,1500.0,AUTO,10.0,0.003000000026077032,0.018149596949418385,81.0,1.528410792350769,359.0,1.0,1.0,1.0,1.0,0.0
22:53:32,0.002165282960049808,0.0007549810106866062,-0.015712712270518143,0.002200262349409362,0.0006494860087210933,0.0011884776370910306,-35.3632619,149.1652372,102824.66666666667,0.14410791794459024,0.034200556576251984,0.0,124.0,0.0,-0.44551106293996173,1500.0,1500.0,1000.0,1500.0,AUTO,10.0,0.004000000189989805,0.018082854027549427,81.0,1.5289380153020222,359.0,1.0,1.0,1.0,1.0,0.0
22:53:33,0.00261474105839928,0.0008264081552624702,-0.015519986860454082,0.001224177152228852,0.000951698205123345,0.002471552579663694,-35.3632619,149.1652372,103995.0,0.16659945249557495,0.04419425129890442,0.0,122.33333333333333,0.0,-0.4422656198342641,1500.0,1500.0,1000.0,1500.0,AUTO,10.0,0.0026666667157163224,0.01964310308297475,81.0,1.5288667678833008,359.0,1.0,1.0,1.0,1.0,0.0
22:53:34,0.0019099707715213299,0.000948477303609252,-0.015003576253851255,-0.0005485117435455322,-7.889522627616923e-05,0.0008119132447366914,-35.3632619,149.1652372,106087.0,0.12307283778985341,0.049117881804704666,0.0,123.33333333333333,0.0,-0.43303709228833515,1500.0,1500.0,1000.0,1500.0,AUTO,10.0,0.007000000216066837,0.02237950141231219,82.0,1.5285746653874714,359.0,1.0,1.0,1.0,1.0,0.0
22:53:35,0.001873068433875839,0.0015226256024713318,-0.014666474424302578,-0.0007671369627738992,0.0016904022389401991,0.0016264792066067457,-35.3632619,149.1652372,107257.33333333333,0.11793501923481624,0.08843223253885905,0.0,125.33333333333333,0.0,-0.4278515577316284,1500.0,1500.0,1000.0,1500.0,AUTO,10.0,0.007000000216066837,0.021740538999438286,82.0,1.5281105836232503,359.0,1.0,1.0,1.0,1.0,0.0
22:53:36,0.0011038151181613405,0.0017464837292209268,-0.014140447291235128,0.0012080949964001775,-0.00015722882623473802,0.001739553331087033,-35.3632619,149.1652372,109051.0,0.07397927592198054,0.10817416260639827,0.0,132.33333333333334,0.0,-0.42215168476104736,1500.0,1500.0,1000.0,1500.0,AUTO,10.0,0.0063333334401249886,0.02339127225180467,82.0,1.5281078418095906,359.0,1.0,1.0,1.0,1.0,0.0
22:53:37,0.0014005243234957259,0.0012145532915989559,-0.013957352377474308,0.0009332431945949793,0.000350372982211411,0.002850005946432551,-35.3632619,149.1652372,110217.66666666667,0.08866655329863231,0.07997251798709233,0.0,131.66666666666666,0.0,-0.41747069358825684,1500.0,1500.0,1000.0,1500.0,AUTO,10.0,0.009666667319834232,0.02340846446653207,82.0,1.5281463861465454,359.0,1.0,1.0,1.0,1.0,0.0
22:53:38,0.0016950639352823298,3.0676324361896455e-05,-0.013706905456880728,0.0012405183709536989,0.00046023319009691477,0.0021784840306888023,-35.3632619,149.1652372,112163.0,0.10448504984378815,0.01648082708319028,0.0,125.33333333333333,0.0,-0.41052083174387616,1500.0,1500.0,1000.0,1500.0,AUTO,10.0,0.008333333767950535,0.019985133161147434,82.0,1.528190811475118,359.0,1.0,1.0,1.0,1.0,0.0
22:53:39,0.0017894564274077613,0.00033608753195342916,-0.013506601875027021,0.0007442857604473829,-0.0002725450710083048,0.002230499948685368,-35.363262,149.1652372,113330.0,0.10861379901568095,0.02971445893247922,0.0,123.66666666666667,0.0,-0.40624673167864483,1500.0,1500.0,1000.0,1500.0,AUTO,10.0,0.00433333357796073,0.016801277175545692,82.0,1.5283050139745076,359.0,1.0,1.0,1.0,1.0,0.0
22:53:40,0.0017382638373722632,0.0010321228376900156,-0.013424892288943132,-0.0005253152533744773,0.00018854493585725626,0.0018670183684056003,-35.363262,149.1652372,115276.33333333333,0.11274430404106776,0.058680390318234764,0.0,123.66666666666667,0.0,-0.39870767792065936,1500.0,1500.0,1000.0,1500.0,AUTO,10.0,0.006000000052154064,0.015735835768282413,82.33333333333333,1.5281003713607788,359.0,1.0,1.0,1.0,1.0,0.0
22:53:41,0.0020068229641765356,0.0009989694808609784,-0.013022897144158682,0.0019379865067700546,0.0005380315706133842,0.0006963560590520501,-35.363262,149.1652372,116446.33333333333,0.1320201481382052,0.061279021203517914,0.0,124.33333333333333,0.0,-0.3930826683839162,1500.0,1500.0,1000.0,1500.0,AUTO,10.0,0.005000000353902578,0.016920340557893116,83.0,1.5285921494166057,359.0,1.0,1.0,1.0,1.0,0.0
22:53:42,0.0024042416674395404,0.0008797599002718925,-0.012718979269266129,0.0004317276179790497,0.0005746144452132285,0.0017585099364320438,-35.363262,149.1652372,118387.0,0.14855127533276877,0.061428854862848915,0.0,122.0,0.0,-0.3876139223575592,1500.0,1500.0,1000.0,1500.0,AUTO,10.0,0.003000000103687247,0.021366610502203304,83.0,1.5280380249023438,359.0,1.0,1.0,1.0,1.0,0.0
22:53:43,0.002095238926510016,0.0009615959910055002,-0.012709796118239561,-5.289632827043533e-05,-2.9721840595205624e-05,0.0003565591371928652,-35.363262,149.1652372,119555.66666666667,0.13048461576302847,0.0662416120370229,0.0,123.0,0.0,-0.3826041618982951,1500.0,1500.0,1000.0,1500.0,AUTO,10.0,0.006000000052154064,0.022386097659667332,83.0,1.5281108220418294,359.0,1.0,1.0,1.0,1.0,0.0
22:53:44,0.0019460524975632627,0.00109315764469405,-0.012483968709905943,0.0010129893586660426,-6.422730317960183e-05,0.0012840360480671127,-35.363262,149.1652372,121659.66666666667,0.12231072286764781,0.07008737325668335,0.0,124.0,0.0,-0.37331705292065936,1500.0,1500.0,1000.0,1500.0,AUTO,10.0,0.007000000216066837,0.02193434163928032,83.0,1.5280967553456624,359.0,1.0,1.0,1.0,1.0,0.0
22:53:45,0.0013297351154809196,0.0009787313756532967,-0.012192779841522375,-0.000372606407230099,0.0005291164852678776,0.002037377213127911,-35.363262,149.1652372,122829.0,0.08518219987551372,0.0653593639532725,0.0,125.66666666666667,0.0,-0.36766600608825684,1500.0,1500.0,1000.0,1500.0,AUTO,10.0,0.006000000207374494,0.02133236639201641,83.0,1.5277121861775715,359.0,1.0,1.0,1.0,1.0,0.0
22:53:46,0.001424681240071853,0.0010179613406459491,-0.012118035927414894,0.0006759819807484746,0.0008808578131720424,0.0010777207401891549,-35.363262,149.1652372,124610.0,0.08901411046584447,0.06102928022543589,0.0,127.0,0.0,-0.3630533814430237,1500.0,1500.0,1000.0,1500.0,AUTO,10.0,0.0023333334053556123,0.018355626612901688,83.0,1.5277987321217854,359.0,1.0,1.0,1.0,1.0,0.0
22:53:47,0.0015829987823963165,0.0017637056298553944,-0.01174260520686706,0.00040041170238206786,0.001307162727850179,0.002157934747325877,-35.363262,149.1652372,125778.0,0.1049094373981158,0.09858016669750214,0.0,129.33333333333334,0.0,-0.35894855856895447,1500.0,1500.0,1000.0,1500.0,AUTO,10.0,0.003000000026077032,0.01885826140642166,83.66666666666667,1.527414600054423,359.0,1.0,1.0,1.0,1.0,0.0
22:53:48,0.0017743007435152929,0.001313959287169079,-0.011103303482135138,0.0005715254228562117,0.00043522357009351254,-0.00036235784258072573,-35.3632619,149.1652372,127882.66666666667,0.12157266090313594,0.061565873523553215,0.0,130.0,0.0,-0.3507682184378306,1500.0,1500.0,1000.0,1500.0,AUTO,10.0,0.010000000707805157,0.02444198603431384,84.0,1.527876575787862,359.0,1.0,1.0,1.0,1.0,0.0
22:53:49,0.0015836456247294943,0.0006096362024739695,-0.011118565065165361,0.0008443489981194338,-0.00020249851513653994,0.0005802499363198876,-35.3632619,149.1652372,129049.0,0.10469770431518555,0.028747312103708584,0.0,128.0,0.0,-0.34599608182907104,1500.0,1500.0,1000.0,1500.0,AUTO,10.0,0.010666667483747005,0.024041081468264263,84.0,1.5277759631474812,359.0,1.0,1.0,1.0,1.0,0.0
22:53:50,0.0017277205285305779,0.00046267432723349583,-0.011188391285638014,0.0007903685327619314,0.00012217500867942968,0.00020345874751607576,-35.363262,149.1652372,130994.0,0.11203315605719884,0.02553488438328107,0.0,124.0,0.0,-0.3383203049500783,1500.0,1500.0,1000.0,1500.0,AUTO,10.0,0.00433333357796073,0.017175650224089622,84.0,1.5274069706598918,359.0,1.0,1.0,1.0,1.0,0.0
22:53:51,0.002313376870006323,0.0009320472405912975,-0.010885160105923811,0.0021908755879849195,0.0019332858501002192,0.0011839720730980237,-35.3632619,149.1652372,132160.33333333334,0.1466732919216156,0.053681651751200356,0.0,122.66666666666667,0.0,-0.333362619082133,1500.0,1500.0,1000.0,1500.0,AUTO,10.0,0.003666666802018881,0.01692270797987779,84.0,1.5273828506469727,359.0,1.0,1.0,1.0,1.0,0.0
22:53:52,0.002241346053779125,0.0008326042637539407,-0.01082263607531786,-0.0003119553439319134,0.0008165496013437709,0.0016081683958570163,-35.3632619,149.1652372,134105.66666666666,0.14262865980466208,0.052342385053634644,0.0,122.0,0.0,-0.3261946439743042,1500.0,1500.0,1000.0,1500.0,AUTO,10.0,0.0043333334227403,0.021086482952038448,84.0,1.5273011922836304,359.0,1.0,1.0,1.0,1.0,0.0
22:53:53,0.001994077659522494,0.0009859635611064732,-0.010759474088748297,0.00021893538845082125,-0.00010561481273422639,0.0011401815960804622,-35.3632619,149.1652372,135276.33333333334,0.13000856836636862,0.0651548703511556,0.0,123.0,0.0,-0.3197363217671712,1500.0,1500.0,1000.0,1500.0,AUTO,10.0,0.006666666828095913,0.021359213317433994,84.0,1.527363936106364,359.0,1.0,1.0,1.0,1.0,0.0
22:53:54,0.0014098073588684201,0.0011033177531013887,-0.010934622026979923,-0.0017404400277882814,-0.0002930997482811411,0.0006523020565509796,-35.3632619,149.1652372,137217.66666666666,0.09262719750404358,0.0651792399585247,0.0,125.0,0.0,-0.31441730260849,1500.0,1500.0,1000.0,1500.0,AUTO,10.0,0.007333333604037762,0.021489274377624195,85.0,1.5273764530817668,359.0,1.0,1.0,1.0,1.0,0.0
22:53:55,0.0011146902106702328,0.0009398692636750638,-0.010731200066705545,0.0009728883548329273,-6.0205619471768536e-05,0.0014390849974006414,-35.3632619,149.1652372,138386.33333333334,0.07651657859484355,0.061280424396197,0.0,127.0,0.0,-0.3095410068829854,1500.0,1500.0,1000.0,1500.0,AUTO,10.0,0.004000000189989805,0.01869103250404199,85.0,1.527634898821513,359.0,1.0,1.0,1.0,1.0,0.0
22:53:56,0.0016868498641997576,0.0009419833465168873,-0.01068616130699714,0.0013902634770298998,0.00024034959884981313,0.001683691826959451,-35.3632619,149.1652372,140333.66666666666,0.10340471814076106,0.05673477301994959,0.0,126.66666666666667,0.0,-0.3011523385842641,1500.0,1500.0,1000.0,1500.0,AUTO,10.0,0.003000000026077032,0.01752069468299548,85.0,1.5279167890548706,359.0,1.0,1.0,1.0,1.0,0.0
22:53:57,0.001752339769154787,0.0007951498070421318,-0.010568782997628054,0.00026851116369167965,0.0007351519307121634,0.00199452368542552,-35.3632619,149.1652372,141509.33333333334,0.10341020425160725,0.0523306168615818,0.0,126.0,0.0,-0.2996516823768616,1500.0,1500.0,1000.0,1500.0,AUTO,10.0,0.0033333334140479565,0.01738020529349645,85.0,1.5277510086695354,359.0,1.0,1.0,1.0,1.0,0.0
22:53:58,0.0017523028266926606,0.0010288648772984743,-0.010405173214773336,-0.00027203835391749937,0.00034376435602704686,-0.00024310631367067495,-35.3632619,149.1652372,143446.66666666666,0.10457515716552734,0.07015848904848099,0.0,127.0,0.0,-0.2900748550891876,1500.0,1500.0,1000.0,1500.0,AUTO,10.0,0.004000000189989805,0.017491592094302177,85.0,1.5275321404139202,359.0,1.0,1.0,1.0,1.0,0.0
22:53:59,0.0016214995412155986,0.0018078010762110353,-0.010407398454844952,0.00017205765470862389,0.0005995950195938349,0.0013429364189505577,-35.3632619,149.1652372,144613.0,0.10382373631000519,0.10914946844180425,0.0,130.0,0.0,-0.28539712230364483,1500.0,1500.0,1000.0,1500.0,AUTO,10.0,0.0033333334140479565,0.019492723668615024,83.0,1.5270645221074421,359.0,1.0,1.0,1.0,1.0,0.0
22:54:00,0.001472474153464039,0.0011415932870780428,-0.010494738817214966,0.0005541005327055851,-0.000612126236471037,0.0007143939534823099,-35.3632619,149.1652372,146558.0,0.09440212945143382,0.07040922592083614,0.0,130.66666666666666,0.0,-0.35551756620407104,1500.0,1500.0,1000.0,1500.0,AUTO,10.0,0.009000000543892384,0.02462996666630109,72.0,1.527131160100301,359.0,1.0,1.0,1.0,1.0,0.0
22:54:01,-0.005124133701125781,0.007730008122355987,0.004349995714922746,-0.0455437070534875,0.04574504719736675,0.11044914461672306,-35.3632619,149.1652372,147721.66666666666,0.17298714071512222,0.010859288275241852,0.0,128.33333333333334,0.0,-0.5470572710037231,1500.0,1500.0,1000.0,1500.0,AUTO,10.0,0.010333334095776081,0.029123462736606598,59.333333333333336,1.5001640717188518,239.66666666666666,1.0,1.0,1.0,1.0,0.0
22:54:02,-0.009810995310544968,-0.02306271872172753,0.4117304782072703,0.09653345743815105,-0.13524066656827927,0.16165054589509964,-35.36326356666667,149.16523443333335,149286.33333333334,9.344755172729492,-5.655864238739014,0.0,66.0,0.0,-0.7949967185656229,1500.0,1500.0,1000.0,1500.0,AUTO,10.0,0.4316666821638743,0.4381202856699626,41.0,0.8401206135749817,23.333333333333332,1.0,1.0,1.0,1.0,0.0
22:54:03,0.033984522645672165,-0.05463786174853643,0.4564029475053151,0.0898941159248352,0.01880444462100665,-0.003748510032892227,-35.36326426666667,149.16523223333334,149786.0,9.26276938120524,-4.02038049697876,0.0,66.33333333333333,0.0,-0.6926790277163187,1500.0,1500.0,1000.0,1500.0,AUTO,10.0,0.22166667381922403,0.13701281944910684,37.333333333333336,0.4807255466779073,26.0,1.0,1.0,1.0,1.0,0.0
22:54:04,0.024617141112685204,-0.0029577664099633694,0.40907934308052063,0.34518007934093475,0.03337628146012624,-0.04862464467684428,-35.36326283333333,149.1652341333333,150154.0,3.8060952027638755,-0.7747924129168192,0.0,82.0,0.0,-0.3828417857487996,1500.0,1500.0,1000.0,1500.0,AUTO,10.0,0.345000018676122,0.3638181686401367,36.0,0.14310498287280402,23.0,1.0,1.0,1.0,1.0,0.0
22:54:05,-0.018705848973089207,0.029172419259945553,0.36772124965985614,-0.5150111954038342,0.08977514567474525,-0.07579127699136734,-35.36326186666667,149.16523676666665,150185.66666666666,0.4333207309246063,0.6285163511832556,0.0,184.0,68.66666666666667,-0.2099316418170929,1500.0,1500.0,1000.0,1500.0,AUTO,10.0,0.37433335185050964,0.28610337773958844,34.0,-0.06264214714368184,20.333333333333332,1.0,1.0,1.0,1.0,0.0
22:54:06,-0.032777691880861916,0.03956977277994156,0.3149634798367818,-0.28874996304512024,0.0019186502322554588,-0.03470883394281069,-35.363262633333335,149.16523773333333,150014.66666666666,-1.8250205119450886,1.2162246704101562,0.0,226.0,102.66666666666667,-0.015273436593512693,1500.0,1500.0,1000.0,1500.0,AUTO,10.0,0.24133334557215372,0.31070709228515625,35.333333333333336,-0.07021363327900569,17.666666666666668,1.0,1.0,1.0,1.0,0.0
22:54:07,-0.044070648650328316,0.04348113387823105,0.25663650532563526,0.10663389662901561,-0.0039786795775095625,-0.2493083799878756,-35.363265033333334,149.16523526666666,149969.33333333334,-2.7174124717712402,1.4148791631062825,-3.3333333333333335,226.0,102.0,0.029850260044137638,1500.0,1500.0,1000.0,1500.0,AUTO,10.0,0.5630000332991282,0.6290323932965597,36.0,-0.006953902853031953,14.333333333333334,1.0,1.0,1.0,1.0,0.0
22:54:08,-0.10254813234011333,-0.005579777993261814,-0.6357840001583099,-0.09765168279409409,-0.002467197754109899,-0.8320916692415873,-35.36327276666667,149.1652254,149956.66666666666,-5.547081311543782,-2.074107805887858,-50.0,226.0,101.0,0.042841795831918716,1500.0,1500.0,1000.0,1500.0,AUTO,10.0,1.2563333908716838,1.3535293340682983,37.333333333333336,0.02369732192407052,323.0,1.0,1.0,1.0,1.0,0.0
22:54:09,-0.10900004456440608,-0.08327886462211609,-1.224027156829834,-0.09585459530353546,-0.02860676683485508,-0.7483663757642111,-35.36328073333333,149.16521523333333,149948.66666666666,-5.076229413350423,-6.489390214284261,-80.33333333333333,226.0,99.66666666666667,0.05100260302424431,1500.0,1500.0,1000.0,1500.0,AUTO,10.0,1.846333384513855,2.0132888158162436,38.666666666666664,0.006597113252306978,289.3333333333333,1.0,1.0,1.0,1.0,0.0
22:54:10,0.005992104299366474,-0.1676050821940104,-2.111017346382141,-0.00156363844871521,-0.016285692031184833,-0.49310198426246643,-35.36330213333333,149.16518836666668,149930.33333333334,2.3940206368764243,-10.209369977315268,-127.33333333333333,226.0,96.0,0.06896484146515529,1500.0,1500.0,1000.0,1500.0,AUTO,10.0,3.1540001233418784,3.3211941719055176,41.333333333333336,0.009269655837366978,238.66666666666666,1.0,1.0,1.0,1.0,0.0
22:54:11,0.03275750825802485,-0.19220237930615744,-2.217423995335897,-0.0021400575836499534,-0.02395682968199253,0.07322964196403821,-35.36331966666667,149.1651662,149917.0,4.027572949727376,-11.225869496663412,-133.33333333333334,226.0,93.0,0.0824088528752327,1500.0,1500.0,1000.0,1500.0,AUTO,10.0,3.8993334770202637,4.1063400109608965,44.0,-0.002255421985561649,232.33333333333334,1.0,1.0,1.0,1.0,0.0
22:54:12,0.029896895711620648,-0.19855357706546783,-2.183699051539103,0.02418626844882965,0.026603704240793984,-0.015825119490424793,-35.363356700000004,149.16511796666666,149896.66666666666,3.74780011177063,-11.423839886983236,-134.0,226.0,87.33333333333333,0.10294270515441895,1500.0,1500.0,1000.0,1500.0,AUTO,10.0,5.252333641052246,5.438763777414958,48.0,0.019604912338157494,234.33333333333334,1.0,1.0,1.0,1.0,0.0
22:54:13,0.038936580220858254,-0.18272294600804648,-2.195404132207235,0.013485949331273636,0.017747876117937267,-0.012779475034524998,-35.363383166666665,149.16508316666668,149921.66666666666,3.9573307832082114,-10.559725761413574,-133.66666666666666,226.0,83.33333333333333,0.0775846317410469,1500.0,1500.0,1000.0,1500.0,AUTO,10.0,5.861333688100179,6.005757649739583,48.333333333333336,0.04680262381831805,234.0,1.0,1.0,1.0,1.0,0.0
22:54:14,0.045932695269584656,-0.16501865287621817,-2.209465265274048,-0.003139131392041842,0.022058716043829918,-0.012441212156166634,-35.36343176666667,149.16501983333333,149984.33333333334,3.9715108076731362,-9.46096928914388,-133.0,226.0,75.33333333333333,0.01513346346716086,1500.0,1500.0,1000.0,1500.0,AUTO,10.0,6.515333493550618,6.582149187723796,47.666666666666664,0.032849657659729324,233.0,1.0,1.0,1.0,1.0,0.0
22:54:15,0.056000606467326484,-0.14781801402568817,-2.218264102935791,0.004966001647214095,0.02585012000054121,-0.011382891486088434,-35.36346273333333,149.16497976666668,150022.33333333334,4.3042904535929365,-8.368379751841227,-133.0,226.0,70.33333333333333,-0.022916666542490322,1500.0,1500.0,1000.0,1500.0,AUTO,10.0,6.723333676656087,6.726633866628011,45.666666666666664,0.036993768687049546,232.33333333333334,1.0,1.0,1.0,1.0,0.0
22:54:16,0.0630344587067763,-0.14097733795642853,-2.2285454273223877,-0.006132682707781593,-0.016420569891730945,-0.007334798846083383,-35.3635152,149.16491226666668,150060.66666666666,4.474086761474609,-7.840548197428386,-133.0,226.0,61.666666666666664,-0.06096679468949636,1500.0,1500.0,1000.0,1500.0,AUTO,10.0,6.748666922251384,6.73645814259847,43.666666666666664,-0.03465303126722574,232.0,1.0,1.0,1.0,1.0,0.0
22:54:17,0.06298625965913136,-0.1417153775691986,-2.2346907456715903,-0.038868499298890434,-0.0025868015363812447,-0.002065950150912007,-35.36354683333334,149.16487146666665,150037.66666666666,4.471646626790364,-7.79361359278361,-133.0,226.0,56.666666666666664,-0.03816406180461248,1500.0,1500.0,1000.0,1500.0,AUTO,10.0,6.783667087554932,6.80305274327596,44.333333333333336,-0.048698730766773224,231.33333333333334,1.0,1.0,1.0,1.0,0.0
22:54:18,0.0684681385755539,-0.1413903832435608,-2.2431097825368247,-0.014440173904101053,0.003972420080875357,-0.008274339915563663,-35.36359963333334,149.16480356666668,150024.66666666666,4.684119860331218,-7.761321067810059,-133.0,226.0,48.0,-0.025371093302965164,1500.0,1500.0,1000.0,1500.0,AUTO,10.0,6.8580002784729,6.852560202280681,45.0,-0.02808721053103606,231.0,1.0,1.0,1.0,1.0,0.0
22:54:19,0.0715436115860939,-0.13477513194084167,-2.248029947280884,0.02011693020661672,-0.007824034119645754,-0.00825460876027743,-35.36363166666667,149.16476243333332,150034.0,4.811097304026286,-7.4822360674540205,-133.0,226.0,43.0,-0.03441731631755829,1500.0,1500.0,1000.0,1500.0,AUTO,10.0,6.877000331878662,6.8453653653462725,44.666666666666664,-0.021345749497413635,231.0,1.0,1.0,1.0,1.0,0.0
22:54:20,0.07201983034610748,-0.13123068710168204,-2.255658229192098,0.026265500734249752,0.006660476326942444,-0.004941885049144427,-35.36368486666667,149.164694,150034.66666666666,4.756574789683024,-7.167352835337321,-133.0,226.0,34.333333333333336,-0.034781901786724724,1500.0,1500.0,1000.0,1500.0,AUTO,10.0,6.893666903177897,6.827588399251302,44.0,-0.019001306034624577,230.0,1.0,1.0,1.0,1.0,0.0
22:54:21,0.07187956074873607,-0.12631631890932718,-2.259171406428019,-0.020295107814793784,0.012463486132522425,-2.2902929534514744e-05,-35.3637168,149.16465283333335,150037.33333333334,4.6854141553243,-6.890024979909261,-133.0,226.0,29.0,-0.0378613273302714,1500.0,1500.0,1000.0,1500.0,AUTO,10.0,6.866000334421794,6.799387772878011,43.666666666666664,-0.01944548947115739,230.0,1.0,1.0,1.0,1.0,0.0
22:54:22,0.07602388908465703,-0.06992968047658603,-2.2649781703948975,-0.023750662803649902,0.03344901092350483,0.002271601309378942,-35.3637689,149.16458573333333,150083.33333333334,4.666889826456706,-3.7519021034240723,-133.0,226.0,20.666666666666668,-0.08356770624717076,1500.0,1500.0,1000.0,1500.0,AUTO,10.0,6.615000247955322,6.421872138977051,39.0,0.03121946689983209,230.0,1.0,1.0,1.0,1.0,0.0
22:54:23,0.0782659724354744,-0.03580352105200291,-2.2679100831349692,0.23462190727392832,0.05771558855970701,-0.02752636248866717,-35.363797999999996,149.16454836666668,150110.33333333334,4.4709579149882,-1.7869450251261394,-133.0,226.0,16.333333333333332,-0.11060546586910884,1500.0,1500.0,1000.0,1500.0,AUTO,10.0,6.1246670087178545,5.918840567270915,36.666666666666664,-0.0103902417079856,230.0,1.0,1.0,1.0,1.0,0.0
22:54:24,0.07122680048147838,0.02125905267894268,-2.271433671315511,0.505016694466273,0.048473297307888664,-0.03998401512702306,-35.36383966666667,149.16449426666668,150107.0,3.6179983615875244,1.648197333017985,-133.0,226.0,9.333333333333334,-0.1074511706829071,1500.0,1500.0,1000.0,1500.0,AUTO,10.0,5.035000165303548,4.723311583201091,34.333333333333336,-0.05742257212599119,229.0,1.0,1.0,1.0,1.0,0.0
22:54:25,0.05159491176406542,0.04613794883092245,-2.2708423137664795,-0.5783529380957285,0.02114071782367925,0.024580157982806366,-35.363859600000005,149.16446820000002,150086.33333333334,2.9802194436391196,3.141162554423014,-133.0,225.33333333333334,6.0,-0.08696939796209335,1500.0,1500.0,1000.0,1500.0,AUTO,10.0,4.124000231424968,3.8309824466705322,34.333333333333336,-0.07339803005258243,229.0,1.0,1.0,1.0,1.0,0.0
22:54:26,0.09554582834243774,0.09988229721784592,-2.225663423538208,0.1448041113714377,0.06377398719390233,0.11367942889531453,-35.363883066666666,149.16443633333333,150048.0,4.617472012837728,6.440080165863037,-129.66666666666666,222.33333333333334,2.3333333333333335,-0.048684895038604736,1500.0,1500.0,1000.0,1500.0,AUTO,10.0,2.639000097910563,2.2647407054901123,35.0,-0.05431147292256355,232.0,1.0,1.0,1.0,1.0,0.0
22:54:27,0.12306246658166249,0.1199659729997317,-2.0463769833246865,-0.4668427109718323,0.025570756988599896,0.41624998052914935,-35.36388936666666,149.16442400000003,150032.0,7.059904098510742,7.611447970072429,-119.0,208.33333333333334,1.0,-0.032698567335804306,1500.0,1500.0,1000.0,1500.0,AUTO,10.0,1.5006666978200276,1.3000182310740154,35.666666666666664,-0.05371568351984024,242.33333333333334,1.0,1.0,1.0,1.0,0.0
22:54:28,0.19958966970443726,-0.03100752644240856,-1.1849114100138347,-0.04951131840546926,-0.008597832638770342,0.7248674829800924,-35.36388333333334,149.16441356666667,150004.33333333334,11.600632031758627,-0.40506718556086224,-71.0,0.0,169.0,-0.005110677021245162,1500.0,1500.0,1000.0,1500.0,AUTO,10.0,1.2176667054494221,1.7365854581197102,39.0,-0.06690885374943416,291.6666666666667,1.0,1.0,1.0,1.0,0.0
22:54:29,0.1747757742802302,-0.13694876929124197,-0.6617991129557291,-0.014000535011291504,0.0006932475759337345,0.7067935268084208,-35.363869533333336,149.16441143333333,149980.33333333334,10.55731995900472,-6.959352970123291,-41.0,0.0,167.33333333333334,0.019368489272892475,1500.0,1500.0,1000.0,1500.0,AUTO,10.0,2.332333485285441,2.8123439153035483,41.666666666666664,-0.07282016426324844,322.0,1.0,1.0,1.0,1.0,0.0
22:54:30,0.03283966891467571,-0.21005810797214508,0.08837282533446948,0.017747096717357635,-0.014059139105180899,0.19219952325026193,-35.363830633333336,149.16441133333333,149963.66666666666,3.1929595470428467,-12.767918904622396,-1.3333333333333333,0.0,163.0,0.035970052083333336,1500.0,1500.0,1000.0,1500.0,AUTO,10.0,3.9580002625783286,4.377835114796956,45.0,-0.04775611311197281,4.666666666666667,1.0,1.0,1.0,1.0,0.0
22:54:31,0.03551500787337621,-0.22789772351582846,0.06581555679440498,0.01997135952115059,-0.041752234722177185,-0.07729395727316539,-35.36379933333333,149.1644118,149946.66666666666,2.9584995905558267,-13.902697245279947,0.0,0.0,159.66666666666666,0.05276692658662796,1500.0,1500.0,1000.0,1500.0,AUTO,10.0,4.86566686630249,5.187722524007161,48.333333333333336,-0.06077489877740542,3.3333333333333335,1.0,1.0,1.0,1.0,0.0
22:54:32,0.06758243838946025,-0.1988001267115275,0.04383550211787224,-0.006092924935122331,0.03343022676805655,0.0009516869128371278,-35.363735133333336,149.16441239999997,149928.66666666666,4.509856224060059,-11.934741655985514,0.0,0.0,152.33333333333334,0.07096028452118237,1500.0,1500.0,1000.0,1500.0,AUTO,10.0,6.160000324249268,6.3616042137146,50.666666666666664,0.030334491282701492,2.0,1.0,1.0,1.0,1.0,0.0
22:54:33,0.07409074157476425,-0.17495448887348175,0.0434063176314036,-0.005970079762240251,0.017759058624505997,0.0014809169418488939,-35.36369116666666,149.16441313333334,149966.33333333334,4.7932969729105634,-10.526387214660645,0.0,0.0,147.66666666666666,0.033203124379118286,1500.0,1500.0,1000.0,1500.0,AUTO,10.0,6.651000340779622,6.743034362792969,49.333333333333336,0.05877003073692322,2.0,1.0,1.0,1.0,1.0,0.0
22:54:34,0.07206876327594121,-0.1400486926237742,0.042022028317054115,0.008704072485367456,0.019793578035508592,-0.0035260223861162863,-35.36361393333333,149.16441496666664,150028.0,4.536797841389974,-8.271957715352377,0.0,0.0,139.0,-0.028317056596279144,1500.0,1500.0,1000.0,1500.0,AUTO,10.0,6.966667016347249,6.966885884602864,45.333333333333336,0.050506665060917534,2.0,1.0,1.0,1.0,1.0,0.0
22:54:35,0.07659279058376949,-0.1269597386320432,0.03985074535012245,-0.004418608422080676,-0.0205337624065578,-0.002470506510386864,-35.36356706666667,149.164416,150055.33333333334,4.716081301371257,-7.407977898915608,0.0,0.0,133.66666666666666,-0.055947265277306236,1500.0,1500.0,1000.0,1500.0,AUTO,10.0,6.932000319163005,6.89664888381958,43.333333333333336,0.02560091610454644,2.0,1.0,1.0,1.0,1.0,0.0
22:54:36,0.074660691122214,-0.14433484772841135,0.036386833836634956,0.014655819240336617,-0.005262901385625203,-0.003244376896570126,-35.36348973333333,149.16441756666666,150011.33333333334,4.580966154734294,-8.198540687561035,0.0,0.0,125.0,-0.011715494833576182,1500.0,1500.0,1000.0,1500.0,AUTO,10.0,6.890666961669922,6.896866162618001,45.0,-0.03322457708418369,2.0,1.0,1.0,1.0,1.0,0.0
22:54:37,0.07706822206576665,-0.14028683304786682,0.03475070744752884,-0.0005114711821079254,0.002618861539910237,0.0011817940200368564,-35.363443100000005,149.1644183,149988.66666666666,4.682495594024658,-7.95422347386678,0.0,0.0,120.0,0.010800781194120646,1500.0,1500.0,1000.0,1500.0,AUTO,10.0,6.933666865030925,6.920431931813558,45.0,0.0007215738296508789,1.6666666666666667,1.0,1.0,1.0,1.0,0.0
22:54:38,0.07767897595961888,-0.1344341238339742,0.03211331988374392,0.01273229376723369,0.003711245022714138,-0.001406320681174596,-35.36336523333333,149.1644193,149980.66666666666,4.695995966593425,-7.602330207824707,0.0,0.0,111.0,0.01879882688323657,1500.0,1500.0,1000.0,1500.0,AUTO,10.0,6.946667035420735,6.9081986745198565,45.0,0.02382005626956622,1.0,1.0,1.0,1.0,1.0,0.0
22:54:39,0.07833325366179149,-0.12966442108154297,0.03031669557094574,-0.006829441214601199,0.006391290885706742,-0.0017280594911426306,-35.3633185,149.1644199,149982.33333333334,4.705008506774902,-7.297863801320394,0.0,0.0,106.0,0.017447916480402153,1500.0,1500.0,1000.0,1500.0,AUTO,10.0,6.918000380198161,6.882452328999837,44.333333333333336,0.03258796657125155,1.0,1.0,1.0,1.0,1.0,0.0
22:54:40,0.07709375768899918,-0.13243054846922556,0.028056838860114414,-0.019184467072288196,0.006473150880386432,-0.0014210920004794996,-35.36324113333334,149.1644208,149977.0,4.645283381144206,-7.438411712646484,0.0,0.0,97.33333333333333,0.02251627544562022,1500.0,1500.0,1000.0,1500.0,AUTO,10.0,6.843666871388753,6.8359934488932295,44.666666666666664,0.00944750135143598,1.0,1.0,1.0,1.0,1.0,0.0
22:54:41,0.07301848630110423,-0.13177324831485748,0.027308521171410877,-0.010906707495450974,-0.0033904716838151217,0.003696064930409193,-35.363195,149.1644213666667,149970.66666666666,4.4109517733256025,-7.444089889526367,0.0,0.0,92.33333333333333,0.028919269641240437,1500.0,1500.0,1000.0,1500.0,AUTO,10.0,6.8156669934590655,6.82972510655721,45.0,0.012678101969261965,1.0,1.0,1.0,1.0,1.0,0.0
22:54:42,0.07625893503427505,-0.1380097915728887,0.024756346518794697,0.01931477089722951,-0.00020198826678097248,-0.0019420378375798464,-35.3631189,149.16442213333332,149975.66666666666,4.552886009216309,-7.764669895172119,0.0,0.0,84.0,0.023574218153953552,1500.0,1500.0,1000.0,1500.0,AUTO,10.0,6.822000344594319,6.81854788462321,45.333333333333336,0.015257996817429861,1.0,1.0,1.0,1.0,1.0,0.0
22:54:43,0.07739819586277008,-0.13498584429423013,0.02340862217048804,-0.015671852976083755,0.014793096420665583,-0.001080164685845375,-35.3630728,149.16442253333335,149987.0,4.613865216573079,-7.6062912940979,0.0,0.0,78.66666666666667,0.012447916281720003,1500.0,1500.0,1000.0,1500.0,AUTO,10.0,6.837333679199219,6.831531683603923,45.0,0.016806197663148243,1.0,1.0,1.0,1.0,1.0,0.0
22:54:44,0.07237602521975835,-0.1324520707130432,0.022153988480567932,-0.007673813651005427,-0.004176511118809382,-0.0027310624718666077,-35.36299593333333,149.1644235,150002.66666666666,4.30039628346761,-7.4984556833903,0.0,0.0,70.0,-0.0030436197218174734,1500.0,1500.0,1000.0,1500.0,AUTO,10.0,6.821667035420735,6.8119832674662275,45.0,0.0066953920759260654,1.0,1.0,1.0,1.0,1.0,0.0
22:54:45,0.0708533947666486,-0.1361199418703715,0.021187544489900272,-0.01241141278296709,-0.005530569081505139,0.0028592998860403895,-35.36295006666666,149.1644241,150002.33333333334,4.230548699696858,-7.706470171610515,0.0,0.0,65.0,-0.0028873696768035493,1500.0,1500.0,1000.0,1500.0,AUTO,10.0,6.812666893005371,6.798074086507161,45.0,-0.010073254661013683,1.0,1.0,1.0,1.0,1.0,0.0
22:54:46,0.0720854178071022,-0.13211174805959067,0.01945725952585538,-0.0007908487847695748,0.018509590066969395,-0.001055932914217313,-35.3628736,149.16442483333336,149999.0,4.279638767242432,-7.478250662485759,0.0,0.0,56.333333333333336,0.0006901041391150405,1500.0,1500.0,1000.0,1500.0,AUTO,10.0,6.833333651224772,6.804383436838786,45.0,0.0018815126580496628,1.0,1.0,1.0,1.0,1.0,0.0
22:54:47,0.07398922244707744,-0.13219566643238068,0.01820903830230236,0.014175609995921453,-0.007681043818593025,0.0009113329773147901,-35.362827566666674,149.1644252,150006.0,4.354346911112468,-7.484032313028972,0.0,0.0,51.333333333333336,-0.006708984263241291,1500.0,1500.0,1000.0,1500.0,AUTO,10.0,6.8093336423238116,6.789590040842692,44.666666666666664,-0.0017169554873059194,1.0,1.0,1.0,1.0,1.0,0.0
22:54:48,0.07340929160515468,-0.13468678295612335,0.017504448692003887,-0.027921296656131744,-0.0011512093090762694,0.002709659126897653,-35.36275106666667,149.1644259,150007.0,4.286805788675944,-7.623608271280925,0.0,0.0,43.0,-0.00744466142108043,1500.0,1500.0,1000.0,1500.0,AUTO,10.0,6.796666940053304,6.770380020141602,45.0,-0.008210003065566221,0.3333333333333333,1.0,1.0,1.0,1.0,0.0
22:54:49,0.07124044746160507,-0.13241848349571228,0.016732680300871532,-0.00797597567240397,-0.014474531635642052,-0.0006502072016398112,-35.362705166666665,149.16442643333332,150006.0,4.219427744547526,-7.547300497690837,0.0,0.0,37.666666666666664,-0.006552734257032474,1500.0,1500.0,1000.0,1500.0,AUTO,10.0,6.795667012532552,6.768420537312825,44.666666666666664,-0.0015408962717629038,0.3333333333333333,1.0,1.0,1.0,1.0,0.0
